     3.03           OBSERVATION DATA    M: Mixed            RINEX VERSION / TYPE
rinex ON            NSL                 20201030 142155 UTC PGM / RUN BY / DATE
                                                            MARKER NAME
                                                            MARKER TYPE
rinex ON User                                               OBSERVER / AGENCY
  3172306.5003   603530.8954  5481984.2008                  APPROX POSITION XYZ
XXXXXXXX            samsung             SM-G981B            REC # / TYPE / VERS
XXXXXXXX            SM-G981B                                ANT # / TYPE
  3149785.9652   598260.8822  5495348.4927                  APPROX POSITION XYZ
        0.0000        0.0000        0.0000                  ANTENNA: DELTA H/E/N
G    8 C1C L1C D1C S1C C5X L5X D5X S5X                      SYS / # / OBS TYPES
R    4 C1C L1C D1C S1C                                      SYS / # / OBS TYPES
E    8 C1C L1C D1C S1C C5X L5X D5X S5X                      SYS / # / OBS TYPES
C    4 C2I L2I D2I S2I                                      SYS / # / OBS TYPES
J    8 C1C L1C D1C S1C C5X L5X D5X S5X                      SYS / # / OBS TYPES
  2020    10    30    13    22   14.0001055     GPS         TIME OF FIRST OBS
 22 R01  1 R02 -4 R03  5 R04  6 R05  1 R06 -4 R07  5 R08  6 GLONASS SLOT / FRQ #
    R09 -2 R10 -7 R12 -1 R13 -2 R14 -7 R15  0 R17  4 R18 -3 GLONASS SLOT / FRQ #
    R19  3 R20  2 R21  4 R22 -3 R23  3 R24  2               GLONASS SLOT / FRQ #  
                                                            END OF HEADER
> 2020 10 30 13 22 14.0001055  0 39
G02  22712955.948     -727801.017       -1856.301          29.649                                                            
G04  23308666.946     8217812.395       -4028.001          36.637    23308666.346     6202257.627       -3007.629          19.653
G05  22367801.293    -8708008.455        2162.374          37.659                                                            
G06  23722321.778     4807108.769       -4297.838          26.830    23722323.877     1620033.894       -3207.324          14.774
G07  21627960.275    -7543028.140        1108.792          44.548                                                            
G09  20790212.136     6645642.189       -2362.505          47.644    20790215.134     4944649.063       -1764.019          29.366
G16  23085125.800    -5240009.836        -741.917          38.150                                                            
G26  24498253.012     2755242.454       -3026.339          39.001                                                            
G29  24300297.954      973205.349       -1590.924          40.662                                                            
G30  23019466.455    -4004032.518        2606.676          34.408    23019475.449     -995347.740        1947.583          18.803
R10  21400466.965   -10290815.589        3017.935          37.322                                                            
R09  20198645.769    -5576784.935        -680.262          43.217                                                            
R16  22543175.984    -1545669.370       -4386.661          37.495                                                            
R01  21255203.729    -9974013.949        2561.955          34.668                                                            
R24  21448454.444     1934565.632       -2043.412          39.886                                                            
R23  22411907.959     5867725.885       -4554.311          34.569                                                            
R17  22494453.714    -3178679.577        1732.678          41.678                                                            
R07  20769783.978     7530613.784       -3676.404          44.727                                                            
R08  19264406.129    -5991955.816        -173.323          39.064                                                            
J02  43587163.635          26.673        -979.511          24.742                                                            
C09  40319897.116     3374370.290       -1847.520          21.476                                                            
C10  39332766.592    -1123853.212         689.551          25.388                                                            
C14  21821687.960     2389672.006       -1997.056          41.961                                                            
C24  23792814.377    -3068556.905        1940.556          38.898                                                            
C26  22505623.681      729768.080        -942.476          42.962                                                            
C27  24943273.631     1973909.043       -2061.211          33.208                                                            
C28  26489827.374     1145132.873       -3869.177          29.421                                                            
C30  25748947.575     -494167.290         540.054          36.110                                                            
C33  21922888.300      -50791.789        -281.356          41.361                                                            
E02  26536265.526        1682.589       -2335.607          35.922                                                            
E07  24565703.917     4234593.453       -2586.507          43.182    24565709.613     1103314.814       -1930.525          24.136
E08  26937099.734          75.275       -3643.899          21.528                                                            
E12  24049872.020        -100.956        -635.121          36.609                                                            
E14  22241299.069          15.764       -2578.534          37.590                                                            
E19  26288484.361         -40.339        1868.291          29.299                                                            
E26  28030839.753          60.269       -4078.045          21.457                                                            
E27  27105950.341     -560512.865        2445.857          39.879    27105949.442     -379845.700        1826.799          14.584
E30  24256923.082     -139383.597         434.691          37.771    24256923.381     -119412.134         323.027          17.232
E33  26214832.549     1119190.489       -3277.635          35.131    26214834.648      806400.245       -2445.961          22.954
> 2020 10 30 13 22 15.0001055  0 39
G02  22713310.302     -725944.223       -1856.199          32.039                                                            
G04  23309430.517     8221841.002       -4028.412          37.296    23309436.513     6205262.507       -3007.953          17.337
G05  22367389.978    -8710170.227        2162.117          39.235                                                            
G06  23723145.308     4811406.192       -4297.847          33.662    23723143.809     1623241.233       -3207.496          15.297
G07  21627749.820    -7544136.866        1108.585          45.652                                                            
G09  20790662.424     6648004.799       -2362.772          49.293    20790664.522     4946413.268       -1764.093          30.899
G16  23085263.704    -5239267.746        -742.138          37.946                                                            
G26  24498828.614     2755242.525       -3026.339          37.822                                                            
G29  24300601.644      974796.647       -1591.426          42.362                                                            
G30  23018977.493    -4006639.146        2606.370          35.673    23018981.691     -997293.098        1947.111          18.404
R10  21399882.670   -10293832.511        3016.466          39.685                                                            
R09  20198769.583    -5576104.737        -680.457          44.938                                                            
R16  22543999.514    -1541282.250       -4387.240          38.802                                                            
R01  21254731.855    -9976574.854        2561.281          37.333                                                            
R24  21448833.981     1936609.151       -2043.192          40.904                                                            
R23  22412744.080     5872281.998       -4551.706          30.649                                                            
R17  22494132.036    -3180411.666        1731.782          42.843                                                            
R07  20770477.398     7534290.113       -3676.362          47.325                                                            
R08  19264440.006    -5991782.652        -173.497          41.659                                                            
J02  43587351.305          26.696        -979.511          18.886                                                            
C09  40320254.169     3376213.331       -1849.339          19.925                                                            
C10  39332630.487    -1124546.646         690.153          26.446                                                            
C14  21822074.092     2391669.036       -1997.131          43.441                                                            
C24  23792442.035    -3070497.422        1940.458          42.262                                                            
C26  22505802.957      730710.725        -942.909          44.954                                                            
C27  24943669.957     1975971.248       -2062.341          38.956                                                            
C28  26490564.864     1149003.079       -3866.273          26.978                                                            
C30  25748841.748     -494706.900         539.496          36.466                                                            
C33  21922937.766      -50510.684        -281.249          40.991                                                            
E02  26536709.818        1682.655       -2336.583          33.189                                                            
E07  24566196.476     4237180.005       -2586.519          45.510    24566201.872     1105246.103       -1932.757          26.906
E08  26937793.454          75.361       -3643.899          17.665                                                            
E12  24049993.436        -100.941        -635.121          34.530                                                            
E14  22241790.429          15.834       -2580.485          35.965                                                            
E19  26288129.407         -40.383        1868.291          23.930                                                            
E26  28031616.815          60.365       -4078.045          23.636                                                            
E27  27105482.965     -562958.462        2445.689          41.342    27105491.059     -381672.518        1826.818          12.000
E30  24256841.838     -139818.559         434.856          39.956    24256839.739     -119736.847         327.240          22.288
E33  26215456.417     1122467.874       -3277.604          32.894    26215457.916      808847.349       -2445.045          23.004
> 2020 10 30 13 22 16.0001055  0 39
G02  22713656.563     -724086.899       -1857.721          35.538                                                            
G04  23310194.988     8225870.202       -4029.531          36.505    23310202.183     6208272.650       -3009.229          20.015
G05  22366977.464    -8712331.625        2161.062          40.861                                                            
G06  23723960.144     4815704.023       -4298.384          33.447    23723962.542     1626448.558       -3207.324          13.899
G07  21627538.766    -7545244.785        1107.346          45.640                                                            
G09  20791111.813     6650368.201       -2363.911          49.094    20791114.511     4948178.180       -1765.403          32.007
G16  23085398.611    -5238524.764        -743.819          37.061                                                            
G26  24499405.714     2755242.424       -3027.314          38.959                                                            
G29  24300905.034      976388.738       -1592.682          42.681                                                            
G30  23018478.339    -4009245.343        2606.005          36.767    23018480.737     -999239.224        1947.937          22.205
R10  21399312.764   -10296848.404        3015.057          39.178                                                            
R09  20198896.395    -5575423.322        -682.089          43.727                                                            
R16  22544815.249    -1536894.412       -4388.095          37.663                                                            
R01  21254248.590    -9979135.417        2560.119          37.953                                                            
R24  21449206.323     1938653.789       -2045.344          43.045                                                            
R23  22413577.803     5876837.786       -4556.381          31.461                                                            
R17  22493810.959    -3182142.808        1730.708          41.858                                                            
R07  20771162.723     7537967.175       -3677.650          46.756                                                            
R08  19264467.886    -5991608.405        -174.716          41.962                                                            
J02  43587538.075          26.658        -979.511          27.552                                                            
C09  40320607.324     3378056.677       -1852.954          20.446                                                            
C10  39332497.379    -1125236.831         687.868          31.986                                                            
C14  21822456.028     2393666.804       -1998.183          43.769                                                            
C24  23792066.995    -3072437.344        1939.485          41.496                                                            
C26  22505984.931      731654.195        -944.057          43.426                                                            
C27  24944064.483     1978034.123       -2063.392          38.436                                                            
C28  26491304.152     1152872.554       -3874.620          26.826                                                            
C30  25748738.619     -495245.822         538.657          36.735                                                            
C33  21922992.928      -50228.632        -282.540          42.095                                                            
E02  26537155.310        1682.563       -2336.583          36.586                                                            
E07  24566689.335     4239767.090       -2587.492          45.682    24566695.331     1107178.052       -1932.503          27.648
E08  26938487.173          75.218       -3643.899          18.214                                                            
E12  24050116.051        -100.947        -636.097          36.650                                                            
E14  22242282.988          15.900       -2581.461          35.793                                                            
E19  26287774.452         -40.310        1868.291          30.573                                                            
E26  28032392.978          60.461       -4078.045          26.795                                                            
E27  27105017.387     -565403.759        2445.059          41.213    27105025.481     -383499.336        1826.818          13.843
E30  24256760.894     -140252.728         433.562          39.163    24256755.198     -120066.003         325.822          21.210
E33  26216082.084     1125745.757       -3281.362          30.692    26216080.885      811295.064       -2444.602          22.195
> 2020 10 30 13 22 17.0001055  0 39
G02  22714012.117     -722228.871       -1858.876          36.695                                                            
G04  23310962.456     8229899.712       -4030.075          35.201    23310970.551     6211276.581       -3007.000          20.447
G05  22366565.849    -8714492.295        2159.875          41.577                                                            
G06  23724778.578     4820002.410       -4298.602          32.739    23724781.276     1629656.674       -3207.496          12.000
G07  21627327.113    -7546351.969        1106.538          45.601                                                            
G09  20791562.101     6652732.282       -2364.680          48.640    20791563.600     4949943.495       -1765.557          32.793
G16  23085544.010    -5237780.610        -745.237          39.132                                                            
G26  24499981.915     2755242.512       -3028.290          35.021                                                            
G29  24301208.723      977981.699       -1593.645          41.721                                                            
G30  23017983.082    -4011850.905        2605.090          38.895    23017984.881    -1001184.918        1946.980          23.011
R10  21398751.852   -10299863.521        3014.472          39.372                                                            
R09  20199022.608    -5574740.674        -683.464          44.135                                                            
R16  22545633.383    -1532505.824       -4389.108          35.836                                                            
R01  21253769.522    -9981695.322        2559.637          39.083                                                            
R24  21449593.056     1940699.651       -2046.793          43.786                                                            
R23  22414444.203     5881393.902       -4559.275          29.931                                                            
R17  22493473.992    -3183873.110        1729.897          38.808                                                            
R07  20771840.854     7541644.925       -3678.183          45.969                                                            
R08  19264507.459    -5991433.295        -175.850          41.404                                                            
J02  43587724.546          26.681        -979.511          25.525                                                            
C09  40320966.476     3379906.001       -1853.508          21.609                                                            
C10  39332364.870    -1125924.384         687.436          33.694                                                            
C14  21822841.261     2395665.283       -1998.919          44.251                                                            
C24  23791697.051    -3074376.583        1938.720          41.390                                                            
C26  22506167.804      732598.518        -944.868          43.322                                                            
C27  24944463.807     1980097.776       -2064.547          37.328                                                            
C28  26492046.438     1156742.136       -3871.633          26.724                                                            
C30  25748639.088     -495783.992         538.093          36.035                                                            
C33  21923046.291      -49945.960        -283.087          42.280                                                            
E02  26537600.801        1682.629       -2337.559          40.919                                                            
E07  24567181.294     4242354.644       -2587.934          44.837    24567186.691     1109110.364       -1932.845          27.963
E08  26939180.893          75.304       -3643.899          20.790                                                            
E12  24050236.268        -100.932        -636.097          37.880                                                            
E14  22242774.348          15.809       -2583.412          35.942                                                            
E19  26287418.599         -40.354        1868.291          29.516                                                            
E26  28033169.141          60.301       -4078.045          24.378                                                            
E27  27104550.610     -567848.638        2444.547          41.090    27104561.403     -385324.945        1826.818          13.484
E30  24256676.352     -140686.138         432.817          39.805    24256674.554     -120399.810         325.721          21.886
E33  26216708.950     1129024.239       -3281.580          28.730    26216704.453      813743.331       -2446.403          22.995
> 2020 10 30 13 22 18.0001055  0 39
G02  22714365.872     -720369.721       -1859.436          36.248                                                            
G04  23311728.726     8233929.858       -4030.970          32.719    23311735.921     6214286.911       -3007.076          19.541
G05  22366155.733    -8716652.208        2159.284          41.593                                                            
G06  23725597.311     4824301.453       -4299.614          34.076    23725600.608     1632863.789       -3208.886          16.177
G07  21627115.759    -7547458.116        1105.479          46.639                                                            
G09  20792011.190     6655097.342       -2365.629          47.793    20792013.589     4951709.714       -1766.857          32.201
G16  23085687.011    -5237035.255        -746.068          39.107                                                            
G26  24500558.716     2755242.583       -3028.290          35.870                                                            
G29  24301510.314      979575.903       -1594.706          38.721                                                            
G30  23017486.326    -4014455.811        2604.182          41.460    23017491.122    -1003130.240        1945.986          24.118
R10  21398181.647   -10302877.502        3013.403          42.580                                                            
R09  20199148.820    -5574056.519        -685.049          45.081                                                            
R16  22546477.598    -1528116.112       -4390.268          35.926                                                            
R01  21253301.546    -9984254.438        2558.716          39.669                                                            
R24  21449970.494     1942746.841       -2048.154          43.278                                                            
R23  22415297.712     5885950.356       -4558.938          29.754                                                            
R17  22493155.912    -3185602.013        1728.340          39.939                                                            
R07  20772540.869     7545323.633       -3679.552          46.115                                                            
R08  19264530.543    -5991257.042        -177.095          41.644                                                            
J02  43587910.118          26.704        -979.511          21.009                                                            
C09  40321321.730     3381754.777       -1853.080          18.628                                                            
C10  39332233.561    -1126611.246         686.702          33.328                                                            
C14  21823224.996     2397664.750       -2000.060          44.200                                                            
C24  23791324.109    -3076314.919        1937.643          44.541                                                            
C26  22506349.478      733543.985        -946.227          44.531                                                            
C27  24944858.934     1982162.346       -2065.429          37.358                                                            
C28  26492792.621     1160612.505       -3868.597          25.978                                                            
C30  25748533.861     -496320.991         536.182          34.630                                                            
C33  21923105.350      -49662.261        -284.227          42.373                                                            
E02  26538044.794        1682.684       -2337.559          39.346                                                            
E07  24567676.851     4244942.927       -2588.602          44.237    24567678.350     1111043.043       -1932.259          28.089
E08  26939874.613          75.389       -3643.899          18.184                                                            
E12  24050357.684        -100.899        -637.073          37.387                                                            
E14  22243266.607          15.874       -2584.388          36.676                                                            
E19  26287063.944         -40.386        1867.315          28.115                                                            
E26  28033945.304          60.397       -4078.045          22.022                                                            
E27  27104088.030     -570292.876        2443.796          39.395    27104095.525     -387153.242        1825.579          18.516
E30  24256592.411     -141118.492         431.786          41.243    24256596.008     -120715.469         323.030          21.078
E33  26217328.321     1132303.525       -3281.119          29.206    26217328.021      816192.062       -2447.311          21.891
> 2020 10 30 13 22 19.0001055  0 39
G02  22714722.325     -718508.787       -1861.030          36.953                                                            
G04  23312499.492     8237960.915       -4031.628          30.690    23312504.289     6217290.705       -3007.210          21.461
G05  22365744.118    -8718810.953        2158.468          42.371                                                            
G06  23726413.046     4828602.095       -4300.264          36.754    23726418.442     1636074.564       -3207.171          18.220
G07  21626904.406    -7548563.071        1104.675          47.052                                                            
G09  20792462.378     6657463.592       -2366.580          48.098    20792463.877     4953476.730       -1767.530          31.850
G16  23085832.711    -5236288.430        -747.474          39.295                                                            
G26  24501136.116     2755242.500       -3030.241          37.030                                                            
G29  24301815.203      981171.463       -1595.854          39.837                                                            
G30  23016991.069    -4017059.099        2603.537          42.954    23016996.165    -1005074.477        1944.652          25.034
R10  21397622.534   -10305890.314        3012.306          42.995                                                            
R09  20199283.727    -5573370.775        -686.287          45.165                                                            
R16  22547294.833    -1523725.158       -4391.499          36.657                                                            
R01  21252822.177    -9986812.441        2557.657          40.173                                                            
R24  21450359.625     1944795.722       -2049.684          43.845                                                            
R23  22416138.031     5890513.254       -4557.066          26.576                                                            
R17  22492827.340    -3187329.466        1726.929          39.620                                                            
R07  20773223.796     7549003.483       -3680.221          46.438                                                            
R08  19264569.216    -5991079.451        -177.703          41.785                                                            
J02  43588096.888          26.679        -980.487          16.518                                                            
C09  40321679.982     3383603.803       -1852.023          19.613                                                            
C10  39332100.154    -1127297.317         686.281          33.699                                                            
C14  21823607.531     2399665.259       -2000.866          43.480                                                            
C24  23790951.767    -3078252.240        1936.973          44.874                                                            
C26  22506530.853      734490.712        -947.320          44.304                                                            
C27  24945254.060     1984228.143       -2066.233          37.648                                                            
C28  26493543.002     1164487.664       -3871.282          24.544                                                            
C30  25748431.931     -496856.830         535.487          35.790                                                            
C33  21923160.512      -49377.420        -285.038          41.633                                                            
E02  26538490.585        1682.614       -2339.510          38.561                                                            
E07  24568168.511     4247532.235       -2589.681          45.090    24568173.008     1112976.763       -1934.728          27.262
E08  26940568.632          75.257       -3644.874          20.294                                                            
E12  24050479.400        -100.887        -639.024          37.754                                                            
E14  22243759.466          15.788       -2587.315          37.184                                                            
E19  26286708.091         -40.301        1866.340          30.036                                                            
E26  28034721.766          60.243       -4079.021          26.263                                                            
E27  27103621.853     -572736.340        2443.324          39.544    27103626.650     -388984.989        1825.217          18.874
E30  24256511.167     -141549.731         430.761          41.130    24256515.963     -121037.473         322.660          21.284
E33  26217950.391     1135583.738       -3280.568          29.088    26217956.087      818616.036       -2449.630          21.138
> 2020 10 30 13 22 20.0001055  0 39
G02  22715075.480     -716646.960       -1862.103          35.978                                                            
G04  23313263.064     8241993.108       -4032.756          30.446    23313272.058     6220304.433       -3007.915          19.628
G05  22365332.203    -8720968.416        2156.970          40.150                                                            
G06  23727230.280     4832903.308       -4301.462          37.234    23727237.775     1639284.992       -3209.458          20.993
G07  21626693.951    -7549666.583        1103.041          47.329                                                            
G09  20792912.966     6659831.242       -2368.030          48.068    20792914.465     4955244.728       -1768.144          32.329
G16  23085975.112    -5235539.924        -749.209          38.853                                                            
G26  24501713.217     2755242.589       -3031.217          37.125                                                            
G29  24302117.994      982768.556       -1597.334          41.355                                                            
G30  23016495.512    -4019661.715        2602.346          42.189    23016501.208    -1007018.054        1944.771          24.653
R10  21397055.027   -10308901.627        3010.753          43.151                                                            
R09  20199410.839    -5572683.132        -688.202          45.787                                                            
R16  22548118.362    -1519332.834       -4392.857          37.081                                                            
R01  21252350.004    -9989369.230        2556.164          38.096                                                            
R24  21450743.060     1946846.360       -2051.259          42.894                                                            
R23  22417016.123     5895075.666       -4559.141          26.013                                                            
R17  22492509.260    -3189055.197        1725.037          40.430                                                            
R07  20773916.017     7552684.696       -3681.566          46.781                                                            
R08  19264594.399    -5990900.198        -179.751          41.629                                                            
J02  43588284.858          26.716        -981.462          21.009                                                            
C09  40322045.429     3385458.555       -1850.644          18.757                                                            
C10  39331968.245    -1127982.356         685.332          34.269                                                            
C14  21823994.863     2401667.100       -2002.192          43.778                                                            
C24  23790580.924    -3080188.230        1935.573          45.553                                                            
C26  22506714.026      735438.915        -948.741          44.980                                                            
C27  24945656.082     1986295.461       -2067.606          37.310                                                            
C28  26494283.489     1168364.472       -3871.743          25.070                                                            
C30  25748327.304     -497391.221         534.018          35.996                                                            
C33  21923213.275      -49091.221        -286.577          41.649                                                            
E02  26538936.077        1682.679       -2340.486          38.403                                                            
E07  24568661.070     4250122.616       -2590.517          45.138    24568665.867     1114911.192       -1934.969          27.059
E08  26941262.352          75.352       -3645.850          19.647                                                            
E12  24050602.314        -100.853        -639.999          37.035                                                            
E14  22244252.025          15.858       -2589.266          35.775                                                            
E19  26286353.136         -40.345        1866.340          29.593                                                            
E26  28035498.828          60.339       -4079.021          19.669                                                            
E27  27103156.275     -575178.716        2442.031          39.366    27103161.072     -390801.284        1825.560          18.522
E30  24256429.923     -141979.541         429.354          41.426    24256429.623     -121358.779         321.978          21.872
E33  26218573.359     1138865.406       -3282.134          29.197    26218580.554      821063.360       -2449.353          21.224
> 2020 10 30 13 22 21.0001055  0 39
G02  22715427.737     -714784.121       -1863.278          34.334                                                            
G04  23314030.233     8246025.833       -4033.225          37.656    23314040.725     6223318.207       -3010.278          21.397
G05  22364920.288    -8723125.176        2155.720          40.049                                                            
G06  23728050.213     4837205.137       -4302.576          38.787    23728055.009     1642495.767       -3209.896          19.781
G07  21626484.996    -7550769.225        1102.041          47.319                                                            
G09  20793363.254     6662199.739       -2369.135          47.868    20793364.753     4957013.388       -1768.919          31.992
G16  23086115.115    -5234790.375        -750.329          39.766                                                            
G26  24502290.617     2755242.505       -3033.168          37.132                                                            
G29  24302422.283      984366.707       -1598.672          38.173                                                            
G30  23016001.154    -4022263.654        2601.335          42.486    23016005.951    -1008961.081        1943.349          26.437
R10  21396486.321   -10311912.088        3009.624          44.122                                                            
R09  20199542.748    -5571994.172        -689.782          45.369                                                            
R16  22548935.897    -1514939.605       -4393.663          37.845                                                            
R01  21251859.544    -9991925.404        2555.588          39.201                                                            
R24  21451138.486     1948898.289       -2052.912          43.476                                                            
R23  22417873.829     5899633.762       -4560.767          24.606                                                            
R17  22492194.178    -3190779.786        1724.063          39.495                                                            
R07  20774603.741     7556366.665       -3682.677          46.863                                                            
R08  19264631.873    -5990720.023        -180.845          41.233                                                            
J02  43588471.629          26.752        -982.438          20.479                                                            
C09  40322419.570     3387310.316       -1851.141          18.364                                                            
C10  39331840.833    -1128666.932         684.191          34.471                                                            
C14  21824378.297     2403669.739       -2003.167          44.851                                                            
C24  23790208.881    -3082123.523        1934.776          46.224                                                            
C26  22506894.201      736388.091        -949.831          45.216                                                            
C27  24946055.105     1988363.709       -2069.063          37.930                                                            
C28  26495027.574     1172234.150       -3872.105          21.969                                                            
C30  25748226.873     -497924.658         532.717          36.729                                                            
C33  21923272.334      -48804.228        -287.652          42.154                                                            
E02  26539382.768        1682.756       -2342.437          38.120                                                            
E07  24569153.629     4252713.684       -2591.462          44.926    24569157.826     1116845.940       -1934.649          27.212
E08  26941956.372          75.447       -3646.826          19.139                                                            
E12  24050724.930        -100.841        -641.951          36.891                                                            
E14  22244746.083          15.933       -2592.193          36.923                                                            
E19  26285998.782         -40.365        1864.389          28.455                                                            
E26  28036275.290          60.446       -4080.972          25.130                                                            
E27  27102690.997     -577620.696        2441.323          39.294    27102698.192     -392624.849        1824.321          18.828
E30  24256347.180     -142408.537         428.415          41.184    24256348.379     -121681.921         320.868          20.531
E33  26219198.726     1142147.756       -3283.170          29.282    26219204.123      823514.456       -2448.826          20.426
> 2020 10 30 13 22 22.0001055  0 39
G02  22715787.188     -712919.956       -1864.580          35.177                                                            
G04  23314800.699     8250059.513       -4034.417          37.190    23314806.995     6226326.256       -3012.450          20.559
G05  22364510.172    -8725280.786        2155.117          40.757                                                            
G06  23728870.145     4841508.025       -4303.012          36.262    23728873.743     1645710.861       -3211.249          20.429
G07  21626275.141    -7551870.648        1100.623          47.163                                                            
G09  20793813.842     6664569.416       -2370.204          47.089    20793815.341     4958783.027       -1770.216          31.803
G16  23086257.217    -5234039.226        -752.367          39.554                                                            
G26  24502867.418     2755242.576       -3033.168          31.272                                                            
G29  24302728.071      985966.350       -1600.401          40.246                                                            
G30  23015506.496    -4024864.609        2600.660          41.539    23015510.693    -1010903.338        1943.398          25.178
R10  21395917.614   -10314921.287        3008.666          43.406                                                            
R09  20199669.260    -5571303.560        -691.297          45.385                                                            
R16  22549761.225    -1510545.170       -4395.215          37.716                                                            
R01  21251378.077    -9994480.441        2554.562          40.141                                                            
R24  21451514.426     1950951.881       -2054.479          43.562                                                            
R23  22418712.049     5904197.476       -4562.225          27.647                                                            
R17  22491869.203    -3192502.893        1722.574          38.897                                                            
R07  20775291.165     7560049.824       -3683.982          46.933                                                            
R08  19264665.749    -5990538.444        -182.420          41.866                                                            
J02  43588659.299          26.714        -982.438          21.549                                                            
C09  40322771.226     3389186.718       -1849.761          19.381                                                            
C10  39331711.623    -1129350.539         683.342          33.658                                                            
C14  21824761.432     2405673.503       -2004.466          43.792                                                            
C24  23789836.839    -3084057.674        1933.539          45.428                                                            
C26  22507077.075      737338.582        -951.220          45.164                                                            
C27  24946453.230     1990433.129       -2069.519          36.486                                                            
C28  26495771.959     1176104.647       -3873.883          26.228                                                            
C30  25748125.843     -498456.962         531.791          35.589                                                            
C33  21923324.198      -48516.084        -288.521          41.381                                                            
E02  26539828.259        1682.664       -2342.437          37.180                                                            
E07  24569647.387     4255305.705       -2592.468          44.944    24569652.484     1118781.706       -1937.854          27.269
E08  26942651.291          75.304       -3646.826          15.698                                                            
E12  24050847.545        -100.826        -641.951          35.934                                                            
E14  22245239.541          15.837       -2593.168          35.639                                                            
E19  26285643.827         -40.293        1864.389          29.395                                                            
E26  28037052.652          60.287       -4080.972          24.274                                                            
E27  27102228.418     -580061.703        2440.741          39.619    27102233.814     -394447.403        1822.835          19.129
E30  24256265.337     -142836.284         427.647          41.551    24256267.136     -122002.400         319.508          22.152
E33  26219822.295     1145431.048       -3284.078          30.857    26219829.790      825962.915       -2449.736          19.397
> 2020 10 30 13 22 23.0001055  0 39
G02  22716140.043     -711054.545       -1866.067          35.035                                                            
G04  23315569.067     8254094.076       -4035.030          35.764    23315571.766     6229333.636       -3011.116          19.190
G05  22364102.154    -8727435.335        2154.045          41.111                                                            
G06  23729684.381     4845811.768       -4304.348          35.668    23729691.576     1648917.079       -3210.220          19.989
G07  21626067.385    -7552970.870        1099.546          47.311                                                            
G09  20794264.730     6666940.305       -2371.512          46.990    20794266.829     4960553.500       -1770.838          31.822
G16  23086401.417    -5233286.726        -753.256          40.159                                                            
G26  24503445.718     2755242.665       -3034.143          34.101                                                            
G29  24303032.361      987567.269       -1601.624          39.040                                                            
G30  23015013.038    -4027464.534        2599.224          42.787    23015015.736    -1012844.806        1942.228          24.404
R10  21395369.294   -10317929.181        3007.419          43.477                                                            
R09  20199801.768    -5570611.280        -693.100          45.345                                                            
R16  22550578.759    -1506149.565       -4396.177          37.634                                                            
R01  21250911.000    -9997034.476        2553.591          40.735                                                            
R24  21451893.363     1953007.078       -2055.921          43.903                                                            
R23  22419582.046     5908753.252       -4562.864          26.640                                                            
R17  22491540.630    -3194224.444        1720.929          38.133                                                            
R07  20775985.784     7563734.153       -3684.884          47.561                                                            
R08  19264697.527    -5990355.595        -183.609          41.823                                                            
J02  43588845.770          26.737        -982.438          19.952                                                            
C09  40323121.684     3391037.320       -1849.761          18.024                                                            
C10  39331582.712    -1130033.353         682.727          33.389                                                            
C14  21825148.164     2407678.419       -2005.340          43.834                                                            
C24  23789466.895    -3085990.783        1932.683          45.466                                                            
C26  22507259.948      738290.359        -952.288          45.266                                                            
C27  24946851.054     1992503.870       -2071.393          36.200                                                            
C28  26496521.140     1179979.206       -3873.882          25.062                                                            
C30  25748026.312     -498987.840         530.389          35.223                                                            
C33  21923379.660      -48226.708        -290.116          42.325                                                            
E02  26540274.650        1682.719       -2342.437          37.865                                                            
E07  24570142.045     4257898.685       -2593.311          45.804    24570145.043     1120717.950       -1936.580          27.321
E08  26943344.711          75.390       -3646.826          19.188                                                            
E12  24050970.160        -100.793        -642.926          36.997                                                            
E14  22245734.498          15.907       -2595.119          37.226                                                            
E19  26285288.873         -40.336        1864.389          31.439                                                            
E26  28037828.815          60.382       -4080.972          18.938                                                            
E27  27101761.941     -582501.888        2439.879          39.605    27101768.236     -396270.890        1822.587          19.867
E30  24256181.695     -143262.781         426.018          40.943    24256184.693     -122320.680         318.236          22.995
E33  26220445.563     1148715.384       -3284.878          31.076    26220452.458      828414.625       -2449.684          18.678
> 2020 10 30 13 22 24.0001055  0 39
G02  22716497.396     -709187.910       -1867.719          37.381                                                            
G04  23316335.937     8258129.387       -4035.701          34.873    23316338.934     6232350.345       -3011.421          19.037
G05  22363692.338    -8729588.883        2152.767          40.975                                                            
G06  23730503.714     4850116.428       -4305.145          35.309    23730510.609     1652128.579       -3210.754          20.354
G07  21625858.130    -7554069.929        1098.316          47.203                                                            
G09  20794716.218     6669312.311       -2372.772          47.273    20794719.215     4962324.735       -1771.541          31.879
G16  23086545.017    -5232532.779        -755.136          38.486                                                            
G26  24504024.317     2755242.581       -3036.095          33.843                                                            
G29  24303338.149      989169.527       -1603.085          39.557                                                            
G30  23014518.380    -4030063.552        2598.400          41.987    23014520.779    -1014785.782        1942.797          25.309
R10  21394792.793   -10320935.965        3006.094          43.700                                                            
R09  20199932.478    -5569917.471        -694.728          45.867                                                            
R16  22551396.593    -1501752.756       -4397.146          37.728                                                            
R01  21250436.129    -9999587.535        2552.485          39.711                                                            
R24  21452274.999     1955063.844       -2057.688          43.662                                                            
R23  22420433.457     5913313.753       -4564.055          23.760                                                            
R17  22491221.651    -3195944.580        1719.065          39.540                                                            
R07  20776669.011     7567419.566       -3685.997          47.132                                                            
R08  19264723.310    -5990171.355        -185.387          42.036                                                            
J02  43589034.040          26.726        -984.389          19.775                                                            
C09  40323465.546     3392887.017       -1849.761          18.949                                                            
C10  39331445.407    -1130715.426         681.664          33.439                                                            
C14  21825533.697     2409684.390       -2006.527          43.890                                                            
C24  23789095.452    -3087922.881        1931.615          45.212                                                            
C26  22507442.522      739243.322        -953.637          45.516                                                            
C27  24947245.881     1994575.657       -2072.399          37.479                                                            
C28  26497260.728     1183854.795       -3876.852          26.237                                                            
C30  25747920.785     -499517.639         529.133          35.024                                                            
C33  21923434.222      -47936.256        -291.633          42.041                                                            
E02  26540721.341        1682.649       -2344.388          36.513                                                            
E07  24570633.704     4260492.585       -2594.470          45.318    24570638.801     1122654.915       -1936.936          27.684
E08  26944039.929          75.267       -3648.777          21.681                                                            
E12  24051093.075        -100.781        -644.877          38.407                                                            
E14  22246228.556          15.983       -2598.046          33.662                                                            
E19  26284935.718         -40.240        1862.437          32.268                                                            
E26  28038606.177          60.484       -4081.947          20.857                                                            
E27  27101297.262     -584941.351        2439.248          40.053    27101304.457     -398092.423        1823.293          20.069
E30  24256101.051     -143688.210         425.004          41.196    24256104.648     -122638.446         317.838          23.072
E33  26221071.530     1152000.776       -3286.349          31.398    26221079.325      830867.506       -2450.503          20.046
> 2020 10 30 13 22 25.0001055  0 39
G02  22716847.554     -707319.898       -1869.798          36.201                                                            
G04  23317101.007     8262165.761       -4036.784          35.142    23317107.003     6235361.467       -3012.164          18.461
G05  22363282.821    -8731741.194        2151.527          41.416                                                            
G06  23731326.644     4854422.020       -4306.394          35.322    23731331.441     1655341.754       -3211.783          18.458
G07  21625648.275    -7555167.767        1096.869          47.480                                                            
G09  20795168.005     6671685.508       -2374.146          47.335    20795171.003     4964096.937       -1772.597          31.951
G16  23086687.719    -5231777.371        -756.142          38.594                                                            
G26  24504602.317     2755242.653       -3036.095          33.917                                                            
G29  24303641.539      990773.136       -1604.279          39.623                                                            
G30  23014024.322    -4032661.541        2597.210          42.448    23014025.821    -1016725.759        1942.453          24.173
R10  21394233.680   -10323941.476        3004.859          43.560                                                            
R09  20200060.789    -5569221.934        -696.530          45.721                                                            
R16  22552222.521    -1497354.579       -4398.790          37.408                                                            
R01  21249952.864   -10002139.531        2551.478          40.911                                                            
R24  21452662.631     1957122.282       -2059.276          43.970                                                            
R23  22421292.662     5917871.155       -4564.671          25.577                                                            
R17  22490892.479    -3197663.311        1717.653          38.440                                                            
R07  20777355.836     7571106.147       -3687.266          47.087                                                            
R08  19264770.377    -5989985.749        -186.984          41.769                                                            
J02  43589221.710          26.749        -984.389          12.000                                                            
C09  40323815.403     3394739.274       -1851.712          19.914                                                            
C10  39331317.995    -1131396.619         681.095          33.452                                                            
C14  21825917.732     2411691.494       -2007.865          44.195                                                            
C24  23788725.808    -3089853.850        1930.381          45.375                                                            
C26  22507625.095      740197.643        -955.102          45.231                                                            
C27  24947642.506     1996648.836       -2073.755          37.157                                                            
C28  26498005.113     1187731.147       -3881.331          25.841                                                            
C30  25747822.154     -500046.249         527.954          36.062                                                            
C33  21923492.082      -47644.649        -292.783          42.245                                                            
E02  26541168.032        1682.714       -2345.364          36.803                                                            
E07  24571127.462     4263087.438       -2595.630          45.597    24571132.259     1124592.724       -1938.570          27.266
E08  26944733.649          75.352       -3648.777          18.701                                                            
E12  24051215.690        -100.747        -645.853          37.194                                                            
E14  22246724.413          15.886       -2599.022          33.737                                                            
E19  26284580.763         -40.284        1862.437          31.804                                                            
E26  28039383.539          60.324       -4081.947          15.960                                                            
E27  27100834.683     -587379.869        2437.689          40.043    27100840.678     -399913.507        1823.188          19.178
E30  24256020.706     -144112.335         423.150          41.834    24256024.304     -122955.245         315.729          22.424
E33  26221698.696     1155287.372       -3288.254          31.339    26221703.792      833317.029       -2450.160          19.739
> 2020 10 30 13 22 26.0001055  0 39
G02  22717204.307     -705450.446       -1870.357          34.713                                                            
G04  23317872.073     8266203.321       -4038.148          35.456    23317877.170     6238376.483       -3012.297          20.522
G05  22362873.905    -8733892.249        2150.318          41.766                                                            
G06  23732145.977     4858728.879       -4307.556          35.903    23732149.875     1658552.721       -3213.879          17.651
G07  21625440.519    -7556264.129        1095.610          47.600                                                            
G09  20795620.991     6674060.136       -2375.237          47.373    20795621.891     4965870.194       -1773.517          32.155
G16  23086832.818    -5231020.201        -758.064          37.369                                                            
G26  24505180.916     2755242.776       -3039.022          33.115                                                            
G29  24303946.728      992378.426       -1605.868          39.358                                                            
G30  23013530.864    -4035258.263        2596.092          43.205    23013531.464    -1018664.839        1940.530          26.260
R10  21393667.672   -10326945.443        3003.123          43.191                                                            
R09  20200189.700    -5568524.515        -698.263          45.316                                                            
R16  22553046.950    -1492954.978       -4400.429          36.634                                                            
R01  21249475.294   -10004690.235        2550.010          40.463                                                            
R24  21453049.063     1959182.582       -2061.066          43.695                                                            
R23  22422146.771     5922434.099       -4569.652          28.826                                                            
R17  22490569.303    -3199380.189        1715.750          38.783                                                            
R07  20778045.658     7574794.108       -3688.693          46.478                                                            
R08  19264799.157    -5989798.568        -188.011          41.203                                                            
J02  43589409.680          26.786        -985.365          21.932                                                            
C09  40324170.358     3396592.218       -1851.712          20.333                                                            
C10  39331187.885    -1132076.713         679.654          33.459                                                            
C14  21826302.365     2413699.988       -2009.101          44.009                                                            
C24  23788355.564    -3091783.514        1929.119          45.367                                                            
C26  22507809.768      741153.509        -956.748          44.996                                                            
C27  24948042.130     1998723.521       -2075.484          35.376                                                            
C28  26498748.298     1191614.097       -3882.295          21.683                                                            
C30  25747721.723     -500573.224         526.303          35.957                                                            
C33  21923549.043      -47351.633        -293.716          42.289                                                            
E02  26541614.722        1682.791       -2347.315          36.474                                                            
E07  24571622.120     4265683.491       -2596.563          45.597    24571626.617     1126531.255       -1939.521          27.555
E08  26945428.868          75.448       -3649.753          20.423                                                            
E12  24051339.804        -100.695        -647.804          38.178                                                            
E14  22247219.371          15.962       -2601.949          36.634                                                            
E19  26284227.308         -40.304        1860.486          30.867                                                            
E26  28040161.200          60.432       -4083.898          21.894                                                            
E27  27100369.105     -589817.338        2436.962          39.870    27100376.300     -401738.216        1823.426          20.456
E30  24255938.263     -144535.069         422.121          41.602    24255942.460     -123270.927         314.164          22.179
E33  26222323.763     1158575.021       -3288.471          30.188    26222329.159      835769.908       -2452.466          20.653
> 2020 10 30 13 22 27.0001055  0 39
G02  22717562.259     -703579.468       -1871.206          35.451                                                            
G04  23318642.540     8270242.065       -4039.388          35.469    23318647.336     6241394.131       -3016.032          20.277
G05  22362466.187    -8736041.920        2149.264          42.450                                                            
G06  23732967.109     4863037.003       -4308.621          36.453    23732968.308     1661769.636       -3213.765          16.204
G07  21625232.763    -7557358.955        1094.212          47.725                                                            
G09  20796073.078     6676436.286       -2376.695          47.696    20796074.577     4967644.645       -1775.309          32.429
G16  23086973.721    -5230261.299        -759.687          37.710                                                            
G26  24505758.916     2755242.658       -3039.022          33.775                                                            
G29  24304254.015      993985.422       -1607.892          39.958                                                            
G30  23013036.207    -4037853.682        2594.849          42.813    23013037.406    -1020603.026        1939.587          26.238
R10  21393110.358   -10329947.826        3001.467          43.582                                                            
R09  20200314.713    -5567825.073        -700.420          45.565                                                            
R16  22553865.983    -1488553.830       -4402.030          36.474                                                            
R01  21249004.620   -10007239.613        2549.040          40.106                                                            
R24  21453439.693     1961244.831       -2063.134          43.468                                                            
R23  22423029.959     5927002.665       -4569.917          29.775                                                            
R17  22490260.517    -3201095.277        1714.361          39.559                                                            
R07  20778737.879     7578483.591       -3690.298          47.019                                                            
R08  19264834.832    -5989609.704        -189.242          41.296                                                            
J02  43589597.350          26.747        -985.365          16.962                                                            
C09  40324529.809     3398444.267       -1853.664          21.940                                                            
C10  39331057.475    -1132755.636         678.348          33.630                                                            
C14  21826690.597     2415709.954       -2010.704          44.307                                                            
C24  23787983.522    -3093711.754        1927.579          45.415                                                            
C26  22507993.840      742110.989        -958.338          45.625                                                            
C27  24948440.854     2000799.697       -2076.991          36.615                                                            
C28  26499494.782     1195500.811       -3882.953          18.890                                                            
C30  25747621.592     -501098.743         524.532          35.248                                                            
C33  21923606.303      -47057.148        -295.058          42.276                                                            
E02  26542061.413        1682.699       -2347.315          35.883                                                            
E07  24572117.677     4268280.833       -2597.863          45.264    24572120.375     1128470.846       -1940.464          27.334
E08  26946123.787          75.305       -3649.753          22.255                                                            
E12  24051463.318        -100.720        -647.804          37.599                                                            
E14  22247716.726          15.869       -2603.900          33.974                                                            
E19  26283873.553         -40.231        1860.486          30.828                                                            
E26  28040939.761          60.272       -4083.898          24.198                                                            
E27  27099907.424     -592253.605        2435.511          39.691    27099914.619     -403559.935        1819.063          19.862
E30  24255858.219     -144956.247         420.338          41.049    24255866.013     -123585.584         314.929          21.059
E33  26222953.627     1161864.058       -3289.366          30.957    26222956.025      838223.433       -2452.770          20.049
> 2020 10 30 13 22 28.0001055  0 39
G02  22717918.412     -701706.993       -1873.039          34.441                                                            
G04  23319409.409     8274281.757       -4039.851          35.719    23319415.405     6244407.237       -3016.699          21.362
G05  22362057.869    -8738190.345        2147.916          42.246                                                            
G06  23733787.641     4867346.178       -4309.609          36.811    23733787.041     1664975.664       -3215.632          16.617
G07  21625024.107    -7558452.471        1093.025          47.879                                                            
G09  20796525.165     6678813.723       -2377.883          47.573    20796527.564     4969420.029       -1776.123          32.041
G16  23087119.120    -5229500.796        -761.213          37.960                                                            
G26  24506338.715     2755242.764       -3040.973          33.591                                                            
G29  24304559.803      995593.819       -1608.895          40.605                                                            
G30  23012542.448    -4040447.992        2593.815          42.721    23012543.348    -1022540.290        1939.727          25.934
R10  21392543.151   -10332948.897        3000.480          43.946                                                            
R09  20200451.418    -5567123.896        -701.834          45.583                                                            
R16  22554688.014    -1484151.371       -4402.827          36.887                                                            
R01  21248518.657   -10009787.804        2547.813          39.845                                                            
R24  21453818.630     1963308.782       -2064.725          43.074                                                            
R23  22423888.865     5931572.496       -4570.658          30.171                                                            
R17  22489928.047    -3202808.752        1712.684          39.973                                                            
R07  20779425.903     7582174.266       -3691.141          47.196                                                            
R08  19264870.807    -5989419.348        -190.906          41.096                                                            
J02  43589785.619          26.797        -987.316          21.808                                                            
C09  40324885.363     3400301.511       -1853.664          22.414                                                            
C10  39330924.068    -1133433.642         677.531          33.434                                                            
C14  21827075.530     2417721.094       -2011.432          44.289                                                            
C24  23787612.978    -3095638.834        1926.635          45.512                                                            
C26  22508179.412      743069.836        -959.497          45.772                                                            
C27  24948839.278     2002877.144       -2078.123          35.260                                                            
C28  26500237.367     1199388.790       -3882.935          19.261                                                            
C30  25747522.061     -501622.882         523.470          36.072                                                            
C33  21923662.364      -46761.384        -296.312          42.259                                                            
E02  26542509.303        1682.786       -2350.242          36.899                                                            
E07  24572611.735     4270879.223       -2598.624          45.498    24572614.433     1130411.196       -1937.152          26.546
E08  26946819.905          75.410       -3651.704          21.667                                                            
E12  24051588.632        -100.649        -650.731          38.002                                                            
E14  22248214.082          15.945       -2606.827          35.610                                                            
E19  26283520.397         -40.252        1858.535          31.442                                                            
E26  28041717.123          60.374       -4084.874          25.564                                                            
E27  27099442.746     -594689.024        2435.360          39.793    27099449.042     -405381.681        1818.690          19.900
E30  24255777.275     -145376.176         419.517          41.082    24255784.770     -123900.311         314.662          21.997
E33  26223578.394     1165154.375       -3290.805          31.038    26223581.692      840677.500       -2454.505          20.322
> 2020 10 30 13 22 29.0001055  0 39
G02  22718277.864     -699833.130       -1874.694          33.851                                                            
G04  23320177.777     8278322.519       -4041.414          35.751    23320183.773     6247421.035       -3014.317          20.659
G05  22361649.552    -8740337.600        2146.520          42.137                                                            
G06  23734607.273     4871656.427       -4310.670          36.934    23734606.974     1668201.798       -3215.365          16.858
G07  21624816.051    -7559544.647        1091.340          47.952                                                            
G09  20796977.852     6681192.444       -2379.398          47.583    20796979.651     4971196.300       -1776.771          32.622
G16  23087268.117    -5228738.729        -762.765          37.122                                                            
G26  24506918.214     2755242.680       -3042.924          32.331                                                            
G29  24304867.390      997203.768       -1610.783          40.319                                                            
G30  23012047.191    -4043041.204        2592.513          42.475    23012049.590    -1024476.728        1938.861          26.188
R10  21391984.937   -10335948.581        2998.858          43.725                                                            
R09  20200584.526    -5566420.934        -703.911          45.447                                                            
R16  22555519.938    -1479747.539       -4404.348          36.818                                                            
R01  21248047.982   -10012334.843        2546.558          39.497                                                            
R24  21454201.765     1965374.529       -2066.688          42.723                                                            
R23  22424763.659     5936143.566       -4572.195          29.801                                                            
R17  22489619.860    -3204520.670        1711.058          39.800                                                            
R07  20780118.723     7585866.268       -3692.802          46.979                                                            
R08  19264898.388    -5989227.541        -192.642          40.855                                                            
J02  43589973.589          26.848        -989.267          21.128                                                            
C09  40325244.214     3402155.353       -1855.615          20.976                                                            
C10  39330795.157    -1134110.683         676.510          33.694                                                            
C14  21827461.063     2419733.520       -2013.038          44.430                                                            
C24  23787243.934    -3097564.713        1925.182          45.690                                                            
C26  22508362.885      744030.090        -960.895          45.757                                                            
C27  24949238.302     2004956.004       -2079.496          34.983                                                            
C28  26500979.953     1203274.433       -3882.437          21.756                                                            
C30  25747422.230     -502145.678         522.083          35.856                                                            
C33  21923719.325      -46464.356        -297.832          42.211                                                            
E02  26542957.493        1682.863       -2352.193          36.360                                                            
E07  24573105.793     4273478.707       -2600.081          45.457    24573108.791     1132352.274       -1941.206          27.500
E08  26947515.123          75.506       -3652.679          19.901                                                            
E12  24051712.746        -100.638        -652.682          37.716                                                            
E14  22248710.238          16.021       -2609.754          33.404                                                            
E19  26283166.942         -40.272        1856.584          31.692                                                            
E26  28042495.984          60.481       -4086.826          21.996                                                            
E27  27098980.166     -597123.402        2433.836          39.722    27098984.364     -407195.752        1818.548          19.114
E30  24255700.828     -145794.753         417.765          41.388    24255705.624     -124212.694         315.310          20.777
E33  26224207.059     1168445.725       -3291.968          30.637    26224210.357      843133.733       -2454.200          20.366
> 2020 10 30 13 22 30.0001055  0 39
G02  22718634.317     -697957.779       -1876.322          33.206                                                            
G04  23320944.646     8282364.419       -4042.851          35.617    23320953.040     6250437.693       -3015.365          21.865
G05  22361241.535    -8742483.533        2145.233          41.725                                                            
G06  23735426.906     4875967.888       -4312.096          36.966    23735427.805     1671421.453       -3216.451          18.547
G07  21624609.494    -7560635.420        1090.083          47.936                                                            
G09  20797431.438     6683572.579       -2380.920          47.345    20797432.637     4972973.690       -1778.065          32.664
G16  23087410.818    -5227974.969        -764.422          36.816                                                            
G26  24507497.712     2755242.769       -3043.899          33.050                                                            
G29  24305174.678      998815.262       -1612.247          40.548                                                            
G30  23011554.932    -4045633.213        2591.455          42.477    23011555.831    -1026412.410        1938.993          25.940
R10  21391421.027   -10338946.829        2997.639          43.563                                                            
R09  20200710.139    -5565716.118        -705.750          45.140                                                            
R16  22556346.166    -1475342.256       -4405.719          36.449                                                            
R01  21247561.419   -10014880.645        2545.243          38.963                                                            
R24  21454598.690     1967442.094       -2068.302          42.262                                                            
R23  22425591.686     5940716.167       -4573.833          29.195                                                            
R17  22489302.680    -3206230.881        1709.319          40.242                                                            
R07  20780805.248     7589559.615       -3693.966          46.633                                                            
R08  19264948.454    -5989034.191        -194.098          40.413                                                            
J02  43590162.458          26.809        -989.267          22.065                                                            
C09  40325594.972     3404012.493       -1855.615          19.863                                                            
C10  39330666.246    -1134786.680         675.552          33.702                                                            
C14  21827847.795     2421747.255       -2014.227          44.381                                                            
C24  23786874.589    -3099489.317        1924.036          45.615                                                            
C26  22508549.356      744991.852        -962.383          45.442                                                            
C27  24949637.625     2007036.300       -2080.911          34.713                                                            
C28  26501730.334     1207156.964       -3881.352          19.819                                                            
C30  25747321.800     -502667.009         520.572          35.715                                                            
C33  21923777.185      -46165.959        -299.224          42.155                                                            
E02  26543405.083        1682.771       -2352.193          37.038                                                            
E07  24573601.949     4276079.343       -2601.224          45.547    24573605.547     1134294.394       -1942.666          28.364
E08  26948210.942          75.363       -3652.679          20.478                                                            
E12  24051837.459        -100.623        -652.682          37.657                                                            
E14  22249207.294          15.924       -2610.729          34.270                                                            
E19  26282813.187         -40.199        1856.584          31.277                                                            
E26  28043273.046          60.321       -4086.826          24.790                                                            
E27  27098517.287     -599556.749        2432.984          39.789    27098520.285     -409015.905        1818.192          19.665
E30  24255622.882     -146211.947         416.501          41.660    24255624.680     -124524.080         314.649          20.948
E33  26224832.127     1171738.438       -3293.325          30.774    26224835.424      845591.372       -2456.238          21.431
> 2020 10 30 13 22 31.0001055  0 39
G02  22718996.166     -696080.793       -1877.480          33.729                                                            
G04  23321713.314     8286407.600       -4043.646          34.944    23321721.408     6253452.955       -3016.127          20.790
G05  22360833.817    -8744627.982        2144.080          41.846                                                            
G06  23736244.440     4880280.760       -4313.518          36.842    23736250.136     1674637.928       -3216.394          18.356
G07  21624401.738    -7561724.527        1088.631          48.006                                                            
G09  20797883.825     6685954.320       -2382.388          47.376    20797885.024     4974752.194       -1778.643          32.424
G16  23087555.918    -5227209.309        -766.197          37.809                                                            
G26  24508077.211     2755242.876       -3045.851          33.445                                                            
G29  24305480.766     1000428.560       -1613.716          40.329                                                            
G30  23011062.373    -4048223.799        2590.052          42.725    23011062.373    -1028346.878        1937.404          25.672
R10  21390856.518   -10341943.299        2995.841          43.633                                                            
R09  20200847.444    -5565009.196        -707.684          45.018                                                            
R16  22557170.296    -1470935.256       -4407.620          36.778                                                            
R01  21247093.143   -10017424.916        2543.709          40.061                                                            
R24  21454990.219     1969511.756       -2070.356          42.802                                                            
R23  22426439.799     5945290.386       -4575.386          29.398                                                            
R17  22488988.197    -3207939.123        1707.378          39.916                                                            
R07  20781488.775     7593254.608       -3695.499          46.717                                                            
R08  19264971.838    -5988839.022        -195.861          40.958                                                            
J02  43590351.628          26.846        -990.243          20.994                                                            
C09  40325948.727     3405870.948       -1855.615          21.393                                                            
C10  39330538.235    -1135461.391         674.513          33.924                                                            
C14  21828236.027     2423762.566       -2015.678          44.327                                                            
C24  23786504.046    -3101412.395        1922.676          45.813                                                            
C26  22508733.728      745955.372        -964.129          45.343                                                            
C27  24950036.649     2009118.325       -2082.832          33.936                                                            
C28  26502476.217     1211033.836       -3882.332          22.277                                                            
C30  25747223.468     -503186.633         519.041          35.044                                                            
C33  21923833.846      -45865.996        -300.461          42.260                                                            
E02  26543854.172        1682.847       -2354.144          36.543                                                            
E07  24574097.506     4278681.367       -2602.466          45.727    24574100.504     1136237.413       -1943.407          28.416
E08  26948906.460          75.468       -3654.631          16.256                                                            
E12  24051962.773        -100.570        -654.634          36.982                                                            
E14  22249705.849          15.999       -2613.656          35.146                                                            
E19  26282460.931         -40.231        1855.608          30.107                                                            
E26  28044051.907          60.423       -4087.801          23.158                                                            
E27  27098055.307     -601988.854        2431.918          39.569    27098055.007     -410838.039        1818.872          17.613
E30  24255543.437     -146627.509         415.083          41.580    24255546.135     -124841.854         314.986          21.905
E33  26225461.691     1175032.526       -3294.773          30.485    26225462.590      848049.291       -2457.248          21.227
> 2020 10 30 13 22 32.0001055  0 39
G02  22719354.118     -694202.326       -1878.600          33.437                                                            
G04  23322483.780     8290451.913       -4044.914          35.447    23322490.076     6256473.002       -3017.175          21.199
G05  22360426.399    -8746771.060        2142.541          41.256                                                            
G06  23737065.272     4884594.758       -4314.394          36.422    23737072.467     1677859.167       -3220.719          18.393
G07  21624195.181    -7562812.192        1086.995          47.604                                                            
G09  20798336.211     6688337.485       -2383.742          47.310    20798339.509     4976531.876       -1780.086          32.111
G16  23087703.116    -5226441.981        -767.910          38.051                                                            
G26  24508657.909     2755242.774       -3046.827          34.075                                                            
G29  24305790.451     1002043.508       -1615.507          39.537                                                            
G30  23010568.615    -4050813.170        2589.082          41.473    23010569.514    -1030280.459        1935.577          25.304
R10  21390296.206   -10344938.339        2994.590          44.016                                                            
R09  20200979.653    -5564300.366        -709.539          45.046                                                            
R16  22558002.520    -1466526.833       -4409.155          37.563                                                            
R01  21246620.671   -10019967.964        2542.679          39.349                                                            
R24  21455369.157     1971583.214       -2072.159          42.093                                                            
R23  22427330.182     5949865.993       -4576.256          26.113                                                            
R17  22488659.625    -3209645.610        1705.671          38.511                                                            
R07  20782192.687     7596950.963       -3696.983          47.180                                                            
R08  19265015.008    -5988642.292        -197.388          40.838                                                            
J02  43590540.497          26.807        -990.243          21.908                                                            
C09  40326308.777     3407726.858       -1857.566          20.245                                                            
C10  39330408.725    -1136135.039         673.607          33.460                                                            
C14  21828622.459     2425779.253       -2017.216          44.547                                                            
C24  23786136.800    -3103334.181        1921.426          45.913                                                            
C26  22508918.700      746920.379        -965.610          45.708                                                            
C27  24950433.874     2011201.619       -2083.587          33.823                                                            
C28  26503226.298     1214917.755       -3884.097          28.980                                                            
C30  25747122.738     -503704.875         517.728          35.514                                                            
C33  21923893.504      -45564.629        -301.881          42.485                                                            
E02  26544301.762        1682.766       -2355.120          37.319                                                            
E07  24574592.464     4281284.594       -2603.643          45.639    24574595.462     1138181.374       -1944.136          28.260
E08  26949602.279          75.325       -3654.631          18.938                                                            
E12  24052087.486        -100.577        -655.609          38.002                                                            
E14  22250204.104          16.071       -2615.607          34.175                                                            
E19  26282108.375         -40.147        1854.632          31.466                                                            
E26  28044830.168          60.519       -4087.801          20.121                                                            
E27  27097592.427     -604419.810        2430.590          39.452    27097596.025     -412650.325        1818.776          18.198
E30  24255463.692     -147041.581         413.562          41.231    24255467.589     -125155.636         310.619          21.982
E33  26226087.058     1178327.888       -3295.992          30.234    26226088.257      850510.296       -2458.354          19.980
> 2020 10 30 13 22 33.0001055  0 39
G02  22719708.773     -692321.919       -1881.315          35.458                                                            
G04  23323253.647     8294497.619       -4046.249          35.713    23323259.943     6259493.341       -3018.567          20.372
G05  22360018.981    -8748912.610        2140.814          40.404                                                            
G06  23737890.301     4888910.146       -4315.887          36.867    23737893.298     1681080.577       -3224.168          15.736
G07  21623988.624    -7563898.232        1085.466          47.584                                                            
G09  20798790.397     6690722.279       -2385.483          47.118    20798792.795     4978312.767       -1781.601          31.854
G16  23087850.913    -5225672.697        -769.870          38.401                                                            
G26  24509238.607     2755242.880       -3048.778          33.505                                                            
G29  24306098.338     1003660.262       -1617.487          40.345                                                            
G30  23010078.154    -4053401.070        2587.689          41.429    23010076.356    -1032212.923        1935.052          24.878
R10  21389734.995   -10347931.639        2992.705          44.072                                                            
R09  20201111.861    -5563589.442        -711.765          44.956                                                            
R16  22558838.941    -1462116.787       -4410.719          37.346                                                            
R01  21246143.101   -10022509.508        2540.989          38.988                                                            
R24  21455761.585     1973656.798       -2074.476          42.067                                                            
R23  22428181.293     5954439.028       -4576.508          22.461                                                            
R17  22488335.549    -3211350.201        1703.844          38.684                                                            
R07  20782876.514     7600648.945       -3698.550          47.561                                                            
R08  19265047.985    -5988443.777        -199.058          40.681                                                            
J02  43590729.666          26.858        -992.194          19.795                                                            
C09  40326661.333     3409583.929       -1857.566          20.479                                                            
C10  39330279.214    -1136807.366         672.129          33.813                                                            
C14  21829011.890     2427797.466       -2018.659          44.353                                                            
C24  23785766.556    -3105254.439        1919.847          45.911                                                            
C26  22509103.672      747887.119        -967.256          45.802                                                            
C27  24950834.996     2013286.831       -2085.652          34.577                                                            
C28  26503971.582     1218802.789       -3885.009          29.568                                                            
C30  25747022.907     -504221.297         515.649          34.964                                                            
C33  21923951.364      -45261.674        -303.462          42.252                                                            
E02  26544750.851        1682.843       -2357.071          37.819                                                            
E07  24575086.821     4283889.196       -2605.054          45.800    24575090.719     1140126.402       -1945.041          27.293
E08  26950298.696          75.430       -3656.582          20.042                                                            
E12  24052213.999        -100.525        -657.560          38.118                                                            
E14  22250702.659          15.983       -2618.534          35.628                                                            
E19  26281756.119         -40.179        1853.657          30.894                                                            
E26  28045609.029          60.371       -4089.752          19.712                                                            
E27  27097128.648     -606849.537        2429.407          38.876    27097136.143     -414464.381        1815.949          20.373
E30  24255386.645     -147454.109         412.178          41.002    24255386.046     -125477.579         309.366          22.031
E33  26226709.427     1181624.711       -3297.285          28.788    26226714.224      852966.934       -2458.506          20.082
> 2020 10 30 13 22 34.0001055  0 39
G02  22720067.325     -690439.938       -1882.832          34.113                                                            
G04  23324023.814     8298544.529       -4047.447          35.487    23324030.710     6262512.080       -3018.109          18.619
G05  22359612.762    -8751052.767        2139.527          41.055                                                            
G06  23738713.830     4893226.803       -4316.975          36.284    23738713.830     1684298.888       -3220.815          18.263
G07  21623782.067    -7564982.696        1083.846          47.197                                                            
G09  20799243.983     6693108.589       -2387.078          46.979    20799246.981     4980094.734       -1782.969          32.017
G16  23087996.313    -5224901.684        -771.542          37.683                                                            
G26  24509819.305     2755242.987       -3050.729          33.575                                                            
G29  24306405.626     1005278.715       -1619.166          39.554                                                            
G30  23009583.797    -4055987.613        2586.085          41.402    23009584.696    -1034144.511        1932.201          24.536
R10  21389170.785   -10350923.399        2991.096          43.991                                                            
R09  20201247.667    -5562876.548        -713.670          45.539                                                            
R16  22559663.670    -1457705.166       -4412.337          37.117                                                            
R01  21245662.234   -10025049.711        2539.746          39.749                                                            
R24  21456150.716     1975732.302       -2076.364          42.819                                                            
R23  22429035.402     5959009.398       -4578.073          20.051                                                            
R17  22488021.966    -3213052.966        1702.071          39.355                                                            
R07  20783567.536     7604348.351       -3700.030          47.206                                                            
R08  19265094.453    -5988243.589        -200.855          40.844                                                            
J02  43590918.835          26.908        -994.145          12.000                                                            
C09  40327022.583     3411447.347       -1859.517          21.826                                                            
C10  39330146.706    -1137478.564         670.936          33.477                                                            
C14  21829398.922     2429817.140       -2020.079          43.967                                                            
C24  23785397.512    -3107173.293        1918.298          45.856                                                            
C26  22509289.243      748855.475        -969.108          45.603                                                            
C27  24951237.618     2015373.529       -2087.377          34.740                                                            
C28  26504721.063     1222689.019       -3886.598          28.627                                                            
C30  25746923.676     -504736.264         514.646          34.572                                                            
C33  21924010.124      -44957.218        -305.189          41.972                                                            
E02  26545199.940        1682.919       -2359.022          37.023                                                            
E07  24575583.877     4286495.104       -2606.417          45.521    24575587.175     1142072.393       -1946.618          27.704
E08  26950996.014          75.526       -3657.557          16.160                                                            
E12  24052339.012        -100.472        -659.512          37.368                                                            
E14  22251202.113          16.059       -2621.461          35.302                                                            
E19  26281403.863         -40.199        1851.706          30.947                                                            
E26  28046388.789          60.473       -4090.728          18.363                                                            
E27  27096668.767     -609278.078        2428.155          38.704    27096674.163     -416277.816        1816.482          22.038
E30  24255308.999     -147864.988         410.218          40.823    24255311.697     -125804.380         308.880          22.696
E33  26227343.788     1184922.909       -3298.807          30.245    26227341.989      855431.540       -2459.840          19.562
> 2020 10 30 13 22 35.0001055  0 39
G02  22720430.673     -688556.860       -1883.884          33.174                                                            
G04  23324796.679     8302592.377       -4048.510          34.662    23324802.975     6265533.670       -3021.253          20.428
G05  22359205.044    -8753191.809        2138.192          40.843                                                            
G06  23739533.463     4897544.544       -4318.472          34.847    23739537.360     1687524.736       -3220.891          20.371
G07  21623575.210    -7566065.922        1082.471          47.283                                                            
G09  20799698.169     6695496.090       -2388.309          46.724    20799700.567     4981877.563       -1783.452          32.570
G16  23088143.211    -5224129.134        -773.349          36.885                                                            
G26  24510401.202     2755242.903       -3052.680          34.643                                                            
G29  24306713.812     1006898.587       -1620.771          38.823                                                            
G30  23009094.236    -4058573.169        2584.701          41.264    23009093.336    -1036075.299        1930.985          24.571
R10  21388613.471   -10353913.881        2989.762          43.515                                                            
R09  20201384.672    -5562161.951        -715.548          45.482                                                            
R16  22560487.200    -1453292.218       -4413.781          37.051                                                            
R01  21245179.568   -10027588.760        2538.413          39.600                                                            
R24  21456537.748     1977809.450       -2078.152          42.501                                                            
R23  22429875.420     5963588.487       -4578.856          21.344                                                            
R17  22487712.281    -3214754.206        1700.359          39.557                                                            
R07  20784258.257     7608048.964       -3701.327          47.191                                                            
R08  19265137.023    -5988042.038        -202.307          41.100                                                            
J02  43591109.203          26.883        -995.121          12.000                                                            
C09  40327379.936     3413314.084       -1861.468          21.981                                                            
C10  39330019.594    -1138148.874         669.584          33.923                                                            
C14  21829785.954     2431837.976       -2021.409          44.298                                                            
C24  23785029.966    -3109091.024        1917.029          45.918                                                            
C26  22509474.515      749825.161        -970.439          45.791                                                            
C27  24951637.541     2017461.427       -2088.816          34.230                                                            
C28  26505461.851     1226575.751       -3886.522          28.060                                                            
C30  25746826.843     -505249.960         512.890          34.801                                                            
C33  21924069.183      -44651.602        -306.280          42.350                                                            
E02  26545650.229        1682.849       -2360.973          36.623                                                            
E07  24576079.734     4289101.985       -2607.422          45.541    24576084.531     1144019.022       -1947.143          27.591
E08  26951692.432          75.402       -3659.509          17.834                                                            
E12  24052466.424        -100.461        -661.463          37.292                                                            
E14  22251701.867          15.971       -2624.388          35.253                                                            
E19  26281052.806         -40.103        1849.754          31.019                                                            
E26  28047167.650          60.324       -4092.679          21.748                                                            
E27  27096207.386     -611705.703        2426.760          38.292    27096211.583     -418090.805        1815.356          20.715
E30  24255230.753     -148274.739         408.954          40.902    24255234.351     -126112.996         307.817          23.602
E33  26227961.960     1188222.241       -3300.076          30.916    26227968.855      857889.090       -2459.440          20.418
> 2020 10 30 13 22 36.0001055  0 39
G02  22720788.326     -686672.144       -1885.401          32.227                                                            
G04  23325567.146     8306641.192       -4049.289          34.882    23325575.540     6268555.545       -3023.101          18.926
G05  22358798.226    -8755329.733        2137.561          41.062                                                            
G06  23740355.194     4901863.227       -4319.279          35.243    23740359.991     1690749.956       -3223.101          19.798
G07  21623370.752    -7567147.874        1081.334          47.667                                                            
G09  20800152.654     6697884.839       -2389.241          46.769    20800155.352     4983661.428       -1784.367          32.583
G16  23088289.510    -5223355.046        -774.755          37.251                                                            
G26  24510982.800     2755242.974       -3052.680          33.250                                                            
G29  24307024.697     1008519.911       -1622.101          39.411                                                            
G30  23008601.677    -4061157.643        2583.975          42.186    23008601.976    -1038005.198        1930.484          25.299
R10  21388052.260   -10356903.037        2988.503          43.832                                                            
R09  20201520.179    -5561445.633        -717.151          45.379                                                            
R16  22561313.428    -1448878.009       -4414.885          37.420                                                            
R01  21244713.691   -10030126.768        2537.599          40.158                                                            
R24  21456924.780     1979888.325       -2079.582          42.929                                                            
R23  22430707.045     5968170.375       -4578.245          19.523                                                            
R17  22487398.398    -3216453.869        1698.861          40.373                                                            
R07  20784952.277     7611750.767       -3702.335          47.565                                                            
R08  19265161.606    -5987838.977        -203.704          40.984                                                            
J02  43591298.072          26.906        -995.121          12.000                                                            
C09  40327748.381     3415174.257       -1863.420          22.361                                                            
C10  39329892.482    -1138818.289         669.051          34.017                                                            
C14  21830175.084     2433860.015       -2022.611          44.279                                                            
C24  23784661.222    -3111007.644        1916.142          46.223                                                            
C26  22509660.686      750796.207        -971.729          45.826                                                            
C27  24952039.862     2019550.682       -2089.933          35.356                                                            
C28  26506213.130     1230463.624       -3887.588          28.016                                                            
C30  25746727.012     -505762.260         512.036          34.941                                                            
C33  21924124.644      -44344.720        -307.493          42.453                                                            
E02  26546099.018        1682.904       -2360.973          37.080                                                            
E07  24576575.591     4291709.888       -2608.289          45.931    24576580.687     1145966.528       -1947.945          28.100
E08  26952388.250          75.488       -3659.509          19.260                                                            
E12  24052592.637        -100.427        -662.438          37.528                                                            
E14  22252202.221          16.037       -2625.363          36.195                                                            
E19  26280700.250         -40.147        1849.754          31.019                                                            
E26  28047947.110          60.420       -4092.679          19.514                                                            
E27  27095745.106     -614132.504        2426.331          38.791    27095749.603     -419903.089        1813.330          21.171
E30  24255154.606     -148683.169         407.702          40.368    24255156.105     -126420.031         307.713          22.910
E33  26228595.721     1191522.549       -3300.343          30.379    26228598.719      860351.194       -2462.565          18.707
> 2020 10 30 13 22 37.0001055  0 39
G02  22721142.680     -684786.039       -1886.745          32.520                                                            
G04  23326336.713     8310691.222       -4051.115          33.846    23326346.007     6271580.050       -3022.339          20.714
G05  22358389.909    -8757466.185        2135.661          41.211                                                            
G06  23741179.024     4906183.154       -4320.566          35.141    23741182.022     1693970.971       -3222.759          19.470
G07  21623163.895    -7568228.286        1079.621          47.760                                                            
G09  20800608.039     6700275.121       -2391.016          47.260    20800610.437     4985446.364       -1785.784          32.524
G16  23088440.905    -5222579.250        -776.485          36.727                                                            
G26  24511564.397     2755242.873       -3053.655          34.652                                                            
G29  24307330.185     1010142.812       -1623.373          38.521                                                            
G30  23008109.118    -4063740.799        2582.534          42.679    23008110.017    -1039934.169        1930.541          24.638
R10  21387485.952   -10359890.632        2986.886          43.521                                                            
R09  20201650.888    -5560727.346        -719.337          45.563                                                            
R16  22562126.765    -1444462.212       -4416.561          37.317                                                            
R01  21244249.612   -10032663.343        2535.977          39.773                                                            
R24  21457317.208     1981969.156       -2081.929          42.978                                                            
R23  22431547.063     5972752.525       -4580.632          20.500                                                            
R17  22487067.127    -3218151.735        1696.697          40.283                                                            
R07  20785638.802     7615454.055       -3703.832          47.060                                                            
R08  19265197.881    -5987634.247        -205.649          41.416                                                            
J02  43591488.141          26.930        -995.121          12.000                                                            
C09  40328099.438     3417038.522       -1863.420          22.075                                                            
C10  39329765.070    -1139486.529         667.621          34.155                                                            
C14  21830563.016     2435883.487       -2024.222          44.274                                                            
C24  23784294.276    -3112922.831        1914.520          46.296                                                            
C26  22509847.457      751768.836        -973.425          45.111                                                            
C27  24952439.186     2021641.459       -2091.695          35.868                                                            
C28  26506957.515     1234352.942       -3889.465          27.342                                                            
C30  25746628.380     -506273.094         510.321          35.096                                                            
C33  21924185.502      -44036.393        -309.030          42.466                                                            
E02  26546549.007        1682.970       -2361.949          36.583                                                            
E07  24577072.647     4294319.106       -2609.806          46.349    24577077.443     1147915.039       -1949.761          27.506
E08  26953085.567          75.574       -3659.509          16.750                                                            
E12  24052718.549        -100.453        -662.438          37.235                                                            
E14  22252702.874          16.108       -2627.314          33.874                                                            
E19  26280348.893         -40.190        1849.754          31.111                                                            
E26  28048725.371          60.516       -4092.679          18.363                                                            
E27  27095282.226     -616558.114        2425.107          39.416    27095289.122     -421726.291        1813.422          20.565
E30  24255075.161     -149090.123         406.084          41.057    24255078.459     -126725.624         307.382          23.103
E33  26229224.086     1194824.384       -3302.606          29.731    26229229.182      862815.716       -2463.289          21.107
> 2020 10 30 13 22 38.0001055  0 39
G02  22721504.230     -682898.360       -1888.300          33.212                                                            
G04  23327105.681     8314742.506       -4051.864          33.970    23327114.375     6274600.208       -3023.101          19.966
G05  22357983.990    -8759601.214        2134.545          40.217                                                            
G06  23742002.554     4910504.379       -4321.633          36.183    23742004.952     1697196.304       -3223.273          17.912
G07  21622958.537    -7569307.154        1078.308          47.795                                                            
G09  20801062.524     6702666.907       -2392.248          47.234    20801066.721     4987232.450       -1786.705          32.438
G16  23088587.503    -5221801.561        -778.286          37.801                                                            
G26  24512145.095     2755242.979       -3055.607          33.949                                                            
G29  24307638.072     1011767.568       -1625.314          39.304                                                            
G30  23007617.158    -4066322.614        2581.375          42.144    23007618.657    -1041862.129        1929.817          25.703
R10  21386928.937   -10362876.632        2985.348          43.369                                                            
R09  20201788.493    -5560007.046        -721.053          45.299                                                            
R16  22562956.890    -1440044.811       -4418.146          37.255                                                            
R01  21243773.542   -10035198.593        2535.062          39.662                                                            
R24  21457707.838     1984051.935       -2083.667          42.988                                                            
R23  22432370.893     5977333.920       -4583.260          24.899                                                            
R17  22486770.033    -3219847.762        1695.153          40.446                                                            
R07  20786334.320     7619158.829       -3705.215          46.532                                                            
R08  19265240.452    -5987427.868        -206.963          40.903                                                            
J02  43591678.509          26.918        -997.072          17.735                                                            
C09  40328453.493     3418900.999       -1863.420          22.932                                                            
C10  39329636.759    -1140153.623         666.848          34.143                                                            
C14  21830951.547     2437908.433       -2025.545          44.378                                                            
C24  23783925.531    -3114836.641        1913.441          46.009                                                            
C26  22510034.527      752743.118        -974.848          45.071                                                            
C27  24952844.805     2023733.812       -2093.126          34.584                                                            
C28  26507714.791     1238243.520       -3892.241          26.606                                                            
C30  25746531.247     -506782.306         508.806          36.213                                                            
C33  21924244.561      -43726.563        -310.403          42.318                                                            
E02  26546999.295        1682.899       -2363.900          36.031                                                            
E07  24577569.403     4296929.598       -2610.795          46.142    24577572.101     1149864.436       -1950.425          28.750
E08  26953783.184          75.450       -3661.460          17.344                                                            
E12  24052845.961        -100.382        -665.365          37.854                                                            
E14  22253203.828          16.020       -2630.241          34.783                                                            
E19  26279996.637         -40.094        1847.803          31.206                                                            
E26  28049505.132          60.362       -4093.654          21.626                                                            
E27  27094820.546     -618982.479        2423.864          39.221    27094827.741     -423536.659        1811.917          21.672
E30  24254999.613     -149495.507         404.822          41.716    24254999.313     -127027.945         305.316          22.701
E33  26229852.751     1198127.618       -3303.166          28.776    26229856.348      865281.570       -2463.403          18.874
> 2020 10 30 13 22 39.0001055  0 39
G02  22721862.782     -681009.030       -1890.166          34.158                                                            
G04  23327880.045     8318794.972       -4053.252          35.464    23327884.542     6277621.263       -3022.187          18.507
G05  22357578.371    -8761734.908        2132.969          39.250                                                            
G06  23742823.385     4914826.871       -4323.032          38.447    23742827.582     1700420.290       -3223.425          19.160
G07  21622754.079    -7570384.547        1076.664          47.566                                                            
G09  20801516.410     6705060.138       -2393.886          46.873    20801521.806     4989019.555       -1787.610          32.675
G16  23088736.201    -5221022.161        -780.328          38.057                                                            
G26  24512728.191     2755243.086       -3057.558          32.149                                                            
G29  24307947.458     1013393.897       -1627.269          39.479                                                            
G30  23007126.997    -4068903.197        2579.860          41.340    23007127.897    -1043789.278        1929.489          25.704
R10  21386372.822   -10365861.108        2983.620          43.357                                                            
R09  20201922.800    -5559284.806        -723.167          45.644                                                            
R16  22563791.512    -1435625.973       -4419.545          37.334                                                            
R01  21243294.773   -10037732.487        2533.227          38.639                                                            
R24  21458097.268     1986136.623       -2085.611          42.570                                                            
R23  22433230.398     5981919.920       -4586.701          29.143                                                            
R17  22486451.653    -3221541.983        1693.198          41.132                                                            
R07  20787025.642     7622865.094       -3706.935          46.985                                                            
R08  19265275.827    -5987219.849        -208.956          40.819                                                            
J02  43591868.577          26.955        -998.048          19.775                                                            
C09  40328820.439     3420768.249       -1865.891          23.193                                                            
C10  39329507.548    -1140819.624         665.322          34.383                                                            
C14  21831341.577     2439934.740       -2027.126          44.696                                                            
C24  23783558.585    -3116749.067        1911.716          46.134                                                            
C26  22510223.397      753718.943        -976.611          45.578                                                            
C27  24953248.026     2025827.639       -2094.637          34.672                                                            
C28  26508459.176     1242134.886       -3892.232          27.124                                                            
C30  25746433.215     -507289.980         506.624          37.470                                                            
C33  21924304.520      -43415.321        -312.042          42.314                                                            
E02  26547449.583        1682.976       -2365.851          37.395                                                            
E07  24578066.459     4299541.293       -2612.452          45.576    24578068.257     1151814.675       -1951.187          28.052
E08  26954480.501          75.546       -3662.436          14.232                                                            
E12  24052973.673        -100.329        -667.316          35.437                                                            
E14  22253704.481          16.097       -2633.168          36.160                                                            
E19  26279645.580         -40.114        1845.852          28.483                                                            
E26  28050285.192          60.470       -4095.606          22.544                                                            
E27  27094357.367     -621405.807        2422.656          39.070    27094366.061     -425347.318        1809.688          21.760
E30  24254921.367     -149899.445         403.095          41.302    24254921.667     -127329.735         304.331          21.803
E33  26230477.518     1201431.982       -3302.404          26.940    26230486.212      867743.824       -2462.603          21.177
> 2020 10 30 13 22 40.0001055  0 39
G02  22722216.837     -679118.102       -1890.885          30.764                                                            
G04  23328653.209     8322848.508       -4054.037          34.732    23328655.308     6280648.593       -3024.340          19.840
G05  22357170.353    -8763867.261        2131.664          40.997                                                            
G06  23743648.714     4919150.572       -4324.135          38.504    23743649.014     1703643.775       -3227.503          20.568
G07  21622548.721    -7571460.499        1075.285          47.734                                                            
G09  20801972.994     6707454.816       -2395.369          47.055    20801977.191     4990807.811       -1788.925          32.606
G16  23088884.598    -5220241.079        -782.298          36.928                                                            
G26  24513310.089     2755242.984       -3058.534          31.301                                                            
G29  24308257.144     1015021.830       -1628.610          38.982                                                            
G30  23006635.638    -4071482.539        2578.909          41.457    23006636.837    -1045715.287        1928.401          25.125
R10  21385807.414   -10368844.083        2982.190          43.126                                                            
R09  20202058.006    -5558560.656        -725.091          45.512                                                            
R16  22564617.440    -1431205.635       -4421.023          37.718                                                            
R01  21242826.497   -10040265.166        2532.063          40.176                                                            
R24  21458483.101     1988223.172       -2087.272          43.023                                                            
R23  22434104.293     5986507.187       -4588.541          30.644                                                            
R17  22486130.276    -3223234.529        1691.812          41.114                                                            
R07  20787716.663     7626572.751       -3708.368          46.964                                                            
R08  19265322.894    -5987010.241        -210.347          40.996                                                            
J02  43592058.646          26.916        -998.048          19.795                                                            
C09  40329174.793     3422630.273       -1865.889          23.392                                                            
C10  39329381.636    -1141484.531         664.733          34.249                                                            
C14  21831731.307     2441962.412       -2028.247          44.610                                                            
C24  23783191.939    -3118660.203        1910.479          45.898                                                            
C26  22510412.266      754696.292        -978.034          45.564                                                            
C27  24953650.048     2027923.049       -2096.035          33.396                                                            
C28  26509204.759     1246027.269       -3891.677          26.079                                                            
C30  25746335.183     -507796.219         505.771          36.520                                                            
C33  21924363.879      -43102.715        -313.125          42.423                                                            
E02  26547900.771        1682.883       -2365.851          37.818                                                            
E07  24578563.215     4302154.198       -2613.483          46.074    24578565.014     1153765.908       -1952.377          27.932
E08  26955177.519          75.403       -3662.436          20.312                                                            
E12  24053100.485        -100.356        -667.316          36.402                                                            
E14  22254206.034          16.163       -2634.144          35.740                                                            
E19  26279295.123         -40.042        1845.852          29.365                                                            
E26  28051064.652          60.566       -4095.606          22.109                                                            
E27  27093898.384     -623828.015        2421.821          39.600    27093904.081     -427159.373        1810.793          21.308
E30  24254846.419     -150301.934         401.831          41.543    24254848.218     -127608.362         301.812          21.091
E33  26231102.885     1204737.679       -3306.561          28.931    26231116.076      870210.700       -2466.223          20.453
> 2020 10 30 13 22 41.0001055  0 39
G02  22722578.386     -677225.783       -1894.013          28.545                                                            
G04  23329424.875     8326902.968       -4054.901          34.834    23329433.269     6283676.334       -3025.293          21.007
G05  22356766.533    -8765998.524        2130.372          41.410                                                            
G06  23744469.246     4923475.227       -4325.574          38.371    23744471.644     1706876.267       -3227.713          21.273
G07  21622344.263    -7572535.229        1073.954          47.778                                                            
G09  20802428.678     6709850.649       -2396.631          47.065    20802432.576     4992596.893       -1789.857          32.041
G16  23089030.597    -5219458.549        -783.412          37.666                                                            
G26  24513892.885     2755243.091       -3060.485          32.558                                                            
G29  24308567.129     1016651.168       -1630.258          39.199                                                            
G30  23006145.177    -4074060.874        2577.693          41.885    23006146.076    -1047640.766        1926.459          24.598
R10  21385245.603   -10371825.819        2980.950          43.104                                                            
R09  20202195.611    -5557834.872        -726.782          45.592                                                            
R16  22565452.362    -1426784.071       -4422.422          37.300                                                            
R01  21242356.123   -10042796.813        2531.014          39.948                                                            
R24  21458874.330     1990311.340       -2089.181          43.418                                                            
R23  22434983.284     5991095.614       -4589.232          30.369                                                            
R17  22485820.590    -3224925.593        1690.125          41.273                                                            
R07  20788409.783     7630281.537       -3709.657          46.691                                                            
R08  19265363.067    -5986799.310        -211.797          41.290                                                            
J02  43592249.014          26.967        -999.999          17.469                                                            
C09  40329534.244     3424499.898       -1866.563          23.676                                                            
C10  39329252.425    -1142148.587         663.484          33.954                                                            
C14  21832118.639     2443991.228       -2029.611          44.644                                                            
C24  23782824.693    -3120570.270        1909.287          45.633                                                            
C26  22510599.636      755674.929        -979.574          45.549                                                            
C27  24954052.369     2030019.628       -2097.604          33.468                                                            
C28  26509952.142     1249920.592       -3892.365          24.584                                                            
C30  25746238.050     -508301.176         503.977          35.006                                                            
C33  21924422.638      -42788.918        -314.481          42.297                                                            
E02  26548351.958        1682.960       -2367.803          36.412                                                            
E07  24579059.971     4304768.043       -2614.479          45.988    24579063.868     1155717.756       -1952.130          28.143
E08  26955875.136          75.508       -3664.387          20.567                                                            
E12  24053228.197        -100.303        -669.268          37.522                                                            
E14  22254709.385          16.075       -2637.070          33.967                                                            
E19  26278944.066         -40.074        1844.876          31.188                                                            
E26  28051844.412          60.412       -4096.581          23.109                                                            
E27  27093438.503     -626249.366        2420.507          39.118    27093444.199     -428972.042        1811.115          21.925
E30  24254769.073     -150703.228         400.558          41.756    24254772.970     -127907.021         300.896          21.027
E33  26231738.146     1208044.378       -3307.362          29.764    26231742.343      872677.327       -2467.576          17.693
> 2020 10 30 13 22 42.0001055  0 39
G02  22722926.445     -675331.978       -1894.267          27.029                                                            
G04  23330197.141     8330958.921       -4056.398          34.903    23330202.537     6286700.180       -3026.779          20.623
G05  22356360.314    -8768128.192        2128.872          41.014                                                            
G06  23745292.476     4927801.273       -4326.513          37.775    23745294.575     1710106.772       -3227.827          20.707
G07  21622139.804    -7573608.210        1072.129          47.737                                                            
G09  20802885.562     6712248.189       -2398.228          46.981    20802889.160     4994387.283       -1790.822          32.474
G16  23089177.195    -5218674.022        -785.116          37.448                                                            
G26  24514475.682     2755243.163       -3060.485          33.271                                                            
G29  24308875.016     1018282.354       -1631.681          38.745                                                            
G30  23005654.717    -4076637.629        2575.843          41.609    23005655.916    -1049564.970        1925.895          24.996
R10  21384689.488   -10374805.736        2979.190          43.135                                                            
R09  20202328.119    -5557106.915        -728.935          45.535                                                            
R16  22566263.901    -1422360.766       -4423.932          37.090                                                            
R01  21241884.250   -10045326.868        2529.360          39.973                                                            
R24  21459265.859     1992401.663       -2091.427          42.991                                                            
R23  22435836.194     5995685.760       -4590.754          30.689                                                            
R17  22485510.905    -3226614.628        1688.147          40.909                                                            
R07  20789095.109     7633991.955       -3711.135          46.682                                                            
R08  19265407.436    -5986586.477        -213.598          41.182                                                            
J02  43592440.282          26.990        -999.999          17.330                                                            
C09  40329914.081     3426363.343       -1865.699          23.459                                                            
C10  39329123.215    -1142811.300         662.428          33.913                                                            
C14  21832510.468     2446021.678       -2031.115          44.655                                                            
C24  23782458.047    -3122478.743        1907.875          45.592                                                            
C26  22510788.206      756655.385        -981.221          45.511                                                            
C27  24954454.091     2032117.949       -2099.162          33.150                                                            
C28  26510705.221     1253815.497       -3900.443          25.220                                                            
C30  25746137.620     -508804.457         502.582          34.490                                                            
C33  21924485.594      -42473.428        -316.225          42.168                                                            
E02  26548803.146        1683.027       -2368.778          35.095                                                            
E07  24579558.226     4307383.381       -2615.964          45.774    24579562.123     1157670.833       -1953.989          27.801
E08  26956572.153          75.594       -3664.387          19.581                                                            
E12  24053356.508        -100.269        -670.243          37.703                                                            
E14  22255212.137          16.146       -2639.022          33.701                                                            
E19  26278593.908         -40.105        1843.901          31.452                                                            
E26  28052625.072          60.508       -4096.581          23.020                                                            
E27  27092979.521     -628669.441        2419.582          39.289    27092983.418     -430789.990        1811.918          20.635
E30  24254693.525     -151102.808         399.085          41.674    24254695.324     -128205.398         301.598          21.962
E33  26232370.108     1211352.765       -3309.729          29.903    26232370.708      875137.416       -2463.422          19.862
> 2020 10 30 13 22 43.0001055  0 39
G02  22723288.295     -673436.625       -1896.191          28.969                                                            
G04  23330968.507     8335015.878       -4057.256          34.793    23330972.404     6289726.226       -3026.684          21.176
G05  22355955.894    -8770256.622        2127.924          40.296                                                            
G06  23746115.107     4932128.517       -4327.675          36.274    23746117.505     1713338.432       -3229.313          17.272
G07  21621936.545    -7574679.822        1070.980          47.674                                                            
G09  20803342.146     6714647.088       -2399.435          47.229    20803345.144     4996178.641       -1791.583          32.345
G16  23089331.588    -5217887.849        -787.032          37.591                                                            
G26  24515059.977     2755243.096       -3063.412          32.942                                                            
G29  24309184.402     1019915.169       -1633.191          39.370                                                            
G30  23005165.156    -4079213.344        2575.184          42.428    23005165.455    -1051488.414        1924.472          24.897
R10  21384129.775   -10377784.217        2977.782          43.810                                                            
R09  20202463.326    -5556377.128        -730.608          45.245                                                            
R16  22567100.022    -1417936.084       -4425.243          37.302                                                            
R01  21241411.777   -10047855.759        2528.551          39.191                                                            
R24  21459659.187     1994493.764       -2092.915          42.063                                                            
R23  22436686.705     6000277.330       -4591.586          30.252                                                            
R17  22485188.028    -3228301.966        1686.786          40.317                                                            
R07  20789793.625     7637703.682       -3712.326          46.544                                                            
R08  19265447.308    -5986372.118        -214.843          41.221                                                            
J02  43592630.650          26.978       -1001.950          20.104                                                            
C09  40330273.233     3428230.347       -1869.109          24.222                                                            
C10  39328998.501    -1143472.933         661.232          33.849                                                            
C14  21832899.298     2448053.425       -2032.331          44.733                                                            
C24  23782091.701    -3124385.969        1906.744          45.563                                                            
C26  22510975.876      757637.275        -982.345          45.523                                                            
C27  24954857.612     2034217.627       -2100.366          33.077                                                            
C28  26511456.800     1257709.845       -3901.524          22.318                                                            
C30  25746041.686     -509306.283         501.271          35.780                                                            
C33  21924544.953      -42156.651        -317.341          41.865                                                            
E02  26549254.633        1682.955       -2370.730          36.489                                                            
E07  24580055.282     4309999.851       -2617.042          45.926    24580059.779     1159624.543       -1953.859          27.941
E08  26957270.670          75.460       -3665.362          20.773                                                            
E12  24053485.119        -100.258        -672.194          37.127                                                            
E14  22255715.189          16.058       -2641.949          34.828                                                            
E19  26278242.551         -40.022        1842.925          30.532                                                            
E26  28053405.132          60.359       -4098.533          23.440                                                            
E27  27092516.941     -631088.412        2418.368          39.364    27092527.134     -432588.092        1812.164          22.744
E30  24254616.778     -151500.981         397.351          40.970    24254616.179     -128510.723         301.438          21.406
E33  26233000.572     1214662.184       -3309.881          29.042    26233001.771      877609.910       -2464.318          20.919
> 2020 10 30 13 22 44.0001055  0 39
G02  22723650.744     -671539.885       -1897.732          29.418                                                            
G04  23331739.873     8339073.780       -4058.323          35.703    23331744.369     6292755.790       -3026.931          20.537
G05  22355550.874    -8772383.920        2126.582          40.821                                                            
G06  23746935.339     4936456.730       -4328.786          34.984    23746942.834     1716564.252       -3231.619          17.543
G07  21621733.286    -7575750.229        1069.656          47.724                                                            
G09  20803799.629     6717047.176       -2400.673          47.542    20803801.728     4997970.910       -1792.594          32.749
G16  23089477.887    -5217100.272        -788.005          36.402                                                            
G26  24515643.073     2755243.203       -3065.363          33.358                                                            
G29  24309497.985     1021549.281       -1634.656          39.548                                                            
G30  23004675.894    -4081787.951        2573.888          43.235    23004675.894    -1053411.004        1925.168          24.512
R10  21383579.956   -10380761.456        2976.612          43.640                                                            
R09  20202601.830    -5555645.680        -732.181          45.744                                                            
R16  22567928.049    -1413510.182       -4426.472          37.466                                                            
R01  21240927.612   -10050383.559        2527.172          39.065                                                            
R24  21460043.221     1996587.510       -2094.698          42.175                                                            
R23  22437535.417     6004870.189       -4593.312          30.845                                                            
R17  22484874.146    -3229987.772        1685.096          39.515                                                            
R07  20790493.641     7641416.534       -3713.489          46.606                                                            
R08  19265487.481    -5986156.361        -216.456          41.627                                                            
J02  43592821.917          27.016       -1002.926          14.758                                                            
C09  40330616.795     3430101.532       -1871.781          24.141                                                            
C10  39328871.988    -1144133.835         660.480          33.630                                                            
C14  21833291.127     2450086.301       -2033.533          44.857                                                            
C24  23781723.555    -3126292.093        1905.637          45.833                                                            
C26  22511165.045      758620.476        -983.899          45.901                                                            
C27  24955259.633     2036318.594       -2101.552          33.592                                                            
C28  26512207.481     1261604.193       -3900.607          21.855                                                            
C30  25745947.252     -509806.901         500.280          35.357                                                            
C33  21924606.411      -41838.727        -318.343          42.198                                                            
E02  26549706.121        1683.032       -2372.681          36.930                                                            
E07  24580553.537     4312617.252       -2617.963          45.805    24580558.334     1161579.139       -1954.922          27.741
E08  26957969.186          75.566       -3667.313          19.015                                                            
E12  24053613.730        -100.205        -674.146          37.530                                                            
E14  22256218.241          16.134       -2644.876          34.592                                                            
E19  26277892.693         -40.041        1840.974          29.747                                                            
E26  28054186.091          60.461       -4099.508          24.620                                                            
E27  27092058.558     -633506.591        2417.692          39.011    27092067.852     -434393.130        1806.819          21.672
E30  24254540.331     -151898.015         396.538          41.487    24254543.929     -128806.561         297.197          21.711
E33  26233633.134     1217972.669       -3310.623          28.373    26233633.433      880080.777       -2469.825          20.117
> 2020 10 30 13 22 45.0001055  0 39
G02  22724016.791     -669641.734       -1898.468          29.913                                                            
G04  23332513.637     8343132.914       -4060.075          35.602    23332515.136     6295784.866       -3029.542          19.890
G05  22355144.056    -8774509.834        2125.100          41.308                                                            
G06  23747760.368     4940786.178       -4330.397          35.362    23747766.064     1719794.428       -3230.437          13.230
G07  21621530.026    -7576819.103        1068.028          47.938                                                            
G09  20804256.513     6719448.767       -2402.560          47.294    20804259.211     4999764.294       -1793.842          32.273
G16  23089633.180    -5216310.881        -790.108          36.722                                                            
G26  24516227.069     2755243.083       -3065.363          34.440                                                            
G29  24309808.870     1023185.119       -1636.705          39.695                                                            
G30  23004186.633    -4084361.294        2572.517          43.246    23004185.734    -1055332.670        1924.519          24.571
R10  21383017.845   -10383737.127        2974.824          42.988                                                            
R09  20202731.040    -5554912.234        -734.545          45.893                                                            
R16  22568758.174    -1409082.701       -4428.490          37.487                                                            
R01  21240451.541   -10052910.035        2525.696          38.662                                                            
R24  21460441.046     1998683.172       -2096.768          42.310                                                            
R23  22438394.922     6009464.436       -4595.053          30.104                                                            
R17  22484551.869    -3231671.813        1683.152          40.092                                                            
R07  20791189.759     7645130.883       -3715.141          47.003                                                            
R08  19265519.259    -5985938.956        -218.251          41.721                                                            
J02  43593013.185          27.039       -1002.926          21.908                                                            
C09  40330972.948     3431969.534       -1872.024          24.359                                                            
C10  39328743.677    -1144793.516         658.984          34.169                                                            
C14  21833680.857     2452120.603       -2035.082          44.485                                                            
C24  23781359.008    -3128196.828        1903.906          45.999                                                            
C26  22511355.113      759605.305        -985.783          46.401                                                            
C27  24955661.055     2038421.091       -2103.255          33.797                                                            
C28  26512955.763     1265503.779       -3899.355          20.448                                                            
C30  25745850.419     -510305.856         498.061          34.765                                                            
C33  21924668.768      -41519.279        -320.440          41.946                                                            
E02  26550158.208        1683.088       -2372.681          36.680                                                            
E07  24581052.092     4315235.947       -2619.541          45.693    24581055.989     1163534.735       -1956.374          28.150
E08  26958667.703          75.652       -3667.313          18.274                                                            
E12  24053742.041        -100.213        -675.121          38.258                                                            
E14  22256722.192          16.201       -2645.851          32.720                                                            
E19  26277542.536         -40.085        1840.974          30.380                                                            
E26  28054966.751          60.557       -4099.508          24.967                                                            
E27  27091597.477     -635923.578        2416.340          39.177    27091604.972     -436197.705        1808.251          20.808
E30  24254466.282     -152293.513         394.998          41.214    24254469.880     -129097.736         295.384          22.549
E33  26234260.599     1221284.620       -3312.944          28.597    26234264.197      882551.605       -2470.092          20.313
> 2020 10 30 13 22 46.0001055  0 39
G02  22724373.544     -667741.732       -1900.927          30.246                                                            
G04  23333288.301     8347193.349       -4061.210          35.410    23333286.802     6298816.299       -3030.266          21.011
G05  22354739.936    -8776634.186        2123.750          41.198                                                            
G06  23748585.396     4945117.025       -4331.360          35.302    23748592.292     1723025.784       -3230.742          17.531
G07  21621327.367    -7577886.315        1066.618          47.883                                                            
G09  20804713.097     6721851.984       -2403.966          47.385    20804716.694     5001558.946       -1795.237          32.672
G16  23089782.476    -5215519.506        -792.259          36.880                                                            
G26  24516811.065     2755243.190       -3067.314          34.870                                                            
G29  24310121.253     1024822.756       -1638.264          39.764                                                            
G30  23003697.671    -4086933.196        2571.404          43.158    23003696.472    -1057252.987        1921.825          24.969
R10  21382458.132   -10386711.051        2973.236          43.175                                                            
R09  20202868.945    -5554176.704        -736.512          45.580                                                            
R16  22569578.106    -1404653.538       -4429.997          37.483                                                            
R01  21239981.167   -10055434.991        2524.398          38.737                                                            
R24  21460834.374     2000780.915       -2098.524          42.145                                                            
R23  22439250.530     6014060.348       -4596.503          30.218                                                            
R17  22484248.179    -3233353.912        1681.421          40.077                                                            
R07  20791877.483     7648846.864       -3716.597          46.721                                                            
R08  19265567.525    -5985719.765        -219.754          41.441                                                            
J02  43593204.752          27.027       -1004.877          19.441                                                            
C09  40331334.798     3433844.509       -1870.830          23.325                                                            
C10  39328618.064    -1145451.917         657.965          34.266                                                            
C14  21834072.986     2454156.498       -2036.534          44.633                                                            
C24  23780991.462    -3130100.042        1902.563          45.878                                                            
C26  22511543.683      760591.846        -987.396          46.020                                                            
C27  24956064.276     2040525.295       -2104.694          33.680                                                            
C28  26513705.244     1269404.144       -3898.775          21.483                                                            
C30  25745755.684     -510803.215         496.997          34.623                                                            
C33  21924730.825      -41198.260        -321.630          41.896                                                            
E02  26550610.895        1683.017       -2374.632          36.060                                                            
E07  24581550.347     4317856.044       -2620.690          45.817    24581555.143     1165491.127       -1956.502          27.110
E08  26959366.219          75.528       -3669.265          20.619                                                            
E12  24053871.851        -100.160        -677.072          38.418                                                            
E14  22257227.642          16.112       -2648.778          32.431                                                            
E19  26277192.378         -39.989        1839.023          30.369                                                            
E26  28055746.811          60.409       -4101.460          21.281                                                            
E27  27091138.195     -638339.252        2415.054          38.991    27091143.592     -438006.664        1807.668          19.789
E30  24254391.634     -152687.306         392.901          41.376    24254395.531     -129380.499         295.984          23.535
E33  26234887.465     1224597.920       -3313.247          29.458    26234892.262      885023.871       -2470.739          20.019
> 2020 10 30 13 22 47.0001055  0 39
G02  22724735.393     -665840.996       -1901.534          30.752                                                            
G04  23334060.566     8351254.675       -4061.460          35.475    23334059.667     6301847.992       -3031.009          20.249
G05  22354337.614    -8778757.437        2122.753          40.629                                                            
G06  23749406.828     4949448.854       -4332.089          34.887    23749408.926     1726261.761       -3231.714          18.098
G07  21621124.107    -7578952.297        1065.429          47.583                                                            
G09  20805171.479     6724256.378       -2404.851          47.150    20805174.477     5003354.401       -1795.857          32.514
G16  23089936.270    -5214726.744        -793.702          37.035                                                            
G26  24517395.360     2755243.297       -3069.265          33.261                                                            
G29  24310433.937     1026461.820       -1639.722          39.613                                                            
G30  23003206.911    -4089504.068        2570.456          42.766    23003207.211    -1059173.076        1920.540          25.364
R10  21381897.520   -10389683.732        2972.106          42.897                                                            
R09  20203014.044    -5553439.524        -737.793          45.426                                                            
R16  22570411.229    -1400223.112       -4431.034          37.250                                                            
R01  21239498.801   -10057958.862        2523.219          38.478                                                            
R24  21461222.305     2002880.307       -2100.131          41.989                                                            
R23  22440118.729     6018657.494       -4597.818          29.895                                                            
R17  22483930.099    -3235034.526        1679.972          39.881                                                            
R07  20792575.699     7652564.045       -3717.718          46.841                                                            
R08  19265603.500    -5985499.210        -220.906          41.105                                                            
J02  43593397.519          27.078       -1006.828          18.278                                                            
C09  40331706.241     3435712.386       -1872.224          23.720                                                            
C10  39328493.351    -1146109.487         657.136          33.945                                                            
C14  21834464.215     2456193.522       -2037.596          44.388                                                            
C24  23780628.713    -3132002.158        1901.637          45.569                                                            
C26  22511733.451      761579.684        -988.396          46.126                                                            
C27  24956467.497     2042630.759       -2106.096          33.504                                                            
C28  26514456.524     1273311.602       -3898.615          20.810                                                            
C30  25745658.551     -511299.243         495.465          34.641                                                            
C33  21924791.982      -40876.064        -322.707          41.930                                                            
E02  26551063.281        1683.094       -2376.583          36.133                                                            
E07  24582049.501     4320477.106       -2621.617          45.634    24582052.499     1167448.576       -1958.068          27.766
E08  26960064.736          75.624       -3670.240          18.244                                                            
E12  24054001.361        -100.107        -679.024          38.175                                                            
E14  22257731.893          16.189       -2651.705          32.974                                                            
E19  26276843.720         -40.009        1837.071          29.971                                                            
E26  28056528.669          60.511       -4102.435          23.030                                                            
E27  27090677.714     -640754.136        2414.497          38.624    27090682.211     -439808.529        1805.195          19.566
E30  24254315.787     -153079.930         391.987          40.914    24254320.283     -129661.816         294.968          22.596
E33  26235520.027     1227912.354       -3314.885          29.259    26235522.426      887495.160       -2470.987          19.859
> 2020 10 30 13 22 48.0001055  0 39
G02  22725103.838     -663938.076       -1903.577          32.018                                                            
G04  23334830.133     8355317.251       -4063.052          35.881    23334832.831     6304879.030       -3031.200          20.287
G05  22353933.494    -8780879.330        2121.097          40.927                                                            
G06  23750233.655     4953781.926       -4333.711          35.225    23750234.855     1729492.994       -3232.876          18.731
G07  21620920.548    -7580016.774        1063.651          47.650                                                            
G09  20805629.862     6726662.275       -2406.777          47.353    20805631.961     5005150.976       -1796.915          32.665
G16  23090085.267    -5213932.212        -795.524          37.397                                                            
G26  24517979.356     2755243.194       -3070.241          34.407                                                            
G29  24310747.220     1028102.522       -1641.599          39.570                                                            
G30  23002717.350    -4092073.641        2568.811          42.969    23002718.549    -1061091.946        1920.341          25.291
R10  21381340.506   -10392654.890        2970.388          42.815                                                            
R09  20203146.253    -5552700.368        -740.269          45.656                                                            
R16  22571245.552    -1395791.151       -4432.965          37.497                                                            
R01  21239022.431   -10060481.441        2521.683          39.002                                                            
R24  21461617.132     2004981.636       -2102.253          42.599                                                            
R23  22441004.316     6023256.494       -4601.313          29.085                                                            
R17  22483611.719    -3236713.325        1678.018          41.027                                                            
R07  20793269.719     7656282.653       -3719.479          46.952                                                            
R08  19265639.176    -5985276.997        -223.175          41.379                                                            
J02  43593588.487          27.039       -1006.828          12.000                                                            
C09  40332061.195     3437589.294       -1873.311          23.392                                                            
C10  39328362.641    -1146765.933         655.666          33.160                                                            
C14  21834856.643     2458231.949       -2039.233          44.747                                                            
C24  23780263.566    -3133902.924        1899.996          45.700                                                            
C26  22511924.719      762569.118        -990.345          46.065                                                            
C27  24956872.816     2044737.698       -2107.489          33.434                                                            
C28  26515209.003     1277206.748       -3897.791          16.651                                                            
C30  25745563.517     -511793.736         493.465          35.206                                                            
C33  21924853.740      -40552.435        -324.419          41.954                                                            
E02  26551515.668        1683.012       -2377.559          36.558                                                            
E07  24582549.255     4323099.412       -2623.108          45.663    24582552.253     1169406.796       -1959.013          27.206
E08  26960762.952          75.480       -3670.240          21.034                                                            
E12  24054130.872        -100.115        -679.999          37.972                                                            
E14  22258237.043          16.261       -2653.656          32.944                                                            
E19  26276493.562         -39.937        1837.071          30.881                                                            
E26  28057309.329          60.607       -4102.435          23.283                                                            
E27  27090219.631     -643167.854        2412.811          38.436    27090222.629     -441604.413        1807.578          20.790
E30  24254241.138     -153471.056         390.201          40.979    24254245.036     -129953.942         294.097          23.767
E33  26236150.191     1231228.116       -3316.794          29.663    26236155.288      889968.225       -2473.197          19.068
> 2020 10 30 13 22 49.0001055  0 39
G02  22725466.587     -662032.961       -1905.439          32.842                                                            
G04  23335599.700     8359381.188       -4064.500          35.070    23335607.495     6307910.928       -3031.657          20.521
G05  22353529.074    -8782999.637        2119.435          41.406                                                            
G06  23751059.284     4958116.446       -4335.172          36.040    23751064.080     1732729.676       -3235.201          15.716
G07  21620719.088    -7581079.574        1062.083          47.852                                                            
G09  20806087.645     6729069.794       -2408.314          47.234    20806090.343     5006948.831       -1798.271          32.608
G16  23090238.161    -5213135.751        -797.282          38.157                                                            
G26  24518564.551     2755243.301       -3072.192          34.647                                                            
G29  24311060.803     1029745.087       -1643.472          39.911                                                            
G30  23002230.187    -4094641.754        2567.394          42.484    23002229.288    -1063009.629        1918.792          26.138
R10  21380789.188   -10395624.298        2968.656          43.117                                                            
R09  20203292.851    -5551959.105        -742.292          45.486                                                            
R16  22572064.285    -1391357.477       -4434.616          37.807                                                            
R01  21238559.551   -10063002.504        2520.360          38.826                                                            
R24  21462004.463     2007085.053       -2104.428          42.521                                                            
R23  22441853.928     6027860.624       -4600.250          28.599                                                            
R17  22483302.933    -3238390.173        1676.014          40.382                                                            
R07  20793963.139     7660002.892       -3721.103          46.853                                                            
R08  19265679.648    -5985052.953        -224.989          41.119                                                            
J02  43593780.054          27.076       -1007.804          15.241                                                            
C09  40332423.944     3439459.202       -1875.417          24.720                                                            
C10  39328238.227    -1147421.022         654.378          33.809                                                            
C14  21835248.172     2460271.964       -2040.796          44.496                                                            
C24  23779899.318    -3135802.147        1898.473          45.411                                                            
C26  22512114.487      763560.297        -992.103          46.035                                                            
C27  24957275.138     2046846.409       -2109.591          34.157                                                            
C28  26515997.157     1281099.793       -3897.899          16.147                                                            
C30  25745468.783     -512286.628         492.097          34.934                                                            
C33  21924913.698      -40227.166        -326.117          42.216                                                            
E02  26551968.355        1683.089       -2379.510          36.991                                                            
E07  24583048.410     4325723.146       -2624.415          45.815    24583051.408     1171366.074       -1960.091          27.977
E08  26961461.768          75.586       -3672.192          18.938                                                            
E12  24054260.682        -100.062        -681.951          37.947                                                            
E14  22258743.692          16.171       -2656.583          32.752                                                            
E19  26276144.604         -39.969        1836.096          31.015                                                            
E26  28058090.588          60.458       -4104.386          24.341                                                            
E27  27089756.752     -645580.256        2411.746          39.226    27089764.846     -443420.376        1807.191          22.097
E30  24254166.790     -153860.541         388.628          40.974    24254169.788     -130244.706         292.460          23.744
E33  26236780.655     1234545.373       -3317.566          30.505    26236789.948      892443.560       -2473.998          19.958
> 2020 10 30 13 22 50.0001055  0 39
G02  22725826.338     -660126.718       -1906.610          31.822                                                            
G04  23336377.362     8363446.439       -4065.859          34.362    23336382.459     6310944.952       -3031.600          21.482
G05  22353127.652    -8785118.491        2118.321          41.162                                                            
G06  23751884.912     4962452.269       -4336.228          36.170    23751888.510     1735964.438       -3234.630          18.853
G07  21620516.728    -7582140.779        1060.593          47.911                                                            
G09  20806546.028     6731478.880       -2409.502          47.302    20806549.026     5008747.793       -1798.810          32.159
G16  23090390.755    -5212337.449        -798.947          38.229                                                            
G26  24519150.046     2755243.408       -3074.143          33.785                                                            
G29  24311372.887     1031389.408       -1645.201          39.903                                                            
G30  23001740.327    -4097208.523        2566.357          42.309    23001740.926    -1064926.398        1919.820          26.468
R10  21380222.280   -10398592.099        2967.086          43.259                                                            
R09  20203431.356    -5551215.820        -744.078          45.637                                                            
R16  22572900.706    -1386922.234       -4435.603          37.849                                                            
R01  21238089.177   -10065522.141        2519.212          39.294                                                            
R24  21462397.491     2009190.434       -2106.068          42.399                                                            
R23  22442721.227     6032462.371       -4602.346          30.903                                                            
R17  22482986.053    -3240065.110        1674.552          39.990                                                            
R07  20794657.458     7663724.647       -3722.149          46.712                                                            
R08  19265727.914    -5984827.250        -226.197          40.902                                                            
J02  43593972.521          27.127       -1009.755          16.163                                                            
C09  40332786.993     3441330.888       -1876.249          25.189                                                            
C10  39328111.715    -1148074.982         653.775          34.149                                                            
C14  21835640.301     2462313.485       -2042.005          44.552                                                            
C24  23779533.871    -3137699.899        1897.236          45.662                                                            
C26  22512306.355      764553.133        -993.403          45.996                                                            
C27  24957681.357     2048956.672       -2110.893          33.687                                                            
C28  26516763.427     1285018.116       -3898.540          17.081                                                            
C30  25745373.449     -512777.835         490.478          35.194                                                            
C33  21924980.552      -39900.382        -327.370          42.182                                                            
E02  26552421.941        1683.166       -2381.461          37.433                                                            
E07  24583547.564     4328348.204       -2625.560          45.966    24583551.162     1173326.271       -1960.364          27.930
E08  26962161.484          75.691       -3674.143          19.982                                                            
E12  24054391.691        -100.009        -683.902          37.755                                                            
E14  22259250.042          16.248       -2659.510          32.967                                                            
E19  26275795.645         -39.988        1834.145          30.732                                                            
E26  28058872.447          60.560       -4105.362          21.971                                                            
E27  27089300.767     -647991.467        2410.980          39.127    27089307.363     -445224.559        1803.111          21.928
E30  24254092.141     -154248.467         387.538          40.991    24254095.739     -130534.322         290.933          22.555
E33  26237413.217     1237864.044       -3318.786          29.987    26237420.112      894912.326       -2472.854          18.410
> 2020 10 30 13 22 51.0001055  0 39
G02  22726189.087     -658218.952       -1908.674          31.148                                                            
G04  23337150.227     8367512.676       -4066.655          34.241    23337157.122     6313982.869       -3034.535          18.901
G05  22352725.030    -8787236.083        2117.015          41.680                                                            
G06  23752708.142     4966789.214       -4337.358          35.030    23752714.138     1739202.002       -3236.783          17.646
G07  21620314.668    -7583200.596        1059.128          47.513                                                            
G09  20807004.710     6733889.360       -2411.130          46.856    20807007.109     5010547.901       -1800.680          32.087
G16  23090540.651    -5211537.481        -800.505          36.952                                                            
G26  24519735.241     2755243.306       -3075.119          34.033                                                            
G29  24311687.069     1033035.246       -1646.544          39.470                                                            
G30  23001251.965    -4099774.068        2565.026          42.018    23001252.564    -1066842.173        1918.671          25.983
R10  21379664.067   -10401558.454        2965.600          43.160                                                            
R09  20203577.954    -5550470.646        -746.215          45.496                                                            
R16  22573731.731    -1382485.523       -4437.438          37.608                                                            
R01  21237623.000   -10068040.560        2517.774          39.658                                                            
R24  21462796.515     2011297.616       -2108.053          42.851                                                            
R23  22443582.531     6037065.654       -4603.565          31.674                                                            
R17  22482679.665    -3241738.410        1672.795          40.379                                                            
R07  20795348.180     7667447.775       -3723.758          46.267                                                            
R08  19265763.589    -5984599.920        -228.205          40.560                                                            
J02  43594164.988          27.087       -1009.755          12.000                                                            
C09  40333142.846     3443210.224       -1877.973          25.577                                                            
C10  39327987.301    -1148727.825         652.650          33.738                                                            
C14  21836033.329     2464356.328       -2043.443          44.670                                                            
C24  23779169.923    -3139596.411        1895.985          45.769                                                            
C26  22512497.023      765547.470        -995.016          45.737                                                            
C27  24958086.676     2051068.342       -2112.386          34.022                                                            
C28  26517527.598     1288920.568       -3900.491          18.635                                                            
C30  25745282.012     -513267.607         489.013          34.589                                                            
C33  21925043.508      -39572.247        -328.766          41.877                                                            
E02  26552875.227        1683.073       -2381.461          36.932                                                            
E07  24584048.218     4330974.426       -2626.805          45.393    24584051.815     1175287.393       -1961.409          27.975
E08  26962860.900          75.548       -3674.143          19.469                                                            
E12  24054521.201        -100.017        -684.877          37.592                                                            
E14  22259756.391          16.149       -2660.485          33.062                                                            
E19  26275446.687         -39.917        1834.145          31.450                                                            
E26  28059653.406          60.400       -4105.362          24.655                                                            
E27  27088842.385     -650401.619        2409.556          39.121    27088847.781     -447027.933        1803.242          21.324
E30  24254019.592     -154634.946         385.785          40.984    24254021.690     -130822.955         290.038          22.686
E33  26238043.980     1241183.977       -3320.669          29.437    26238047.877      897393.023       -2472.397          18.952
> 2020 10 30 13 22 52.0001055  0 39
G02  22726552.135     -656309.697       -1909.690          31.390                                                            
G04  23337922.492     8371580.212       -4067.819          34.764    23337928.189     6317014.969       -3035.430          19.756
G05  22352319.711    -8789352.200        2115.651          41.272                                                            
G06  23753536.169     4971127.483       -4338.761          34.555    23753539.467     1742438.321       -3235.582          18.446
G07  21620113.807    -7584258.842        1057.594          47.707                                                            
G09  20807463.393     6736301.357       -2412.744          47.126    20807466.691     5012349.026       -1801.593          32.386
G16  23090693.845    -5210735.733        -802.623          37.571                                                            
G26  24520321.635     2755243.413       -3077.070          34.893                                                            
G29  24312001.552     1034682.797       -1648.199          39.340                                                            
G30  23000764.802    -4102338.297        2563.532          42.429    23000764.202    -1068756.985        1916.649          24.966
R10  21379110.050   -10404523.214        2964.047          43.398                                                            
R09  20203711.661    -5549723.510        -747.927          45.510                                                            
R16  22574562.755    -1378047.301       -4438.796          38.221                                                            
R01  21237149.028   -10070557.567        2516.453          40.037                                                            
R24  21463193.141     2013406.839       -2110.199          42.978                                                            
R23  22444428.545     6041670.503       -4605.192          31.177                                                            
R17  22482362.784    -3243409.858        1670.718          40.764                                                            
R07  20796050.294     7671172.372       -3725.263          46.706                                                            
R08  19265810.957    -5984370.940        -229.823          40.988                                                            
J02  43594357.754          27.138       -1011.706          17.187                                                            
C09  40333508.593     3445090.735       -1878.277          24.774                                                            
C10  39327864.086    -1149379.480         650.798          33.376                                                            
C14  21836424.558     2466400.649       -2044.902          44.816                                                            
C24  23778805.675    -3141491.466        1894.429          46.115                                                            
C26  22512689.190      766543.440        -996.750          45.852                                                            
C27  24958493.494     2053181.586       -2113.761          33.477                                                            
C28  26518199.433     1292817.586       -3900.491          17.311                                                            
C30  25745189.076     -513755.835         487.585          34.488                                                            
C33  21925106.465      -39242.614        -330.311          41.900                                                            
E02  26553328.813        1683.150       -2383.412          37.775                                                            
E07  24584547.072     4333601.953       -2628.251          45.475    24584551.569     1177249.534       -1962.724          27.979
E08  26963560.615          75.644       -3675.118          18.701                                                            
E12  24054653.110         -99.964        -686.829          38.098                                                            
E14  22260263.940          16.226       -2663.412          31.599                                                            
E19  26275097.728         -39.936        1832.193          31.277                                                            
E26  28060435.565          60.508       -4107.313          23.422                                                            
E27  27088384.302     -652810.597        2408.538          39.672    27088386.400     -448823.527        1802.275          19.995
E30  24253947.042     -155019.924         384.402          41.001    24253948.841     -131110.381         287.504          22.758
E33  26238679.540     1244505.260       -3321.585          29.010    26238680.140      899873.303       -2477.085          20.095
> 2020 10 30 13 22 53.0001055  0 39
G02  22726915.184     -654399.042       -1911.061          30.631                                                            
G04  23338700.154     8375648.806       -4069.082          34.474    23338699.255     6320052.658       -3036.364          21.008
G05  22351917.689    -8791467.161        2114.280          40.627                                                            
G06  23754362.097     4975466.806       -4339.835          34.215    23754365.695     1745673.091       -3236.497          17.399
G07  21619912.046    -7585315.772        1056.194          47.748                                                            
G09  20807922.375     6738714.632       -2414.015          47.048    20807926.272     5014151.152       -1802.674          32.311
G16  23090845.540    -5209932.405        -804.314          37.865                                                            
G26  24520907.729     2755243.293       -3077.070          34.723                                                            
G29  24312313.036     1036331.889       -1649.935          39.860                                                            
G30  23000276.440    -4104901.395        2562.337          42.464    23000276.440    -1070671.054        1915.245          24.984
R10  21378554.834   -10407486.637        2962.625          43.216                                                            
R09  20203852.264    -5548974.579        -749.870          45.530                                                            
R16  22575392.281    -1373607.780       -4440.144          38.679                                                            
R01  21236684.949   -10073073.421        2515.116          39.560                                                            
R24  21463585.569     2015517.747       -2111.953          42.132                                                            
R23  22445265.266     6046276.746       -4607.761          30.344                                                            
R17  22482048.602    -3245079.707        1668.954          40.632                                                            
R07  20796752.708     7674898.181       -3726.290          46.805                                                            
R08  19265858.624    -5984140.493        -231.062          41.318                                                            
J02  43594550.820          27.148       -1010.731          20.823                                                            
C09  40333867.445     3446971.907       -1880.366          24.081                                                            
C10  39327740.572    -1150030.220         649.604          33.289                                                            
C14  21836818.785     2468446.162       -2046.201          44.882                                                            
C24  23778442.327    -3143385.358        1893.190          45.988                                                            
C26  22512879.558      767540.760        -998.023          45.846                                                            
C27  24958903.011     2055296.173       -2115.168          32.942                                                            
C28  26519009.772     1296724.597       -3902.442          19.138                                                            
C30  25745096.441     -514242.674         486.197          35.447                                                            
C33  21925169.121      -38911.745        -331.605          41.977                                                            
E02  26553783.598        1683.217       -2384.388          38.180                                                            
E07  24585047.426     4336230.508       -2629.318          45.693    24585051.623     1179212.469       -1964.030          27.597
E08  26964260.031          75.730       -3675.118          21.144                                                            
E12  24054783.520         -99.991        -686.829          37.665                                                            
E14  22260771.489          16.298       -2665.363          33.062                                                            
E19  26274749.669         -39.979        1832.193          30.089                                                            
E26  28061217.423          60.604       -4107.313          22.783                                                            
E27  27087923.221     -655218.571        2407.342          39.067    27087930.716     -450621.967        1796.231          22.586
E30  24253872.094     -155403.581         382.887          41.327    24253875.092     -131396.972         286.408          23.212
E33  26239313.601     1247827.693       -3323.357          29.718    26239311.503      902349.130       -2477.732          17.631
> 2020 10 30 13 22 54.0001055  0 39
G02  22727288.426     -652486.689       -1912.817          31.501                                                            
G04  23339472.120     8379718.548       -4070.436          34.378    23339476.317     6323089.502       -3038.307          20.842
G05  22351513.569    -8793580.751        2112.901          40.770                                                            
G06  23755187.426     4979807.348       -4341.077          36.068    23755191.323     1748915.473       -3241.051          18.095
G07  21619710.286    -7586371.201        1054.594          47.855                                                            
G09  20808382.557     6741129.378       -2415.568          47.027    20808385.554     5015954.412       -1804.068          32.611
G16  23090996.636    -5209127.304        -806.135          38.151                                                            
G26  24521494.123     2755243.400       -3079.022          34.305                                                            
G29  24312626.619     1037982.584       -1651.560          39.251                                                            
G30  22999787.478    -4107463.243        2561.171          41.511    22999788.977    -1072584.057        1915.246          25.476
R10  21378007.413   -10410448.485        2960.848          42.949                                                            
R09  20203991.967    -5548223.731        -751.818          45.655                                                            
R16  22576223.306    -1369166.670       -4442.054          38.624                                                            
R01  21236217.572   -10075588.008        2513.892          39.575                                                            
R24  21463984.293     2017630.614       -2114.005          42.035                                                            
R23  22446103.786     6050884.170       -4607.581          28.852                                                            
R17  22481734.719    -3246747.729        1667.056          40.818                                                            
R07  20797447.327     7678625.438       -3728.086          47.186                                                            
R08  19265897.597    -5983908.372        -233.101          41.094                                                            
J02  43594743.587          27.136       -1012.682          17.571                                                            
C09  40334227.495     3448854.065       -1882.117          24.721                                                            
C10  39327614.959    -1150679.959         649.101          33.544                                                            
C14  21837212.113     2470493.108       -2047.817          44.861                                                            
C24  23778078.978    -3145277.901        1891.833          45.634                                                            
C26  22513071.725      768539.675        -999.732          45.927                                                            
C27  24959306.831     2057412.294       -2116.796          32.379                                                            
C28  26519699.894     1300627.293       -3902.442          20.414                                                            
C30  25745002.905     -514728.028         484.395          34.801                                                            
C33  21925232.677      -38579.430        -333.069          42.249                                                            
E02  26554238.383        1683.145       -2386.339          37.540                                                            
E07  24585548.679     4338860.299       -2630.454          45.626    24585550.777     1181176.238       -1964.825          27.682
E08  26964960.946          75.606       -3677.070          18.274                                                            
E12  24054915.728         -99.938        -688.780          38.155                                                            
E14  22261279.037          16.209       -2668.290          34.528                                                            
E19  26274401.011         -39.884        1830.242          31.081                                                            
E26  28061999.282          60.449       -4108.288          24.011                                                            
E27  27087466.037     -657625.498        2406.280          37.686    27087473.832     -452419.459        1794.816          22.797
E30  24253799.244     -155785.731         381.297          41.559    24253802.842     -131682.444         285.600          22.633
E33  26239945.863     1251151.471       -3324.453          31.457    26239943.765      904831.356       -2479.485          19.484
> 2020 10 30 13 22 55.0001055  0 39
G02  22727652.673     -650573.017       -1914.861          31.687                                                            
G04  23340250.681     8383789.202       -4071.120          33.007    23340254.278     6326129.548       -3037.888          21.119
G05  22351111.248    -8795693.222        2111.837          41.155                                                            
G06  23756015.153     4984148.892       -4341.947          36.487    23756018.451     1752157.409       -3239.069          20.931
G07  21619509.725    -7587425.436        1053.495          47.411                                                            
G09  20808841.839     6743545.298       -2416.551          46.779    20808845.136     5017758.509       -1804.877          32.596
G16  23091151.628    -5208320.783        -807.641          37.080                                                            
G26  24522080.817     2755243.525       -3081.948          34.411                                                            
G29  24312943.799     1039634.693       -1652.945          39.037                                                            
G30  22999300.616    -4110024.098        2560.154          40.712    22999301.515    -1074496.320        1913.960          25.463
R10  21377447.701   -10413409.109        2959.945          42.826                                                            
R09  20204137.367    -5547471.200        -753.351          45.634                                                            
R16  22577057.928    -1364724.356       -4443.264          38.256                                                            
R01  21235744.800   -10078101.499        2512.802          39.207                                                            
R24  21464375.822     2019745.066       -2115.297          42.584                                                            
R23  22446975.282     6055493.107       -4609.995          28.404                                                            
R17  22481425.633    -3248414.280        1665.644          40.763                                                            
R07  20798141.946     7682353.873       -3729.089          46.920                                                            
R08  19265946.463    -5983674.902        -234.378          40.889                                                            
J02  43594937.553          27.187       -1014.633          13.063                                                            
C09  40334589.345     3450737.072       -1882.778          25.993                                                            
C10  39327489.945    -1151328.723         648.394          33.703                                                            
C14  21837605.141     2472541.192       -2048.767          44.492                                                            
C24  23777716.829    -3147169.345        1890.854          45.573                                                            
C26  22513261.493      769539.923       -1001.044          45.918                                                            
C27  24959714.249     2059529.720       -2118.255          31.928                                                            
C28  26520489.847     1304535.520       -3904.393          20.070                                                            
C30  25744911.768     -515212.091         483.462          34.555                                                            
C33  21925298.332      -38245.915        -334.232          42.074                                                            
E02  26554693.168        1683.222       -2388.291          37.481                                                            
E07  24586047.833     4341491.072       -2631.273          45.520    24586051.131     1183140.779       -1964.839          28.294
E08  26965660.662          75.711       -3679.021          19.921                                                            
E12  24055046.738         -99.866        -691.707          38.351                                                            
E14  22261787.785          16.286       -2671.217          33.009                                                            
E19  26274053.251         -39.904        1828.291          30.931                                                            
E26  28062782.640          60.557       -4110.240          23.881                                                            
E27  27087006.456     -660031.504        2405.381          37.924    27087014.550     -454216.200        1794.485          22.481
E30  24253726.694     -156166.706         380.172          40.603    24253730.592     -131966.820         283.569          21.874
E33  26240580.524     1254476.234       -3325.360          31.440    26240576.327      907309.943       -2479.657          20.057
> 2020 10 30 13 22 56.0001055  0 39
G02  22728014.823     -648657.863       -1916.109          32.215                                                            
G04  23341022.346     8387861.096       -4072.339          32.756    23341029.541     6329166.506       -3038.079          20.423
G05  22350710.725    -8797804.320        2110.614          41.603                                                            
G06  23756841.981     4988491.648       -4343.017          37.535    23756844.079     1755395.995       -3238.993          19.678
G07  21619310.063    -7588478.143        1052.072          47.690                                                            
G09  20809302.620     6745962.719       -2417.987          47.026    20809305.318     5019563.745       -1805.891          32.288
G16  23091304.822    -5207512.452        -809.178          36.916                                                            
G26  24522666.911     2755243.404       -3081.948          33.959                                                            
G29  24313257.982     1041288.474       -1654.364          39.203                                                            
G30  22998811.954    -4112583.599        2559.023          41.388    22998814.652    -1076407.678        1912.272          25.318
R10  21376893.085   -10416368.130        2958.320          42.744                                                            
R09  20204279.768    -5546716.706        -755.343          45.666                                                            
R16  22577893.749    -1360280.522       -4444.364          38.500                                                            
R01  21235280.421   -10080613.646        2511.499          39.671                                                            
R24  21464780.242     2021861.442       -2117.296          43.377                                                            
R23  22447851.276     6060103.332       -4610.862          29.351                                                            
R17  22481110.251    -3250079.013        1663.886          41.441                                                            
R07  20798838.064     7686083.784       -3730.603          46.608                                                            
R08  19265995.029    -5983439.797        -235.741          41.329                                                            
J02  43595130.919          27.147       -1014.633          19.241                                                            
C09  40334949.995     3452621.124       -1883.167          26.273                                                            
C10  39327364.332    -1151976.327         646.937          33.992                                                            
C14  21837997.569     2474590.702       -2050.233          44.539                                                            
C24  23777353.181    -3149059.384        1889.453          45.632                                                            
C26  22513454.860      770541.737       -1002.524          45.836                                                            
C27  24960117.770     2061648.670       -2119.899          32.838                                                            
C28  26521201.554     1308438.931       -3906.344          18.652                                                            
C30  25744818.233     -515694.601         481.919          34.614                                                            
C33  21925362.487      -37910.974        -335.525          42.296                                                            
E02  26555147.954        1683.140       -2389.266          37.640                                                            
E07  24586548.786     4344123.120       -2632.632          45.942    24586552.084     1185106.291       -1966.248          27.677
E08  26966361.277          75.567       -3679.021          15.588                                                            
E12  24055179.546         -99.893        -691.707          38.342                                                            
E14  22262297.432          16.353       -2672.193          33.489                                                            
E19  26273705.492         -39.832        1828.291          30.846                                                            
E26  28063564.499          60.654       -4110.240          26.803                                                            
E27  27086551.670     -662436.417        2404.402          38.199    27086557.666     -456011.919        1794.877          21.441
E30  24253653.545     -156546.193         379.112          40.854    24253660.740     -132301.366         283.602          22.545
E33  26241218.183     1257802.300       -3326.714          31.719    26241209.489      909794.353       -2481.772          20.222
> 2020 10 30 13 22 57.0001055  0 39
G02  22728383.867     -646741.092       -1918.482          31.580                                                            
G04  23341800.008     8391934.209       -4074.043          33.187    23341807.203     6332202.024       -3038.879          18.678
G05  22350308.703    -8799913.921        2108.795          41.556                                                            
G06  23757669.708     4992835.760       -4344.786          38.165    23757669.708     1758639.375       -3241.337          20.006
G07  21619109.802    -7589529.247        1050.253          47.643                                                            
G09  20809763.101     6748381.715       -2419.836          46.803    20809765.199     5021370.105       -1806.951          31.841
G16  23091458.016    -5206702.296        -811.179          36.988                                                            
G26  24523254.504     2755243.512       -3083.899          34.911                                                            
G29  24313572.164     1042944.005       -1656.579          39.013                                                            
G30  22998324.791    -4115141.756        2557.223          41.082    22998328.089    -1078318.024        1912.301          25.659
R10  21376330.974   -10419325.524        2956.485          42.549                                                            
R09  20204422.769    -5545960.155        -757.550          45.995                                                            
R16  22578724.474    -1355835.067       -4446.186          38.959                                                            
R01  21234800.154   -10083124.352        2509.975          39.656                                                            
R24  21465175.368     2023979.791       -2119.295          43.392                                                            
R23  22448749.154     6064715.434       -4613.507          28.253                                                            
R17  22480810.759    -3251741.874        1661.620          41.297                                                            
R07  20799534.782     7689815.235       -3732.385          46.786                                                            
R08  19266035.801    -5983202.913        -237.737          41.513                                                            
J02  43595324.585          27.185       -1015.609          16.344                                                            
C09  40335312.444     3454506.051       -1883.041          26.301                                                            
C10  39327239.619    -1152622.763         645.919          34.279                                                            
C14  21838392.096     2476641.680       -2051.851          44.702                                                            
C24  23776990.732    -3150948.028        1888.075          45.841                                                            
C26  22513647.626      771545.205       -1004.296          45.794                                                            
C27  24960525.488     2063769.079       -2121.350          34.873                                                            
C28  26521952.834     1312347.002       -3906.344          19.460                                                            
C30  25744723.799     -516175.564         480.413          35.353                                                            
C33  21925427.243      -37574.491        -337.194          42.702                                                            
E02  26555603.938        1683.217       -2391.217          38.069                                                            
E07  24587050.339     4346756.466       -2634.057          45.867    24587053.637     1187072.721       -1967.102          27.892
E08  26967062.191          75.663       -3679.996          17.900                                                            
E12  24055311.454         -99.840        -693.658          38.043                                                            
E14  22262807.379          16.263       -2675.119          34.868                                                            
E19  26273358.932         -39.852        1826.340          31.050                                                            
E26  28064347.856          60.505       -4112.191          25.496                                                            
E27  27086091.489     -664840.115        2403.068          38.527    27086104.380     -457802.952        1794.805          22.664
E30  24253582.194     -156924.045         376.962          40.847    24253588.490     -132586.507         284.775          22.445
E33  26241849.246     1261129.819       -3328.073          31.549    26241842.051      912274.107       -2482.191          18.485
> 2020 10 30 13 22 58.0001055  0 39
G02  22728751.413     -644822.704       -1919.399          31.541                                                            
G04  23342571.674     8396008.553       -4075.429          33.831    23342580.368     6335244.837       -3037.221          20.326
G05  22349908.480    -8802022.172        2107.651          41.154                                                            
G06  23758497.434     4997181.121       -4345.993          38.336    23758495.636     1761880.200       -3241.261          18.752
G07  21618910.740    -7590578.846        1048.878          47.839                                                            
G09  20810222.982     6750802.176       -2421.108          46.907    20810226.880     5023177.605       -1808.350          32.124
G16  23091611.510    -5205890.388        -812.527          37.764                                                            
G26  24523842.097     2755243.602       -3084.875          34.573                                                            
G29  24313887.246     1044601.144       -1657.714          38.227                                                            
G30  22997837.928    -4117698.609        2556.350          41.036    22997841.526    -1080227.374        1911.225          26.656
R10  21375780.855   -10422281.371        2955.188          42.831                                                            
R09  20204569.967    -5545201.678        -759.381          46.361                                                            
R16  22579557.897    -1351388.068       -4447.682          39.219                                                            
R01  21234335.475   -10085633.730        2508.905          39.838                                                            
R24  21465571.994     2026100.120       -2121.245          43.243                                                            
R23  22449619.152     6069328.024       -4620.562          26.723                                                            
R17  22480500.473    -3253402.939        1660.206          41.560                                                            
R07  20800223.405     7693548.122       -3733.519          46.867                                                            
R08  19266075.673    -5982964.369        -239.287          41.524                                                            
J02  43595517.951          27.209       -1015.609          17.150                                                            
C09  40335673.694     3456392.051       -1883.529          26.285                                                            
C10  39327118.203    -1153268.034         644.647          33.796                                                            
C14  21838785.423     2478694.117       -2053.172          44.742                                                            
C24  23776628.283    -3152835.244        1886.661          46.037                                                            
C26  22513840.393      772550.264       -1005.753          45.764                                                            
C27  24960932.906     2065891.130       -2122.577          33.945                                                            
C28  26522706.512     1316256.074       -3908.296          22.609                                                            
C30  25744630.863     -516654.880         478.376          35.413                                                            
C33  21925492.298      -37236.548        -338.604          42.676                                                            
E02  26556058.423        1683.273       -2391.217          37.827                                                            
E07  24587552.192     4349391.103       -2635.243          45.570    24587555.789     1189040.187       -1968.086          28.284
E08  26967762.507          75.750       -3679.996          20.513                                                            
E12  24055444.562         -99.805        -694.633          38.612                                                            
E14  22263317.326          16.336       -2677.071          36.038                                                            
E19  26273010.873         -39.895        1826.340          29.089                                                            
E26  28065130.914          60.595       -4111.216          27.588                                                            
E27  27085633.706     -667242.657        2402.311          37.650    27085645.698     -459597.173        1795.091          20.984
E30  24253510.544     -157300.435         375.765          41.289    24253517.739     -132868.548         282.966          21.859
E33  26242483.607     1264458.718       -3329.393          30.598    26242477.011      914755.408       -2482.706          19.096
> 2020 10 30 13 22 59.0001055  0 39
G02  22729116.560     -642902.961       -1920.740          30.524                                                            
G04  23343345.138     8400083.930       -4076.025          33.312    23343358.629     6338286.055       -3040.232          19.273
G05  22349507.058    -8804129.165        2106.376          40.930                                                            
G06  23759324.262     5001527.562       -4346.913          38.044    23759320.665     1765124.145       -3242.023          19.106
G07  21618712.277    -7591627.096        1047.637          47.486                                                            
G09  20810683.464     6753223.960       -2422.470          46.631    20810687.361     5024986.063       -1809.058          32.231
G16  23091767.102    -5205076.839        -814.808          36.646                                                            
G26  24524430.890     2755243.516       -3086.826          34.084                                                            
G29  24314199.030     1046259.852       -1659.248          38.559                                                            
G30  22997352.564    -4120254.316        2555.085          40.626    22997354.962    -1082135.871        1910.931          26.268
R10  21375234.033   -10425235.805        2953.894          42.526                                                            
R09  20204709.071    -5544441.398        -761.255          45.738                                                            
R16  22580386.524    -1346939.667       -4449.323          38.606                                                            
R01  21233867.799   -10088141.873        2507.403          39.404                                                            
R24  21465977.613     2028222.236       -2122.969          42.848                                                            
R23  22450517.630     6073950.930       -4614.537          27.129                                                            
R17  22480188.689    -3255062.318        1658.395          41.298                                                            
R07  20800917.724     7697282.342       -3734.983          46.671                                                            
R08  19266134.732    -5982724.341        -241.004          41.574                                                            
J02  43595711.917          27.196       -1017.560          20.728                                                            
C09  40336031.047     3458279.071       -1884.654          26.672                                                            
C10  39326994.988    -1153912.344         643.580          34.409                                                            
C14  21839180.850     2480747.809       -2054.350          44.573                                                            
C24  23776266.433    -3154721.239        1885.354          45.599                                                            
C26  22514031.360      773556.788       -1007.232          45.644                                                            
C27  24961339.724     2068014.492       -2123.806          34.254                                                            
C28  26523458.991     1320165.811       -3908.296          21.904                                                            
C30  25744541.525     -517132.942         477.401          35.555                                                            
C33  21925556.453      -36897.309        -339.912          42.598                                                            
E02  26556514.408        1683.201       -2393.168          37.902                                                            
E07  24588053.745     4352026.809       -2636.222          45.659    24588056.743     1191008.332       -1968.459          28.043
E08  26968463.721          75.625       -3681.948          18.091                                                            
E12  24055577.670         -99.795        -696.585          38.262                                                            
E14  22263827.273          16.246       -2679.998          34.803                                                            
E19  26272664.313         -39.812        1825.364          29.099                                                            
E26  28065914.272          60.446       -4113.167          26.849                                                            
E27  27085175.923     -669644.184        2401.081          37.878    27085186.416     -461390.375        1794.941          22.113
E30  24253438.594     -157675.497         374.361          40.789    24253447.588     -133150.628         282.802          22.603
E33  26243117.068     1267788.804       -3330.695          30.245    26243111.672      917242.217       -2482.610          20.838
> 2020 10 30 13 23  0.0001055  0 39
G02  22729480.808     -640981.438       -1922.255          30.609                                                            
G04  23344121.301     8404160.534       -4077.204          33.881    23344130.295     6341327.441       -3040.213          18.884
G05  22349105.936    -8806234.721        2104.992          40.651                                                            
G06  23760149.291     5005875.364       -4348.297          36.749    23760149.591     1768367.500       -3241.108          20.556
G07  21618513.215    -7592673.754        1045.964          48.075                                                            
G09  20811144.544     6755647.305       -2424.015          46.979    20811148.442     5026795.703       -1810.245          32.450
G16  23091920.296    -5204261.537        -816.350          37.090                                                            
G26  24525018.483     2755243.623       -3088.777          34.242                                                            
G29  24314514.112     1047920.328       -1661.328          39.079                                                            
G30  22996866.601    -4122808.670        2553.805          41.781    22996868.699    -1084043.328        1910.574          24.415
R10  21374675.520   -10428188.557        2952.153          43.053                                                            
R09  20204848.175    -5543679.077        -763.303          45.746                                                            
R16  22581218.148    -1342489.684       -4450.904          38.532                                                            
R01  21233398.924   -10090648.663        2506.502          40.000                                                            
R24  21466373.339     2030346.342       -2124.870          43.276                                                            
R23  22451323.772     6078567.352       -4617.126          28.004                                                            
R17  22479870.310    -3256719.910        1656.787          41.580                                                            
R07  20801620.138     7701018.055       -3736.309          46.591                                                            
R08  19266172.806    -5982482.613        -242.506          42.031                                                            
J02  43595906.782          27.247       -1019.511          18.526                                                            
C09  40336402.190     3460167.023       -1884.514          26.648                                                            
C10  39326872.373    -1154555.476         642.500          33.975                                                            
C14  21839574.477     2482803.007       -2055.960          44.825                                                            
C24  23775903.984    -3156605.811        1884.006          45.721                                                            
C26  22514227.425      774564.927       -1008.812          46.032                                                            
C27  24961750.140     2070139.593       -2125.985          33.714                                                            
C28  26524209.072     1324077.961       -3910.247          24.023                                                            
C30  25744448.889     -517609.342         475.937          35.153                                                            
C33  21925623.607      -36556.528        -341.492          42.564                                                            
E02  26556971.291        1683.279       -2395.120          37.520                                                            
E07  24588554.698     4354663.868       -2637.635          45.730    24588558.595     1192977.586       -1969.605          28.386
E08  26969165.535          75.721       -3682.923          13.917                                                            
E12  24055710.778         -99.742        -698.536          38.261                                                            
E14  22264338.419          16.323       -2682.924          35.868                                                            
E19  26272317.753         -39.831        1823.413          28.955                                                            
E26  28066697.630          60.554       -4115.118          24.599                                                            
E27  27084722.637     -672044.496        2399.559          37.970    27084730.431     -463182.829        1795.845          21.221
E30  24253367.843     -158048.928         372.645          40.910    24253374.738     -133429.385         278.264          22.768
E33  26243750.530     1271120.161       -3331.652          30.608    26243747.232      919727.000       -2485.697          19.903
> 2020 10 30 13 23  1.0001055  0 39
G02  22729840.559     -639058.531       -1923.570          29.637                                                            
G04  23344899.562     8408238.251       -4077.818          32.313    23344905.858     6344372.894       -3043.128          20.191
G05  22348706.912    -8808338.959        2103.515          40.883                                                            
G06  23760977.917     5010224.247       -4349.540          36.338    23760979.416     1771615.494       -3245.453          18.578
G07  21618313.853    -7593719.043        1044.733          48.010                                                            
G09  20811605.625     6758072.000       -2425.416          47.013    20811609.822     5028606.360       -1811.428          32.718
G16  23092078.587    -5203444.555        -817.308          36.919                                                            
G26  24525606.976     2755243.520       -3089.753          34.174                                                            
G29  24314830.693     1049582.283       -1662.538          39.143                                                            
G30  22996382.136    -4125361.817        2552.527          42.622    22996382.436    -1085949.911        1909.297          23.572
R10  21374124.202   -10431139.890        2950.490          42.898                                                            
R09  20204990.876    -5542914.941        -765.015          45.492                                                            
R16  22582045.575    -1338038.330       -4452.198          38.175                                                            
R01  21232933.346   -10093154.185        2504.783          39.891                                                            
R24  21466769.365     2032472.237       -2126.824          43.280                                                            
R23  22452195.568     6083184.956       -4620.987          28.721                                                            
R17  22479563.022    -3258375.816        1654.979          41.229                                                            
R07  20802327.648     7704755.102       -3737.591          46.584                                                            
R08  19266224.071    -5982239.415        -243.870          41.741                                                            
J02  43596100.148          27.271       -1019.511          20.232                                                            
C09  40336763.140     3462055.859       -1889.070          27.096                                                            
C10  39326748.858    -1155197.546         641.633          34.332                                                            
C14  21839969.004     2484859.466       -2057.055          44.551                                                            
C24  23775541.535    -3158489.120        1882.757          45.712                                                            
C26  22514421.990      775574.559       -1010.417          45.723                                                            
C27  24962156.059     2072265.976       -2126.920          34.139                                                            
C28  26524942.664     1327990.146       -3912.893          25.491                                                            
C30  25744355.354     -518084.351         474.618          34.964                                                            
C33  21925688.062      -36214.459        -342.629          42.542                                                            
E02  26557427.276        1683.346       -2396.095          37.567                                                            
E07  24589057.150     4357302.029       -2638.673          46.044    24589061.047     1194947.625       -1970.467          27.675
E08  26969866.150          75.808       -3682.923          19.260                                                            
E12  24055843.886         -99.751        -699.512          38.331                                                            
E14  22264848.966          16.391       -2683.900          35.007                                                            
E19  26271970.893         -39.874        1823.413          30.989                                                            
E26  28067480.388          60.645       -4114.143          23.671                                                            
E27  27084266.652     -674443.829        2398.721          37.192    27084273.248     -464982.616        1791.201          21.447
E30  24253298.291     -158421.082         371.583          41.261    24253304.287     -133707.319         277.131          22.077
E33  26244380.993     1274452.792       -3332.851          31.191    26244381.293      922214.418       -2485.983          21.003
> 2020 10 30 13 23  2.0001055  0 39
G02  22730201.509     -637134.147       -1924.945          29.615                                                            
G04  23345676.325     8412317.150       -4079.399          32.039    23345684.119     6347414.326       -3042.671          22.634
G05  22348305.790    -8810441.931        2102.309          40.616                                                            
G06  23761805.644     5014574.334       -4350.883          36.333    23761807.443     1774859.804       -3245.319          17.987
G07  21618115.090    -7594762.888        1043.267          48.119                                                            
G09  20812067.605     6760498.084       -2426.627          46.999    20812070.903     5030418.006       -1812.195          32.578
G16  23092233.879    -5202625.842        -819.719          38.961                                                            
G26  24526195.768     2755243.628       -3091.704          33.431                                                            
G29  24315147.574     1051245.884       -1664.433          39.764                                                            
G30  22995896.772    -4127913.768        2551.335          42.531    22995896.472    -1087855.624        1906.960          23.651
R10  21373566.888   -10434089.766        2949.173          43.058                                                            
R09  20205126.082    -5542148.896        -766.817          45.417                                                            
R16  22582880.797    -1333585.524       -4453.406          38.783                                                            
R01  21232460.573   -10095658.485        2503.538          39.348                                                            
R24  21467163.892     2034599.939       -2128.625          42.765                                                            
R23  22453053.275     6087804.105       -4619.610          30.799                                                            
R17  22479262.031    -3260029.992        1653.267          41.560                                                            
R07  20803018.370     7708493.496       -3738.970          46.873                                                            
R08  19266266.641    -5981994.616        -245.341          41.466                                                            
J02  43596295.013          27.245       -1020.487          16.685                                                            
C09  40337122.591     3463945.755       -1892.374          26.523                                                            
C10  39326623.845    -1155838.585         640.534          34.870                                                            
C14  21840364.131     2486917.291       -2058.382          44.604                                                            
C24  23775181.484    -3160371.121        1881.352          45.366                                                            
C26  22514616.256      776585.680       -1011.850          45.803                                                            
C27  24962565.875     2074393.855       -2128.781          33.393                                                            
C28  26525697.842     1331906.881       -3912.198          20.392                                                            
C30  25744264.816     -518557.862         472.762          34.511                                                            
C33  21925753.117      -35871.004        -343.983          42.657                                                            
E02  26557883.260        1683.273       -2398.046          38.364                                                            
E07  24589559.602     4359941.382       -2639.951          46.247    24589563.799     1196918.661       -1972.027          28.117
E08  26970568.264          75.683       -3684.875          19.114                                                            
E12  24055978.193         -99.698        -701.463          38.218                                                            
E14  22265361.611          16.305       -2687.802          36.369                                                            
E19  26271624.333         -39.779        1821.462          29.786                                                            
E26  28068264.945          60.496       -4116.094          23.679                                                            
E27  27083808.569     -676842.063        2397.582          38.145    27083816.364     -466773.410        1792.731          21.725
E30  24253227.240     -158791.797         370.392          40.928    24253234.735     -133984.109         276.663          22.736
E33  26245012.956     1277786.753       -3334.447          30.444    26245014.155      924697.981       -2486.402          18.948
> 2020 10 30 13 23  3.0001055  0 39
G02  22730570.553     -635208.196       -1926.541          30.829                                                            
G04  23346450.389     8416396.899       -4079.680          31.352    23346459.682     6350458.774       -3043.967          20.155
G05  22347906.766    -8812543.706        2101.146          40.322                                                            
G06  23762634.271     5018925.467       -4351.845          35.840    23762637.568     1778109.127       -3246.825          19.356
G07  21617916.628    -7595805.371        1041.785          47.825                                                            
G09  20812530.785     6762925.488       -2427.942          46.842    20812532.584     5032230.698       -1813.133          32.193
G16  23092386.474    -5201805.574        -821.215          36.930                                                            
G26  24526784.261     2755243.700       -3091.704          33.862                                                            
G29  24315463.555     1052910.965       -1665.949          39.534                                                            
G30  22995411.708    -4130464.594        2550.398          42.449    22995411.708    -1089760.466        1906.234          24.763
R10  21373017.668   -10437038.244        2947.698          42.654                                                            
R09  20205273.580    -5541381.144        -768.490          44.823                                                            
R16  22583724.113    -1329131.332       -4455.128          37.903                                                            
R01  21231989.599   -10098161.668        2502.841          39.470                                                            
R24  21467557.519     2036729.395       -2130.288          42.178                                                            
R23  22453913.379     6092424.243       -4620.886          29.978                                                            
R17  22478948.448    -3261682.549        1651.783          41.189                                                            
R07  20803719.285     7712233.187       -3740.331          46.103                                                            
R08  19266303.815    -5981748.322        -246.992          41.140                                                            
J02  43596489.578          27.269       -1020.487          17.113                                                            
C09  40337492.235     3465836.228       -1888.184          26.848                                                            
C10  39326503.928    -1156478.663         639.734          34.019                                                            
C14  21840760.756     2488976.378       -2059.718          44.047                                                            
C24  23774820.234    -3162251.948        1880.262          45.066                                                            
C26  22514809.022      777598.198       -1013.151          45.339                                                            
C27  24962973.593     2076523.082       -2129.305          33.081                                                            
C28  26526449.421     1335821.564       -3912.351          18.620                                                            
C30  25744173.979     -519029.963         471.149          34.832                                                            
C33  21925819.371      -35526.244        -345.469          42.276                                                            
E02  26558339.844        1683.329       -2398.046          38.881                                                            
E07  24590062.354     4362581.807       -2640.910          45.640    24590064.453     1198890.232       -1971.600          27.681
E08  26971269.778          75.770       -3684.875          20.790                                                            
E12  24056111.900         -99.681        -701.463          37.999                                                            
E14  22265873.357          16.373       -2688.778          36.658                                                            
E19  26271277.473         -39.822        1821.462          29.756                                                            
E26  28069048.002          60.592       -4116.094          24.790                                                            
E27  27083354.684     -679239.373        2396.897          37.965    27083359.480     -468563.626        1793.674          22.852
E30  24253159.187     -159161.126         368.763          41.467    24253163.984     -134259.875         276.587          20.965
E33  26245649.715     1281121.704       -3335.242          29.708    26245647.616      927188.919       -2487.679          18.795
> 2020 10 30 13 23  4.0001055  0 39
G02  22730943.495     -633281.198       -1927.817          34.456                                                            
G04  23347231.648     8420477.786       -4081.364          36.453    23347235.245     6353503.435       -3044.043          22.280
G05  22347505.944    -8814644.410        2099.988          40.661                                                            
G06  23763455.102     5023277.576       -4352.895          35.197    23763466.794     1781355.538       -3249.302          19.102
G07  21617718.465    -7596846.663        1040.770          47.087                                                            
G09  20812993.065     6765354.057       -2429.103          47.365    20812994.564     5034044.281       -1814.263          32.291
G16  23092546.263    -5200983.874        -822.519          37.614                                                            
G26  24527372.753     2755243.614       -3093.656          33.841                                                            
G29  24315782.834     1054577.449       -1667.371          39.815                                                            
G30  22994926.344    -4133014.411        2549.012          43.531    22994926.644    -1091664.546        1905.626          24.667
R10  21372466.949   -10439985.528        2946.575          43.667                                                            
R09  20205416.281    -5540611.668        -770.324          44.842                                                            
R16  22584553.639    -1324675.969       -4456.215          37.320                                                            
R01  21231524.621   -10100663.749        2501.292          39.734                                                            
R24  21467951.446     2038860.464       -2131.966          43.869                                                            
R23  22454782.178     6097045.637       -4622.945          30.084                                                            
R17  22478644.158    -3263333.616        1650.429          42.412                                                            
R07  20804420.499     7715974.035       -3741.508          47.363                                                            
R08  19266346.686    -5981500.695        -248.180          41.652                                                            
J02  43596684.743          27.256       -1022.438          19.874                                                            
C09  40337855.883     3467727.658       -1887.791          26.464                                                            
C10  39326380.413    -1157117.879         638.869          36.314                                                            
C14  21841154.383     2491036.578       -2060.857          44.419                                                            
C24  23774458.685    -3164131.700        1879.152          45.726                                                            
C26  22515005.686      778612.049       -1014.689          45.275                                                            
C27  24963383.409     2078653.520       -2130.825          34.669                                                            
C28  26527199.802     1339739.024       -3912.741          15.382                                                            
C30  25744081.343     -519500.886         470.333          37.025                                                            
C33  21925885.925      -35180.351        -346.612          42.768                                                            
E02  26558797.027        1683.257       -2399.998          38.065                                                            
E07  24590562.708     4365223.202       -2641.840          45.452    24590569.003     1200862.825       -1973.335          27.805
E08  26971971.892          75.645       -3686.826          18.964                                                            
E12  24056246.507         -99.653        -704.390          37.862                                                            
E14  22266386.901          16.451       -2691.705          36.374                                                            
E19  26270932.112         -39.728        1819.510          29.800                                                            
E26  28069832.259          60.695       -4117.069          24.703                                                            
E27  27082896.601     -681635.806        2395.654          37.336    27082903.496     -470353.854        1791.903          20.503
E30  24253087.537     -159529.254         367.544          43.185    24253091.434     -134538.075         275.370          23.711
E33  26246283.776     1284457.906       -3336.999          29.484    26246281.078      929680.220       -2487.812          21.133
> 2020 10 30 13 23  5.0001055  0 39
G02  22731312.840     -631352.428       -1929.087          33.089                                                            
G04  23348009.309     8424559.774       -4082.709          39.231    23348011.108     6356552.347       -3044.761          23.262
G05  22347108.719    -8816743.601        2098.557          38.732                                                            
G06  23764280.731     5027630.973       -4354.142          34.898    23764294.821     1784598.260       -3249.149          20.112
G07  21617520.902    -7597886.382        1038.988          47.035                                                            
G09  20813453.846     6767784.193       -2430.891          47.419    20813457.143     5035858.941       -1815.192          32.533
G16  23092702.455    -5200160.354        -824.251          37.309                                                            
G26  24527962.445     2755243.705       -3094.631          36.681                                                            
G29  24316100.914     1056245.544       -1668.791          39.006                                                            
G30  22994442.479    -4135562.912        2547.921          43.065    22994441.879    -1093567.546        1905.429          24.715
R10  21371915.631   -10442931.196        2944.920          44.449                                                            
R09  20205552.087    -5539840.205        -772.374          44.703                                                            
R16  22585377.169    -1320218.996       -4457.697          36.136                                                            
R01  21231046.452   -10103164.452        2500.146          38.917                                                            
R24  21468340.877     2040993.531       -2133.800          42.560                                                            
R23  22455636.586     6101668.457       -4623.451          29.008                                                            
R17  22478334.173    -3264982.843        1648.591          42.100                                                            
R07  20805117.217     7719716.334       -3742.912          47.610                                                            
R08  19266398.250    -5981251.312        -250.233          41.621                                                            
J02  43596879.308          27.280       -1022.438          19.441                                                            
C09  40338211.737     3469619.936       -1893.390          25.037                                                            
C10  39326256.599    -1157755.983         637.684          36.321                                                            
C14  21841549.510     2493098.245       -2062.349          44.559                                                            
C24  23774097.735    -3166010.020        1877.789          46.145                                                            
C26  22515198.752      779627.472       -1016.040          45.454                                                            
C27  24963793.825     2080785.521       -2132.744          35.692                                                            
C28  26527968.170     1343653.720       -3914.729          18.345                                                            
C30  25743993.804     -519970.252         468.768          36.817                                                            
C33  21925953.978      -34832.971        -348.064          42.580                                                            
E02  26559253.911        1683.324       -2400.973          37.912                                                            
E07  24591067.858     4367865.852       -2643.069          45.412    24591071.455     1202836.228       -1973.753          27.584
E08  26972672.507          75.732       -3686.826          19.797                                                            
E12  24056380.514         -99.637        -704.390          37.867                                                            
E14  22266898.647          16.350       -2692.680          35.761                                                            
E19  26270585.252         -39.770        1819.510          26.628                                                            
E26  28070616.217          60.534       -4117.069          25.712                                                            
E27  27082440.916     -684031.151        2394.782          36.943    27082448.411     -472146.047        1788.551          20.999
E30  24253017.086     -159895.897         365.911          43.051    24253023.981     -134813.099         274.623          23.317
E33  26246920.235     1287795.221       -3338.066          30.275    26246916.938      932166.090       -2485.431          21.610
> 2020 10 30 13 23  6.0001055  0 39
G02  22731676.188     -629422.696       -1930.163          32.002                                                            
G04  23348785.772     8428642.487       -4082.744          39.834    23348788.170     6359605.450       -3047.470          23.093
G05  22346708.795    -8818842.043        2098.365          38.270                                                            
G06  23765112.355     5031985.076       -4354.125          34.480    23765123.447     1787854.533       -3250.064          20.530
G07  21617323.039    -7598925.150        1038.632          46.863                                                            
G09  20813917.025     6770215.268       -2431.261          47.486    20813920.323     5037674.300       -1815.037          32.325
G16  23092861.645    -5199335.591        -825.003          37.949                                                            
G26  24528551.237     2755243.812       -3096.582          35.811                                                            
G29  24316417.195     1057914.908       -1669.772          39.482                                                            
G30  22993958.314    -4138110.627        2547.592          43.018    22993957.115    -1095470.155        1904.472          24.704
R10  21371359.216   -10445875.814        2944.315          44.757                                                            
R09  20205698.086    -5539067.317        -773.175          44.910                                                            
R16  22586216.887    -1315761.015       -4458.275          35.409                                                            
R01  21230583.573   -10105664.389        2499.546          38.578                                                            
R24  21468741.400     2043128.015       -2134.977          41.772                                                            
R23  22456515.578     6106295.293       -4623.699          26.686                                                            
R17  22478025.387    -3266630.760        1647.566          41.615                                                            
R07  20805821.430     7723459.609       -3743.425          47.628                                                            
R08  19266451.913    -5981000.825        -250.718          41.718                                                            
J02  43597074.174          27.331       -1024.389          24.360                                                            
C09  40338576.585     3471512.785       -1892.449          25.387                                                            
C10  39326133.684    -1158393.367         637.148          36.538                                                            
C14  21841947.335     2495160.799       -2062.744          44.424                                                            
C24  23773738.583    -3167887.467        1877.316          46.101                                                            
C26  22515394.817      780644.025       -1016.784          45.608                                                            
C27  24964203.641     2082918.646       -2133.388          36.672                                                            
C28  26528721.248     1347560.159       -3916.101          21.425                                                            
C30  25743902.367     -520438.522         467.912          36.813                                                            
C33  21926019.932      -34484.622        -348.793          42.328                                                            
E02  26559712.294        1683.402       -2402.925          39.079                                                            
E07  24591570.910     4370509.275       -2643.442          45.295    24591573.908     1204810.218       -1974.071          27.458
E08  26973374.621          75.828       -3687.801          12.481                                                            
E12  24056514.821         -99.583        -706.341          33.982                                                            
E14  22267412.191          16.428       -2695.607          34.094                                                            
E19  26270239.891         -39.790        1817.559          29.464                                                            
E26  28071399.574          60.642       -4119.020          26.118                                                            
E27  27081985.532     -686425.757        2394.415          36.747    27081995.125     -473941.221        1789.737          18.621
E30  24252949.033     -160261.542         365.515          42.950    24252954.129     -135085.055         274.715          22.680
E33  26247556.994     1291133.668       -3338.427          30.367    26247552.797      934659.633       -2490.366          19.538
> 2020 10 30 13 23  7.0001055  0 39
G02  22732047.631     -627491.619       -1931.537          33.439                                                            
G04  23349562.534     8432726.113       -4084.273          38.792    23349565.232     6362659.783       -3047.918          23.575
G05  22346310.071    -8820939.231        2096.540          39.974                                                            
G06  23765939.782     5036340.229       -4355.748          34.491    23765948.776     1791106.718       -3250.693          19.562
G07  21617124.276    -7599962.619        1036.800          46.309                                                            
G09  20814380.504     6772647.564       -2432.941          47.278    20814383.202     5039490.683       -1816.937          32.282
G16  23093015.738    -5198509.298        -827.059          37.812                                                            
G26  24529140.929     2755243.691       -3096.582          35.468                                                            
G29  24316734.975     1059585.615       -1671.277          40.209                                                            
G30  22993474.149    -4140657.272        2546.032          42.869    22993472.650    -1097371.833        1903.794          24.512
R10  21370806.698   -10448819.153        2942.552          44.754                                                            
R09  20205852.180    -5538292.690        -775.672          45.004                                                            
R16  22587058.705    -1311301.771       -4459.858          35.708                                                            
R01  21230114.098   -10108163.208        2498.312          38.898                                                            
R24  21469140.124     2045264.149       -2137.060          43.202                                                            
R23  22457331.313     6110922.295       -4626.143          29.928                                                            
R17  22477720.498    -3268277.187        1645.579          40.955                                                            
R07  20806521.145     7727204.017       -3744.913          47.824                                                            
R08  19266501.678    -5980748.887        -252.775          41.586                                                            
J02  43597269.938          27.291       -1024.389          17.735                                                            
C09  40338939.034     3473406.420       -1892.554          25.715                                                            
C10  39326011.369    -1159029.924         636.001          37.113                                                            
C14  21842343.360     2497224.539       -2064.280          44.261                                                            
C24  23773377.333    -3169763.785        1875.661          45.811                                                            
C26  22515589.082      781661.899       -1018.646          45.287                                                            
C27  24964614.657     2085053.008       -2135.258          36.225                                                            
C28  26529474.027     1351479.276       -3918.052          19.482                                                            
C30  25743817.226     -520905.515         466.198          38.725                                                            
C33  21926087.386      -34135.098        -350.262          42.677                                                            
E02  26560168.878        1683.308       -2402.925          38.890                                                            
E07  24592074.261     4373153.704       -2645.081          45.273    24592076.959     1206784.932       -1975.045          27.650
E08  26974077.335          75.684       -3687.801          18.535                                                            
E12  24056650.028         -99.592        -707.316          36.501                                                            
E14  22267926.335          16.332       -2697.558          36.813                                                            
E19  26269894.231         -39.718        1817.559          27.424                                                            
E26  28072183.832          60.481       -4119.020          25.685                                                            
E27  27081531.046     -688819.492        2393.062          36.558    27081536.742     -475728.572        1789.013          20.211
E30  24252879.181     -160625.943         363.760          42.468    24252885.477     -135357.413         273.003          23.441
E33  26248189.257     1294473.025       -3339.941          31.312    26248189.556      937147.690       -2490.080          21.442
> 2020 10 30 13 23  8.0001055  0 39
G02  22732414.277     -625559.241       -1932.856          32.972                                                            
G04  23350338.397     8436810.609       -4084.798          38.789    23350341.395     6365710.057       -3048.573          23.675
G05  22345912.846    -8823035.407        2095.571          39.737                                                            
G06  23766771.107     5040696.271       -4356.653          34.819    23766777.402     1794356.387       -3251.265          20.730
G07  21616927.612    -7600998.945        1035.684          46.549                                                            
G09  20814843.983     6775081.005       -2434.011          47.509    20814845.482     5041307.851       -1817.618          32.302
G16  23093174.028    -5197681.614        -828.408          37.169                                                            
G26  24529730.921     2755243.816       -3099.509          34.834                                                            
G29  24317055.453     1061257.685       -1672.487          39.927                                                            
G30  22992989.085    -4143202.967        2545.074          43.144    22992988.186    -1099272.805        1903.823          25.440
R10  21370261.376   -10451761.304        2941.621          44.738                                                            
R09  20206002.076    -5537516.504        -776.882          45.320                                                            
R16  22587886.432    -1306841.256       -4461.022          36.244                                                            
R01  21229647.921   -10110660.998        2497.258          38.711                                                            
R24  21469546.942     2047401.837       -2138.428          42.682                                                            
R23  22458203.110     6115548.772       -4626.621          28.310                                                            
R17  22477407.515    -3269922.131        1643.982          40.907                                                            
R07  20807212.766     7730949.578       -3746.123          47.896                                                            
R08  19266545.148    -5980495.683        -253.800          42.110                                                            
J02  43597464.803          27.329       -1025.365          19.149                                                            
C09  40339302.982     3475300.601       -1892.143          24.762                                                            
C10  39325889.653    -1159665.673         635.400          37.061                                                            
C14  21842739.686     2499289.366       -2065.358          44.319                                                            
C24  23773017.582    -3171639.085        1874.859          46.143                                                            
C26  22515784.247      782680.997       -1019.682          45.253                                                            
C27  24965027.471     2087188.486       -2135.996          36.298                                                            
C28  26530227.706     1355396.871       -3918.052          18.326                                                            
C30  25743722.492     -521371.336         465.373          39.224                                                            
C33  21926156.638      -33784.434        -351.373          42.975                                                            
E02  26560627.260        1683.386       -2404.876          37.135                                                            
E07  24592578.212     4375799.006       -2645.701          45.467    24592581.510     1208760.375       -1975.891          27.016
E08  26974780.648          75.790       -3689.753          15.120                                                            
E12  24056785.534         -99.538        -709.268          37.097                                                            
E14  22268441.079          16.410       -2700.485          35.632                                                            
E19  26269548.870         -39.738        1815.608          24.737                                                            
E26  28072969.288          60.583       -4119.996          23.815                                                            
E27  27081076.261     -691212.462        2392.738          36.232    27081079.559     -477507.727        1788.471          18.828
E30  24252809.929     -160989.180         362.711          43.008    24252815.625     -135631.402         272.342          23.451
E33  26248825.416     1297813.420       -3341.122          31.797    26248825.117      939638.317       -2491.776          21.765
> 2020 10 30 13 23  9.0001055  0 39
G02  22732783.022     -623625.690       -1933.891          32.877                                                            
G04  23351114.860     8440895.941       -4085.651          39.743    23351119.057     6368760.891       -3050.223          24.083
G05  22345512.923    -8825130.553        2094.559          39.944                                                            
G06  23767598.834     5045053.112       -4356.974          34.963    23767607.228     1797607.295       -3251.436          20.123
G07  21616730.349    -7602034.117        1034.695          46.678                                                            
G09  20815308.062     6777515.558       -2435.064          47.677    20815308.662     5043125.894       -1818.504          32.164
G16  23093330.220    -5196852.533        -830.025          36.542                                                            
G26  24530321.812     2755243.695       -3099.509          34.706                                                            
G29  24317371.734     1062931.077       -1673.952          40.120                                                            
G30  22992504.620    -4145747.725        2544.263          43.317    22992504.021    -1101173.174        1902.379          24.885
R10  21369705.261   -10454702.241        2940.514          44.525                                                            
R09  20206145.676    -5536738.697        -778.494          45.658                                                            
R16  22588732.146    -1302379.638       -4462.086          36.705                                                            
R01  21229189.538   -10113157.829        2496.493          38.642                                                            
R24  21469942.068     2049541.081       -2139.872          42.710                                                            
R23  22459038.631     6120176.554       -4628.472          28.452                                                            
R17  22477101.426    -3271565.692        1642.879          40.341                                                            
R07  20807917.578     7734696.191       -3747.093          47.749                                                            
R08  19266588.918    -5980241.174        -254.984          42.129                                                            
J02  43597660.568          27.353       -1025.365          13.677                                                            
C09  40339664.831     3477195.572       -1893.680          26.145                                                            
C10  39325770.635    -1160300.645         634.614          36.831                                                            
C14  21843135.112     2501355.250       -2066.396          44.501                                                            
C24  23772657.232    -3173513.343        1873.889          46.060                                                            
C26  22515980.011      783701.333       -1020.764          45.182                                                            
C27  24965437.887     2089325.187       -2137.190          36.129                                                            
C28  26530980.784     1359317.848       -3920.003          15.867                                                            
C30  25743636.751     -521835.955         464.087          39.220                                                            
C33  21926224.391      -33432.694        -352.305          42.964                                                            
E02  26561086.542        1683.453       -2405.851          36.591                                                            
E07  24593081.564     4378445.255       -2646.722          45.273    24593085.461     1210736.415       -1976.691          27.264
E08  26975482.162          75.876       -3689.753          21.694                                                            
E12  24056921.640         -99.566        -709.268          37.548                                                            
E14  22268955.223          16.478       -2701.461          35.043                                                            
E19  26269203.209         -39.780        1815.608          26.467                                                            
E26  28073753.545          60.680       -4119.996          25.055                                                            
E27  27080621.476     -693604.595        2391.953          36.620    27080624.774     -479303.681        1787.222          18.432
E30  24252740.677     -161351.242         361.449          43.299    24252746.673     -135902.533         271.241          23.054
E33  26249461.576     1301154.752       -3341.988          31.450    26249461.276      942132.133       -2491.833          19.967
> 2020 10 30 13 23 10.0001055  0 39
G02  22733147.869     -621690.893       -1935.504          33.120                                                            
G04  23351893.720     8444982.081       -4086.616          39.923    23351897.318     6371812.171       -3050.108          24.167
G05  22345114.799    -8827224.720        2093.855          40.616                                                            
G06  23768426.860     5049410.920       -4358.262          35.444    23768437.353     1800859.724       -3250.597          19.960
G07  21616533.685    -7603068.161        1033.407          46.581                                                            
G09  20815771.841     6779951.186       -2436.173          48.010    20815772.141     5044944.698       -1819.456          32.231
G16  23093488.511    -5196022.113        -831.115          36.745                                                            
G26  24530911.503     2755243.803       -3101.461          35.281                                                            
G29  24317694.311     1064605.721       -1675.315          40.445                                                            
G30  22992021.355    -4148291.600        2543.388          43.915    22992020.156    -1103072.778        1899.598          26.177
R10  21369153.043   -10457642.018        2939.137          44.461                                                            
R09  20206294.973    -5535959.334        -780.191          45.800                                                            
R16  22589569.466    -1297916.921       -4463.253          36.704                                                            
R01  21228709.570   -10115653.703        2495.340          39.175                                                            
R24  21470340.193     2051681.890       -2141.618          43.471                                                            
R23  22459930.214     6124805.226       -4628.959          29.629                                                            
R17  22476786.045    -3273207.802        1641.453          41.506                                                            
R07  20808614.896     7738443.870       -3748.235          47.910                                                            
R08  19266628.491    -5979985.455        -256.304          41.565                                                            
J02  43597856.632          27.340       -1027.316          17.503                                                            
C09  40340027.280     3479090.659       -1892.963          26.087                                                            
C10  39325647.121    -1160934.867         633.888          37.090                                                            
C14  21843533.237     2503422.182       -2067.662          44.402                                                            
C24  23772297.181    -3175386.620        1872.748          45.744                                                            
C26  22516177.275      784722.879       -1022.345          44.886                                                            
C27  24965846.804     2091463.006       -2138.319          36.701                                                            
C28  26531734.163     1363244.070       -3920.003          16.091                                                            
C30  25743549.512     -522299.480         463.037          39.397                                                            
C33  21926292.743      -33079.875        -353.433          43.169                                                            
E02  26561544.625        1683.380       -2407.803          37.084                                                            
E07  24593584.616     4381092.326       -2647.517          45.290    24593589.712     1212713.097       -1977.133          27.742
E08  26976185.475          75.742       -3690.728          17.116                                                            
E12  24057057.446         -99.494        -712.194          37.362                                                            
E14  22269469.667          16.387       -2704.388          36.249                                                            
E19  26268857.848         -39.686        1813.657          24.436                                                            
E26  28074538.102          60.530       -4121.947          25.652                                                            
E27  27080167.590     -695995.991        2390.985          36.726    27080171.787     -481091.065        1786.783          19.075
E30  24252672.624     -161712.264         360.472          42.991    24252676.821     -136172.092         271.604          23.611
E33  26250094.438     1304497.120       -3343.412          31.715    26250095.337      944622.536       -2493.376          21.513
> 2020 10 30 13 23 11.0001055  0 39
G02  22733510.318     -619754.672       -1936.728          33.670                                                            
G04  23352671.682     8449069.284       -4087.514          39.739    23352674.680     6374864.308       -3049.663          24.482
G05  22344716.675    -8829317.572        2092.479          41.081                                                            
G06  23769259.684     5053769.820       -4359.224          35.883    23769268.977     1804111.345       -3254.732          18.719
G07  21616337.621    -7604100.839        1032.184          46.491                                                            
G09  20816235.620     6782388.187       -2437.529          47.644    20816237.119     5046764.528       -1820.364          32.478
G16  23093646.801    -5195189.995        -832.743          36.603                                                            
G26  24531502.394     2755243.893       -3102.436          35.636                                                            
G29  24318012.390     1066281.941       -1676.807          40.551                                                            
G30  22991536.590    -4150834.289        2542.308          43.542    22991537.190    -1104971.528        1897.971          26.581
R10  21368606.522   -10460580.387        2938.002          44.362                                                            
R09  20206433.777    -5535178.150        -781.821          45.641                                                            
R16  22590405.588    -1293452.800       -4464.892          36.982                                                            
R01  21228251.787   -10118148.373        2494.243          39.304                                                            
R24  21470743.414     2053824.488       -2143.269          43.474                                                            
R23  22460784.922     6129435.461       -4630.566          30.816                                                            
R17  22476484.753    -3274848.242        1639.706          40.395                                                            
R07  20809311.314     7742192.860       -3749.445          47.852                                                            
R08  19266682.753    -5979728.190        -257.732          41.557                                                            
J02  43598052.396          27.364       -1027.316          16.163                                                            
C09  40340389.729     3480987.085       -1893.320          25.872                                                            
C10  39325524.806    -1161568.061         632.873          36.941                                                            
C14  21843931.061     2505490.374       -2068.637          44.139                                                            
C24  23771938.629    -3177258.637        1871.522          45.714                                                            
C26  22516373.039      785745.868       -1023.487          45.032                                                            
C27  24966255.121     2093602.235       -2139.723          35.840                                                            
C28  26532487.541     1367159.602       -3920.003          13.682                                                            
C30  25743457.775     -522761.500         461.800          39.306                                                            
C33  21926359.597      -32725.750        -354.561          43.049                                                            
E02  26562002.708        1683.437       -2407.803          37.220                                                            
E07  24594087.667     4383740.539       -2648.576          44.979    24594092.464     1214690.679       -1978.197          28.214
E08  26976888.489          75.838       -3691.704          17.596                                                            
E12  24057192.352         -99.477        -712.194          37.680                                                            
E14  22269985.310          16.460       -2706.339          35.368                                                            
E19  26268513.387         -39.729        1813.657          24.947                                                            
E26  28075322.059          60.627       -4121.947          24.743                                                            
E27  27079712.805     -698386.356        2390.066          36.932    27079717.901     -482878.112        1786.783          18.414
E30  24252604.271     -162071.888         359.190          42.723    24252607.869     -136440.624         269.795          23.550
E33  26250732.096     1307840.536       -3343.747          31.236    26250733.295      947120.543       -2494.367          21.070
> 2020 10 30 13 23 12.0001055  0 39
G02  22733881.461     -617817.668       -1937.999          33.641                                                            
G04  23353450.842     8453157.478       -4088.512          39.430    23353452.042     6377917.064       -3051.027          24.052
G05  22344317.351    -8831409.355        2090.912          40.898                                                            
G06  23770090.409     5058129.696       -4360.282          35.913    23770100.002     1807369.726       -3255.437          18.974
G07  21616140.957    -7605132.272        1030.974          46.622                                                            
G09  20816699.699     6784826.392       -2438.820          47.592    20816700.898     5048585.237       -1820.921          32.063
G16  23093806.590    -5194356.445        -834.265          37.887                                                            
G26  24532093.585     2755243.807       -3104.387          35.072                                                            
G29  24318330.170     1067959.489       -1678.084          40.574                                                            
G30  22991052.725    -4153375.954        2541.109          43.943    22991053.925    -1106869.495        1896.893          25.161
R10  21368053.105   -10463517.439        2936.502          44.210                                                            
R09  20206585.772    -5534395.262        -783.673          45.421                                                            
R16  22591239.310    -1288987.389       -4466.112          37.207                                                            
R01  21227783.811   -10120642.007        2493.083          39.087                                                            
R24  21471151.431     2055968.711       -2145.120          43.660                                                            
R23  22461667.511     6134066.900       -4632.089          30.507                                                            
R17  22476172.370    -3276487.172        1638.106          40.610                                                            
R07  20810017.625     7745943.084       -3750.748          48.275                                                            
R08  19266728.022    -5979469.515        -259.255          41.206                                                            
J02  43598248.461          27.338       -1028.292          13.248                                                            
C09  40340753.977     3482882.226       -1894.225          25.378                                                            
C10  39325402.191    -1162200.387         632.022          37.188                                                            
C14  21844327.687     2507559.729       -2069.778          43.956                                                            
C24  23771578.878    -3179129.588        1870.453          46.346                                                            
C26  22516570.003      786770.210       -1025.024          45.047                                                            
C27  24966669.434     2095742.685       -2140.878          36.355                                                            
C28  26533240.920     1371086.952       -3921.954          12.594                                                            
C30  25743372.934     -523222.331         460.351          39.529                                                            
C33  21926428.250      -32370.408        -355.998          43.251                                                            
E02  26562461.990        1683.364       -2409.754          36.997                                                            
E07  24594591.319     4386389.741       -2649.694          45.457    24594596.415     1216668.966       -1978.662          27.687
E08  26977591.502          75.703       -3692.680          20.141                                                            
E12  24057329.058         -99.468        -714.146          37.363                                                            
E14  22270500.953          16.539       -2709.266          35.471                                                            
E19  26268167.726         -39.646        1812.681          26.074                                                            
E26  28076107.515          60.730       -4122.923          26.311                                                            
E27  27079256.221     -700775.882        2389.112          36.757    27079261.917     -484661.330        1785.488          18.185
E30  24252535.619     -162430.289         357.762          42.892    24252538.317     -136708.236         270.071          22.203
E33  26251368.856     1311185.233       -3346.199          31.144    26251370.354      949613.775       -2493.822          20.455
