     3.04           OBSERVATION DATA    M: Mixed            RINEX VERSION / TYPE
CONVBIN 2.4.3                           20220111 154032 UTC PGM / RUN BY / DATE 
format: RINEX                                               COMMENT             
log: opec0020.10o                                           COMMENT             
                                                            MARKER NAME         
                                                            MARKER NUMBER       
                                                            MARKER TYPE         
                                                            OBSERVER / AGENCY   
                                                            REC # / TYPE / VERS 
                                                            ANT # / TYPE        
  3149785.9550   598260.8930  5495348.4880                  APPROX POSITION XYZ 
        0.0000        0.0000        0.0000                  ANTENNA: DELTA H/E/N
G    9 C1C L1C D1C S1C C2W L2W D2W S2W C2X                  SYS / # / OBS TYPES 
R    9 C1C L1C D1C S1C C1P C2P L2P D2P S2P                  SYS / # / OBS TYPES 
  2010    01    02    00    00   00.0000000     GPS         TIME OF FIRST OBS   
  2010    01    02    02    10   00.0000000     GPS         TIME OF LAST OBS    
G L1C                                                       SYS / PHASE SHIFT   
G L2W  0.00000                                              SYS / PHASE SHIFT   
R L1C                                                       SYS / PHASE SHIFT   
R L2P  0.00000                                              SYS / PHASE SHIFT   
 24 R01  1 R02 -4 R03  5 R04  6 R05  1 R06 -4 R07  5 R08  6 GLONASS SLOT / FRQ # 
    R09 -2 R10 -7 R11 -5 R12 -1 R13 -2 R14 -7 R15  0 R16 -1 GLONASS SLOT / FRQ # 
    R17  4 R18 -3 R19  3 R20  2 R21  4 R22 -3 R23  3 R24  2 GLONASS SLOT / FRQ # 
 C1C    0.000 C1P    0.000 C2C    0.000 C2P    0.000        GLONASS COD/PHS/BIS 
                                                            END OF HEADER       
> 2010 01 02 00 00 00.0000000  0 10                     
G15  20606271.313   108286661.3571       -405.371          49.000    20606274.098    84379253.9901       -315.874          43.000    20606274.230  
G09  22503730.172   118257879.3531       3622.719          47.000    22503733.457    92149039.2501       2822.898          32.000                  
G17  24425817.969   128358825.7851       3365.840          42.000    24425822.270   100019661.8131       2622.732          26.000    24425823.219  
G22  24671186.578   129647923.9061       2737.070          45.000    24671187.551   101024385.8821       2132.782          27.000                  
G08  23209073.859   121964385.0511      -3306.727          39.000    23209078.613    95037311.6281      -2576.670          22.000                  
G28  21505956.766   113014456.9721      -1007.223          51.000    21505959.199    88063334.9981       -784.849          40.000                  
R15  19303140.711   103150062.0921        984.309          51.000    19303140.031    19303144.328    80227906.1231        766.994          49.000  
G18  22857731.469   120118150.0701       1176.684          46.000    22857733.832    93598602.4811        916.896          31.000                  
G27  22239819.836   116871189.4581       2275.703          48.000    22239824.289    91068371.6551       1773.275          37.000                  
R14  20606413.055   109843778.7881      -2843.461          53.000    20606412.023    20606418.137    85434081.8811      -2215.684          48.000  
> 2010 01 02 00 00 01.0000000  0 10                     
G15  20606348.172   108287066.983        -405.980          49.000    20606351.113    84379570.062        -316.348          43.000    20606351.242  
G09  22503040.656   118254256.670        3622.566          47.000    22503044.621    92146216.377        2822.779          32.000                  
G17  24425177.336   128355460.018        3365.645          42.000    24425181.770   100017039.136        2622.580          27.000    24425182.328  
G22  24670665.445   129645187.033        2736.563          45.000    24670666.652   101022253.251        2132.386          27.000                  
G08  23209704.008   121967691.831       -3306.953          40.000    23209707.586    95039888.327       -2576.847          22.000                  
G28  21506148.430   113015464.448       -1007.699          51.000    21506150.938    88064120.045        -785.220          41.000                  
R15  19302956.641   103149078.014         983.711          51.000    19302955.961    19302959.871    80227140.725         766.528          49.000  
G18  22857507.563   120116973.647        1176.090          46.000    22857510.113    93597685.789         916.434          31.000                  
G27  22239386.930   116868913.812        2275.504          48.000    22239391.188    91066598.426        1773.120          38.000                  
R14  20606946.203   109846622.395       -2843.863          53.000    20606945.758    20606951.672    85436293.571       -2215.997          48.000  
> 2010 01 02 00 00 02.0000000  0 10                     
G15  20606425.391   108287473.100        -406.664          49.000    20606428.445    84379886.512        -316.881          43.000    20606428.609  
G09  22502351.148   118250634.169        3622.203          47.000    22502355.102    92143393.652        2822.496          32.000                  
G17  24424537.305   128352094.321        3365.395          42.000    24424541.508   100014416.507        2622.385          27.000    24424542.305  
G22  24670144.992   129642450.415        2736.188          45.000    24670146.145   101020120.826        2132.094          27.000                  
G08  23210332.789   121970998.719       -3307.152          39.000    23210337.113    95042465.125       -2577.002          22.000                  
G28  21506340.273   113016472.369       -1008.418          51.000    21506342.508    88064905.442        -785.780          41.000                  
R15  19302772.086   103148094.457         983.043          52.000    19302771.762    19302775.801    80226375.739         766.008          49.000  
G18  22857284.344   120115797.753        1175.355          46.000    22857286.180    93596769.506         915.861          30.000                  
G27  22238954.039   116866638.370        2275.105          49.000    22238958.039    91064825.355        1772.809          38.000                  
R14  20607480.047   109849466.313       -2844.332          53.000    20607479.133    20607485.133    85438505.503       -2216.363          48.000  
> 2010 01 02 00 00 03.0000000  0 10                     
G15  20606503.000   108287879.889        -407.012          49.000    20606506.020    84380203.490        -317.152          43.000    20606506.035  
G09  22501661.969   118247011.942        3622.207          47.000    22501665.992    92140571.140        2822.499          32.000                  
G17  24423896.852   128348728.827        3365.504          42.000    24423900.934   100011794.043        2622.470          27.000    24423901.879  
G22  24669624.094   129639714.229        2735.992          45.000    24669625.309   101017988.731        2131.942          26.000                  
G08  23210961.992   121974305.856       -3307.250          39.000    23210966.359    95045042.115       -2577.078          22.000                  
G28  21506531.875   113017480.866       -1008.684          52.000    21506534.656    88065691.285        -785.987          41.000                  
R15  19302588.500   103147111.511         982.695          52.000    19302587.586    19302591.559    80225611.226         765.737          49.000  
G18  22857060.391   120114622.502        1174.977          45.000    22857062.391    93595853.730         915.566          31.000                  
G27  22238521.234   116864363.209        2275.094          49.000    22238525.137    91063052.504        1772.800          38.000                  
R14  20608013.688   109852310.642       -2844.441          53.000    20608013.008    20608018.875    85440717.755       -2216.448          48.000  
> 2010 01 02 00 00 04.0000000  0 10                     
G15  20606580.680   108288287.346        -407.707          49.000    20606583.410    84380520.990        -317.694          43.000    20606583.563  
G09  22500972.656   118243390.060        3621.836          47.000    22500976.484    92137748.893        2822.210          32.000                  
G17  24423256.945   128345363.558        3365.191          43.000    24423261.063   100009171.755        2622.227          27.000    24423261.691  
G22  24669103.828   129636978.488        2735.699          45.000    24669104.414   101015856.985        2131.714          26.000                  
G08  23211590.922   121977613.286       -3307.477          39.000    23211595.738    95047619.336       -2577.254          22.000                  
G28  21506724.203   113018489.969       -1009.281          51.000    21506726.867    88066477.603        -786.453          41.000                  
R15  19302404.297   103146129.254         982.020          51.000    19302403.734    19302407.742    80224847.245         765.210          49.000  
G18  22856837.109   120113447.929        1174.313          46.000    22856839.195    93594938.476         915.049          31.000                  
G27  22238088.320   116862088.408        2274.801          49.000    22238092.414    91061279.928        1772.572          38.000                  
R14  20608546.633   109855155.452       -2844.953          53.000    20608546.426    20608552.680    85442930.387       -2216.847          47.000  
> 2010 01 02 00 00 05.0000000  0 10                     
G15  20606657.883   108288695.349        -408.309          49.000    20606661.172    84380838.910        -318.163          43.000    20606661.148  
G09  22500283.852   118239768.359        3621.566          47.000    22500287.129    92134926.792        2822.000          32.000                  
G17  24422616.000   128341998.425        3365.090          43.000    24422620.074   100006549.575        2622.148          26.000    24422620.238  
G22  24668583.227   129634243.086        2735.238          45.000    24668584.156   101013725.501        2131.354          27.000                  
G08  23212221.195   121980920.852       -3307.633          38.000    23212225.121    95050196.651       -2577.376          22.000                  
G28  21506915.984   113019499.568       -1009.816          51.000    21506919.160    88067264.304        -786.870          41.000                  
R15  19302220.633   103145147.527         981.473          51.000    19302219.602    19302223.695    80224083.682         764.784          49.000  
G18  22856613.781   120112273.898        1173.797          46.000    22856616.035    93594023.646         914.647          31.000                  
G27  22237655.227   116859813.810        2274.480          49.000    22237659.691    91059507.517        1772.322          38.000                  
R14  20609080.930   109858000.576       -2845.309          53.000    20609079.781    20609085.887    85445143.259       -2217.124          47.000  
> 2010 01 02 00 00 06.0000000  0 10                     
G15  20606735.914   108289104.004        -408.828          49.000    20606739.090    84381157.347        -318.567          43.000    20606739.199  
G09  22499594.508   118236146.963        3621.348          47.000    22499598.098    92132104.925        2821.829          33.000                  
G17  24421976.305   128338633.513        3364.871          43.000    24421980.184   100003927.561        2621.978          25.000    24421980.191  
G22  24668062.922   129631508.117        2734.879          45.000    24668063.527   101011594.351        2131.074          27.000                  
G08  23212850.875   121984228.657       -3307.793          39.000    23212854.441    95052774.161       -2577.501          22.000                  
G28  21507108.148   113020509.739       -1010.344          51.000    21507110.695    88068051.451        -787.281          41.000                  
R15  19302036.641   103144166.490         980.824          52.000    19302036.551    19302040.789    80223320.656         764.279          49.000  
G18  22856389.828   120111100.531        1173.094          46.000    22856392.488    93593109.336         914.099          31.000                  
G27  22237222.609   116857539.530        2274.227          49.000    22237226.926    91057735.355        1772.125          38.000                  
R14  20609614.750   109860846.130       -2845.625          53.000    20609613.836    20609620.117    85447356.469       -2217.370          48.000  
> 2010 01 02 00 00 07.0000000  0 10                     
G15  20606813.570   108289513.151        -409.375          49.000    20606816.480    84381476.157        -318.993          43.000    20606816.555  
G09  22498905.375   118232525.705        3621.230          47.000    22498908.848    92129283.166        2821.738          33.000                  
G17  24421335.445   128335268.613        3364.922          43.000    24421339.703   100001305.561        2622.017          26.000    24421339.895  
G22  24667542.320   129628773.411        2734.539          46.000    24667543.027   101009463.411        2130.810          26.000                  
G08  23213480.383   121987536.569       -3307.930          39.000    23213484.234    95055351.744       -2577.608          22.000                  
G28  21507300.484   113021520.325       -1010.707          51.000    21507303.148    88068838.917        -787.564          41.000                  
R15  19301854.125   103143185.930         980.250          51.000    19301853.211    19301857.059    80222557.994         763.831          49.000  
G18  22856166.914   120109927.649        1172.676          47.000    22856169.676    93592195.398         913.773          31.000                  
G27  22236789.656   116855265.400        2274.051          49.000    22236794.281    91055963.300        1771.988          38.000                  
R14  20610148.625   109863691.963       -2846.004          53.000    20610148.770    20610154.617    85449569.897       -2217.665          47.000  
> 2010 01 02 00 00 08.0000000  0 10                     
G15  20606891.516   108289923.063        -410.156          49.000    20606894.703    84381795.570        -319.602          43.000    20606894.750  
G09  22498216.406   118228904.877        3620.797          47.000    22498220.016    92126461.745        2821.400          33.000                  
G17  24420694.953   128331904.046        3364.762          43.000    24420699.402    99998683.825        2621.892          25.000    24420699.465  
G22  24667021.875   129626039.222        2734.117          46.000    24667022.926   101007332.878        2130.481          26.000                  
G08  23214109.773   121990844.820       -3308.219          39.000    23214113.625    95057929.597       -2577.833          22.000                  
G28  21507492.945   113022531.594       -1011.332          51.000    21507495.676    88069626.918        -788.051          41.000                  
R15  19301670.555   103142206.120         979.629          51.000    19301669.758    19301673.879    80221795.921         763.347          49.000  
G18  22855943.344   120108755.538        1171.949          47.000    22855946.730    93591282.063         913.207          31.000                  
G27  22236356.992   116852991.696        2273.715          49.000    22236361.543    91054191.585        1771.726          38.000                  
R14  20610682.438   109866538.341       -2846.445          53.000    20610682.230    20610688.156    85451783.740       -2218.009          47.000  
> 2010 01 02 00 00 09.0000000  0 10                     
G15  20606969.898   108290333.559        -410.734          49.000    20606972.926    84382115.443        -320.053          43.000    20606972.945  
G09  22497527.469   118225284.269        3620.641          47.000    22497530.980    92123640.490        2821.278          32.000                  
G17  24420054.742   128328539.680        3364.422          43.000    24420059.043    99996062.246        2621.627          25.000    24420059.047  
G22  24666501.602   129623305.422        2733.715          45.000    24666502.578   101005202.648        2130.167          26.000                  
G08  23214739.297   121994153.295       -3308.422          40.000    23214743.301    95060507.627       -2577.991          22.000                  
G28  21507685.805   113023543.409       -1011.965          51.000    21507688.008    88070415.342        -788.544          41.000                  
R15  19301486.906   103141226.934         978.969          51.000    19301486.344    19301490.320    80221034.329         762.833          49.000  
G18  22855720.609   120107584.019        1171.434          47.000    22855723.543    93590369.189         912.805          31.000                  
G27  22235924.219   116850718.263        2273.426          48.000    22235929.047    91052420.078        1771.501          38.000                  
R14  20611215.984   109869385.102       -2846.855          53.000    20611216.129    20611222.246    85453997.888       -2218.329          47.000  
> 2010 01 02 00 00 10.0000000  0 10                     
G15  20607047.914   108290744.618        -411.375          49.000    20607051.074    84382435.745        -320.552          43.000    20607051.008  
G09  22496838.383   118221663.876        3620.313          47.000    22496842.078    92120819.405        2821.023          33.000                  
G17  24419414.516   128325175.397        3364.227          43.000    24419419.051    99993440.729        2621.475          25.000    24419419.152  
G22  24665981.336   129620571.960        2733.313          45.000    24665982.469   101003072.681        2129.854          27.000                  
G08  23215369.250   121997461.891       -3308.738          40.000    23215372.695    95063085.766       -2578.238          22.000                  
G28  21507878.523   113024555.693       -1012.531          51.000    21507880.863    88071204.135        -788.985          41.000                  
R15  19301304.133   103140248.293         978.340          51.000    19301303.453    19301307.570    80220273.170         762.343          49.000  
G18  22855498.023   120106413.075        1170.648          47.000    22855500.828    93589456.766         912.194          30.000                  
G27  22235491.953   116848445.031        2273.113          48.000    22235496.352    91050648.730        1771.257          38.000                  
R14  20611750.648   109872232.195       -2847.277          53.000    20611750.324    20611756.340    85456212.293       -2218.658          47.000  
> 2010 01 02 00 00 11.0000000  0 10                     
G15  20607126.297   108291156.291        -411.930          50.000    20607129.734    84382756.532        -320.984          43.000    20607129.605  
G09  22496149.773   118218043.743        3620.043          47.000    22496153.547    92117998.523        2820.813          33.000                  
G17  24418774.672   128321811.301        3364.016          43.000    24418778.785    99990819.357        2621.311          26.000    24418778.699  
G22  24665461.117   129617838.877        2732.945          46.000    24665462.414   101000943.009        2129.568          27.000                  
G08  23215998.930   122000770.695       -3308.852          41.000    23216002.520    95065664.053       -2578.326          22.000                  
G28  21508070.953   113025568.522       -1013.012          51.000    21508073.652    88071993.354        -789.360          41.000                  
R15  19301121.125   103139270.262         977.758          51.000    19301119.859    19301123.988    80219512.479         761.889          49.000  
G18  22855274.852   120105242.744        1170.059          47.000    22855278.137    93588544.818         911.734          31.000                  
G27  22235059.320   116846172.097        2272.777          48.000    22235063.926    91048877.612        1770.995          38.000                  
R14  20612285.047   109875079.692       -2847.707          53.000    20612284.250    20612290.254    85458427.011       -2218.992          47.000  
> 2010 01 02 00 00 12.0000000  0 10                     
G15  20607204.539   108291568.580        -412.547          50.000    20607207.836    84383077.795        -321.465          43.000    20607207.969  
G09  22495460.797   118214423.886        3619.723          47.000    22495464.543    92115177.855        2820.563          32.000                  
G17  24418134.594   128318447.377        3363.895          43.000    24418138.570    99988198.120        2621.217          26.000    24418138.699  
G22  24664941.180   129615106.201        2732.504          46.000    24664942.324   100998813.642        2129.224          27.000                  
G08  23216628.250   122004079.727       -3309.176          41.000    23216632.094    95068242.516       -2578.579          22.000                  
G28  21508263.844   113026581.900       -1013.621          51.000    21508266.477    88072783.003        -789.835          41.000                  
R15  19300938.133   103138292.869         977.117          51.000    19300936.867    19300941.066    80218752.282         761.390          49.000  
G18  22855052.898   120104073.037        1169.379          46.000    22855055.637    93587633.356         911.204          31.000                  
G27  22234626.578   116843899.418        2272.531          48.000    22234631.277    91047106.693        1770.804          38.000                  
R14  20612819.813   109877927.596       -2848.090          53.000    20612818.430    20612824.406    85460642.047       -2219.291          47.000  
> 2010 01 02 00 00 13.0000000  0 10                     
G15  20607283.500   108291981.434        -413.051          50.000    20607286.430    84383399.504        -321.858          43.000    20607286.578  
G09  22494772.219   118210804.241        3619.543          47.000    22494775.707    92112357.356        2820.423          33.000                  
G17  24417493.914   128315083.594        3363.801          43.000    24417498.512    99985576.987        2621.144          26.000    24417498.660  
G22  24664421.422   129612373.852        2732.184          46.000    24664422.633   100996684.536        2128.974          26.000                  
G08  23217258.023   122007388.930       -3309.285          41.000    23217262.199    95070821.120       -2578.664          22.000                  
G28  21508456.703   113027595.775       -1014.004          51.000    21508459.359    88073573.033        -790.133          41.000                  
R15  19300754.805   103137316.065         976.531          51.000    19300754.598    19300758.945    80217992.544         760.933          49.000  
G18  22854830.180   120102903.846        1168.973          46.000    22854833.016    93586722.297         910.888          31.000                  
G27  22234194.320   116841626.982        2272.320          48.000    22234198.816    91045335.963        1770.639          38.000                  
R14  20613352.984   109880775.857       -2848.484          53.000    20613352.539    20613358.648    85462857.360       -2219.598          47.000  
> 2010 01 02 00 00 14.0000000  0 10                     
G15  20607361.875   108292395.004        -413.840          49.000    20607365.227    84383721.765        -322.473          43.000    20607365.340  
G09  22494083.297   118207184.921        3619.230          47.000    22494086.887    92109537.105        2820.180          33.000                  
G17  24416854.289   128311720.070        3363.414          44.000    24416858.547    99982956.054        2620.842          26.000    24416858.523  
G22  24663901.680   129609641.981        2731.605          46.000    24663902.461   100994555.808        2128.524          26.000                  
G08  23217887.477   122010698.407       -3309.492          41.000    23217891.582    95073399.943       -2578.825          22.000                  
G28  21508649.984   113028610.278       -1014.715          51.000    21508652.773    88074363.554        -790.687          41.000                  
R15  19300572.766   103136339.967         975.738          51.000    19300572.086    19300576.145    80217233.359         760.316          49.000  
G18  22854607.750   120101735.393        1168.133          47.000    22854610.859    93585811.818         910.233          30.000                  
G27  22233761.758   116839354.896        2271.922          48.000    22233766.449    91043565.508        1770.329          39.000                  
R14  20613888.359   109883624.596       -2848.945          53.000    20613887.328    20613893.527    85465073.039       -2219.957          47.000  
> 2010 01 02 00 00 15.0000000  0 10                     
G15  20607440.922   108292809.058        -414.328          50.000    20607443.996    84384044.404        -322.853          43.000    20607444.121  
G09  22493394.602   118203565.770        3619.051          47.000    22493397.781    92106716.984        2820.040          33.000                  
G17  24416213.938   128308356.593        3363.430          44.000    24416218.223    99980335.165        2620.854          26.000    24416218.086  
G22  24663382.070   129606910.381        2731.418          46.000    24663382.488   100992427.292        2128.378          27.000                  
G08  23218518.203   122014007.988       -3309.672          42.000    23218521.648    95075978.830       -2578.965          22.000                  
G28  21508843.258   113029625.213       -1015.168          51.000    21508845.945    88075154.416        -791.040          41.000                  
R15  19300389.695   103135364.335         975.340          51.000    19300389.016    19300393.191    80216474.538         760.005          49.000  
G18  22854385.852   120100567.437        1167.703          47.000    22854387.797    93584901.723         909.899          31.000                  
G27  22233329.906   116837082.976        2271.902          48.000    22233334.402    91041795.186        1770.313          39.000                  
R14  20614422.711   109886473.595       -2849.160          54.000    20614421.914    20614428.121    85467288.930       -2220.125          47.000  
> 2010 01 02 00 00 16.0000000  0 10                     
G15  20607519.820   108293223.848        -415.020          50.000    20607522.617    84384367.613        -323.392          43.000    20607522.645  
G09  22492706.070   118199947.003        3618.676          47.000    22492709.414    92103897.167        2819.747          33.000                  
G17  24415574.203   128304993.427        3363.156          45.000    24415578.711    99977714.525        2620.641          26.000    24415578.504  
G22  24662862.578   129604179.307        2730.898          46.000    24662862.414   100990299.165        2127.973          27.000                  
G08  23219147.492   122017317.874       -3309.875          42.000    23219151.246    95078557.964       -2579.123          22.000                  
G28  21509036.484   113030640.809       -1015.801          52.000    21509038.859    88075945.789        -791.533          41.000                  
R15  19300207.797   103134389.449         974.645          50.000    19300206.766    19300210.750    80215716.288         759.463          49.000  
G18  22854163.484   120099400.200        1166.953          46.000    22854166.441    93583992.185         909.314          31.000                  
G27  22232897.773   116834811.456        2271.473          48.000    22232901.949    91040025.170        1769.979          38.000                  
R14  20614957.070   109889323.130       -2849.691          54.000    20614956.391    20614962.668    85469505.236       -2220.539          47.000  
> 2010 01 02 00 00 17.0000000  0 10                     
G15  20607598.930   108293639.244        -415.742          50.000    20607601.719    84384691.300        -323.955          43.000    20607601.695  
G09  22492017.461   118196328.457        3618.363          47.000    22492020.926    92101077.520        2819.504          33.000                  
G17  24414934.711   128301630.415        3362.848          44.000    24414938.734    99975093.995        2620.401          26.000    24414938.570  
G22  24662342.719   129601448.587        2730.465          46.000    24662342.898   100988171.325        2127.635          28.000                  
G08  23219777.055   122020627.983       -3310.336          41.000    23219780.793    95081137.283       -2579.483          22.000                  
G28  21509229.656   113031656.936       -1016.473          52.000    21509232.195    88076737.579        -792.057          41.000                  
R15  19300025.320   103133415.152         973.934          51.000    19300024.996    19300029.000    80214958.506         758.909          49.000  
G18  22853941.609   120098233.574        1166.262          46.000    22853944.332    93583083.125         908.775          32.000                  
G27  22232465.297   116832540.184        2271.070          48.000    22232469.570    91038255.345        1769.665          39.000                  
R14  20615491.359   109892173.024       -2850.191          53.000    20615491.152    20615497.043    85471721.828       -2220.928          47.000  
> 2010 01 02 00 00 18.0000000  0 10                     
G15  20607677.813   108294055.144        -416.160          50.000    20607681.340    84385015.374        -324.281          43.000    20607681.430  
G09  22491328.898   118192710.110        3618.289          47.000    22491332.719    92098258.033        2819.446          33.000                  
G17  24414294.578   128298267.486        3362.883          44.000    24414298.684    99972473.532        2620.428          27.000    24414298.820  
G22  24661823.523   129598718.178        2730.258          46.000    24661823.059   100986043.736        2127.474          27.000                  
G08  23220406.867   122023938.226       -3310.273          41.000    23220411.355    95083716.685       -2579.434          22.000                  
G28  21509423.094   113032673.502       -1016.828          52.000    21509425.992    88077529.707        -792.334          41.000                  
R15  19299842.664   103132441.404         973.461          51.000    19299842.219    19299846.395    80214201.149         758.541          49.000  
G18  22853719.594   120097067.463        1165.922          47.000    22853722.922    93582174.467         908.511          31.000                  
G27  22232033.250   116830269.118        2271.023          49.000    22232037.637    91036485.683        1769.629          38.000                  
R14  20616025.680   109895023.236       -2850.371          53.000    20616025.473    20616031.336    85473938.655       -2221.068          47.000  
> 2010 01 02 00 00 19.0000000  0 10                     
G15  20607757.203   108294471.730        -416.813          50.000    20607760.406    84385339.989        -324.789          43.000    20607760.430  
G09  22490640.680   118189092.054        3618.043          47.000    22490644.031    92095438.769        2819.254          33.000                  
G17  24413654.492   128294904.787        3362.773          44.000    24413658.648    99969853.234        2620.343          26.000    24413658.766  
G22  24661303.930   129595988.203        2729.902          46.000    24661304.191   100983916.482        2127.197          26.000                  
G08  23221036.859   122027248.719       -3310.586          41.000    23221040.820    95086296.290       -2579.677          22.000                  
G28  21509616.617   113033690.661       -1017.293          52.000    21509619.469    88078322.298        -792.696          41.000                  
R15  19299661.008   103131468.327         972.824          51.000    19299659.508    19299664.152    80213444.311         758.045          49.000  
G18  22853497.914   120095902.037        1165.254          47.000    22853500.934    93581266.347         907.990          31.000                  
G27  22231600.922   116827998.366        2270.668          48.000    22231605.359    91034716.266        1769.352          38.000                  
R14  20616560.320   109897873.889       -2850.793          53.000    20616560.465    20616566.488    85476155.831       -2221.397          47.000  
> 2010 01 02 00 00 20.0000000  0 10                     
G15  20607836.469   108294888.958        -417.359          50.000    20607839.652    84385665.102        -325.215          43.000    20607839.613  
G09  22489951.805   118185474.319        3617.746          47.000    22489955.715    92092619.749        2819.023          33.000                  
G17  24413014.086   128291542.325        3362.535          45.000    24413018.793    99967233.130        2620.157          26.000    24413018.953  
G22  24660784.188   129593258.666        2729.469          45.000    24660784.570   100981789.574        2126.859          27.000                  
G08  23221666.578   122030559.457       -3310.711          40.000    23221671.094    95088876.100       -2579.775          22.000                  
G28  21509810.195   113034708.414       -1017.902          52.000    21509812.648    88079115.352        -793.171          41.000                  
R15  19299479.398   103130495.926         972.227          51.000    19299478.602    19299482.754    80212688.001         757.579          49.000  
G18  22853275.969   120094737.270        1164.613          47.000    22853279.086    93580358.735         907.491          31.000                  
G27  22231169.000   116825727.927        2270.418          49.000    22231173.375    91032947.091        1769.157          38.000                  
R14  20617095.664   109900724.977       -2851.133          53.000    20617095.691    20617101.723    85478373.342       -2221.662          47.000  
> 2010 01 02 00 00 21.0000000  0 10                     
G15  20607916.078   108295306.768        -418.105          50.000    20607918.789    84385990.667        -325.796          43.000    20607918.887  
G09  22489263.336   118181856.809        3617.340          47.000    22489267.145    92089800.913        2818.706          33.000                  
G17  24412374.555   128288179.979        3362.227          44.000    24412379.309    99964613.113        2619.917          26.000    24412379.492  
G22  24660264.727   129590529.462        2728.988          45.000    24660265.449   100979662.923        2126.484          27.000                  
G08  23222296.891   122033870.368       -3311.074          41.000    23222301.133    95091456.021       -2580.058          22.000                  
G28  21510004.047   113035726.672       -1018.512          52.000    21510006.879    88079908.804        -793.646          41.000                  
R15  19299296.688   103129524.084         971.520          51.000    19299296.715    19299300.582    80211932.124         757.028          49.000  
G18  22853054.750   120093573.057        1163.941          47.000    22853057.516    93579451.553         906.967          30.000                  
G27  22230736.914   116823457.736        2270.043          49.000    22230741.426    91031178.116        1768.865          38.000                  
R14  20617630.477   109903576.423       -2851.703          53.000    20617630.621    20617636.613    85480591.133       -2222.106          47.000  
> 2010 01 02 00 00 22.0000000  0 10                     
G15  20607995.750   108295725.190        -418.676          50.000    20607998.906    84386316.710        -326.241          43.000    20607999.043  
G09  22488575.578   118178239.560        3617.102          47.000    22488578.488    92086982.278        2818.521          33.000                  
G17  24411734.531   128284817.811        3362.066          43.000    24411739.512    99961993.239        2619.792          27.000    24411739.570  
G22  24659745.328   129587800.663        2728.520          45.000    24659746.047   100977536.584        2126.119          26.000                  
G08  23222926.836   122037181.506       -3311.242          41.000    23222931.254    95094036.113       -2580.189          23.000                  
G28  21510198.094   113036745.477       -1019.109          52.000    21510200.516    88080702.677        -794.111          41.000                  
R15  19299114.805   103128552.883         970.859          51.000    19299114.598    19299118.594    80211176.744         756.514          49.000  
G18  22852833.328   120092409.509        1163.152          46.000    22852836.078    93578544.894         906.352          31.000                  
G27  22230304.953   116821187.838        2269.719          49.000    22230309.527    91029409.362        1768.612          38.000                  
R14  20618165.797   109906428.274       -2852.148          53.000    20618165.473    20618171.793    85482809.233       -2222.453          47.000  
> 2010 01 02 00 00 23.0000000  0 10                     
G15  20608075.195   108296144.242        -419.297          50.000    20608078.605    84386643.248        -326.725          43.000    20608078.871  
G09  22487887.281   118174622.575        3616.875          47.000    22487890.492    92084163.847        2818.344          33.000                  
G17  24411095.336   128281455.830        3361.910          43.000    24411099.406    99959373.508        2619.670          26.000    24411099.676  
G22  24659225.805   129585072.238        2728.258          45.000    24659226.840   100975410.530        2125.915          26.000                  
G08  23223557.063   122040492.830       -3311.395          41.000    23223561.625    95096616.367       -2580.307          22.000                  
G28  21510391.641   113037764.835       -1019.637          52.000    21510394.586    88081496.982        -794.522          41.000                  
R15  19298933.391   103127582.262         970.375          51.000    19298932.711    19298936.645    80210421.816         756.136          49.000  
G18  22852612.070   120091246.557        1162.598          46.000    22852614.426    93577638.697         905.920          31.000                  
G27  22229873.438   116818918.202        2269.523          49.000    22229877.727    91027640.815        1768.460          39.000                  
R14  20618700.734   109909280.500       -2852.375          53.000    20618700.055    20618706.590    85485027.632       -2222.630          47.000  
> 2010 01 02 00 00 24.0000000  0 10                     
G15  20608155.172   108296563.917        -420.004          49.000    20608158.281    84386970.261        -327.276          43.000    20608158.289  
G09  22487198.758   118171005.885        3616.508          47.000    22487202.129    92081345.653        2818.058          34.000                  
G17  24410455.406   128278094.043        3361.625          43.000    24410459.816    99956753.928        2619.448          26.000    24410459.770  
G22  24658706.930   129582344.248        2727.727          45.000    24658708.090   100973284.825        2125.501          26.000                  
G08  23224186.406   122043804.413       -3311.828          40.000    23224191.723    95099196.833       -2580.645          22.000                  
G28  21510585.961   113038784.750       -1020.270          51.000    21510588.715    88082291.721        -795.015          41.000                  
R15  19298752.367   103126612.269         969.621          51.000    19298751.453    19298755.656    80209667.379         755.549          49.000  
G18  22852391.102   120090084.232        1161.980          46.000    22852393.891    93576732.986         905.439          31.000                  
G27  22229441.273   116816648.884        2269.094          49.000    22229445.840    91025872.519        1768.125          39.000                  
R14  20619235.641   109912133.157       -2852.883          53.000    20619235.316    20619241.797    85487246.366       -2223.026          47.000  
> 2010 01 02 00 00 25.0000000  0 10                     
G15  20608235.281   108296984.138        -420.469          50.000    20608238.379    84387297.703        -327.638          43.000    20608238.488  
G09  22486510.875   118167389.384        3616.402          47.000    22486514.191    92078527.598        2817.976          34.000                  
G17  24409815.453   128274732.362        3361.688          44.000    24409820.027    99954134.455        2619.497          25.000    24409819.906  
G22  24658187.844   129579616.582        2727.477          44.000    24658188.688   100971159.385        2125.306          26.000                  
G08  23224816.906   122047116.140       -3311.816          40.000    23224821.750    95101777.414       -2580.636          22.000                  
G28  21510780.281   113039805.122       -1020.453          51.000    21510782.582    88083086.820        -795.158          41.000                  
R15  19298571.148   103125642.810         969.270          51.000    19298570.000    19298574.055    80208913.354         755.275          49.000  
G18  22852169.586   120088922.482        1161.582          46.000    22852172.375    93575827.728         905.129          31.000                  
G27  22229009.398   116814379.743        2269.168          49.000    22229013.863    91024104.353        1768.183          39.000                  
R14  20619770.625   109914986.136       -2853.125          53.000    20619770.301    20619776.598    85489465.349       -2223.214          47.000  
> 2010 01 02 00 00 26.0000000  0 10                     
G15  20608315.430   108297405.066        -421.258          50.000    20608318.430    84387625.698        -328.253          43.000    20608318.262  
G09  22485822.664   118163773.241        3616.012          47.000    22485825.832    92075709.828        2817.671          34.000                  
G17  24409176.297   128271370.938        3361.348          44.000    24409180.520    99951515.169        2619.232          25.000    24409180.234  
G22  24657669.156   129576889.374        2726.988          44.000    24657669.844   100969034.300        2124.926          26.000                  
G08  23225446.648   122050428.147       -3312.125          40.000    23225451.992    95104358.206       -2580.877          22.000                  
G28  21510974.406   113040826.155       -1021.270          51.000    21510977.090    88083882.427        -795.794          41.000                  
R15  19298389.125   103124674.063         968.383          51.000    19298388.445    19298392.434    80208159.885         754.584          49.000  
G18  22851948.469   120087761.441        1160.699          46.000    22851951.613    93574923.017         904.441          31.000                  
G27  22228577.742   116812110.998        2268.605          48.000    22228582.117    91022336.503        1767.745          38.000                  
R14  20620306.422   109917839.592       -2853.590          53.000    20620305.977    20620312.348    85491684.702       -2223.576          47.000  
> 2010 01 02 00 00 27.0000000  0 10                     
G15  20608395.789   108297826.573        -421.871          50.000    20608398.625    84387954.145        -328.731          43.000    20608398.809  
G09  22485134.273   118160157.307        3615.688          47.000    22485137.879    92072892.215        2817.419          34.000                  
G17  24408536.844   128268009.689        3361.063          44.000    24408540.988    99948896.025        2619.010          26.000    24408540.621  
G22  24657150.359   129574162.542        2726.621          44.000    24657151.215   100966909.498        2124.640          27.000                  
G08  23226077.289   122053740.334       -3312.320          40.000    23226082.188    95106939.118       -2581.029          22.000                  
G28  21511168.852   113041847.693       -1021.902          51.000    21511171.816    88084678.435        -796.288          41.000                  
R15  19298207.938   103123705.891         967.863          52.000    19298207.613    19298211.750    80207406.860         754.179          49.000  
G18  22851727.656   120086600.961        1160.074          46.000    22851730.586    93574018.747         903.954          31.000                  
G27  22228145.914   116809842.478        2268.301          48.000    22228150.918    91020568.822        1767.507          39.000                  
R14  20620841.711   109920693.418       -2854.070          53.000    20620841.148    20620847.281    85493904.348       -2223.951          47.000  
> 2010 01 02 00 00 28.0000000  0 10                     
G15  20608475.961   108298248.609        -422.352          50.000    20608478.969    84388283.004        -329.105          43.000    20608479.129  
G09  22484446.734   118156541.563        3615.676          47.000    22484449.789    92070074.753        2817.410          33.000                  
G17  24407896.836   128264648.509        3361.086          44.000    24407901.215    99946276.922        2619.028          26.000    24407900.707  
G22  24656631.516   129571436.005        2726.340          44.000    24656632.129   100964784.915        2124.421          25.000                  
G08  23226707.773   122057052.639       -3312.387          41.000    23226712.785    95109520.131       -2581.081          22.000                  
G28  21511363.469   113042869.687       -1022.305          51.000    21511366.117    88085474.794        -796.601          41.000                  
R15  19298027.453   103122738.259         967.332          51.000    19298026.305    19298030.379    80206654.257         753.765          49.000  
G18  22851507.094   120085441.011        1159.660          47.000    22851509.867    93573114.894         903.631          31.000                  
G27  22227714.219   116807574.157        2268.152          48.000    22227719.137    91018801.301        1767.391          38.000                  
R14  20621376.898   109923547.533       -2854.297          53.000    20621376.453    20621382.246    85496124.211       -2224.127          47.000  
> 2010 01 02 00 00 29.0000000  0 10                     
G15  20608556.555   108298671.383        -423.023          50.000    20608559.477    84388612.438        -329.629          43.000    20608559.625  
G09  22483758.234   118152926.220        3615.297          47.000    22483761.703    92067257.604        2817.115          34.000                  
G17  24407257.680   128261287.653        3360.828          45.000    24407261.723    99943658.077        2618.827          25.000    24407261.305  
G22  24656112.766   129568709.978        2726.027          44.000    24656113.684   100962660.740        2124.177          26.000                  
G08  23227338.477   122060365.286       -3312.676          40.000    23227342.660    95112101.395       -2581.306          22.000                  
G28  21511558.117   113043892.356       -1022.883          51.000    21511560.754    88086271.677        -797.052          41.000                  
R15  19297846.336   103121771.358         966.672          51.000    19297845.070    19297849.273    80205902.222         753.251          49.000  
G18  22851286.148   120084281.817        1159.035          46.000    22851289.316    93572211.627         903.144          31.000                  
G27  22227282.672   116805306.248        2267.836          48.000    22227287.289    91017034.101        1767.145          38.000                  
R14  20621912.414   109926402.200       -2854.770          52.000    20621912.324    20621918.160    85498344.509       -2224.496          47.000  
> 2010 01 02 00 00 30.0000000  0 10                     
G15  20608636.930   108299094.774        -423.695          49.000    20608639.789    84388942.350        -330.152          43.000    20608639.953  
G09  22483070.398   118149311.125        3614.910          47.000    22483073.730    92064440.647        2816.813          34.000                  
G17  24406618.008   128257926.968        3360.590          45.000    24406622.434    99941039.360        2618.641          26.000    24406621.809  
G22  24655593.922   129565984.344        2725.484          45.000    24655594.621   100960536.869        2123.754          26.000                  
G08  23227968.742   122063678.160       -3313.063          40.000    23227973.750    95114682.867       -2581.607          22.000                  
G28  21511752.633   113044915.542       -1023.406          52.000    21511755.129    88087068.963        -797.459          41.000                  
R15  19297665.547   103120805.056         965.973          51.000    19297664.867    19297669.125    80205150.659         752.706          49.000  
G18  22851066.055   120083123.229        1158.285          46.000    22851068.582    93571308.834         902.560          31.000                  
G27  22226851.414   116803038.578        2267.500          49.000    22226855.855    91015267.086        1766.883          38.000                  
R14  20622448.148   109929257.241       -2855.207          53.000    20622448.293    20622454.250    85500565.091       -2224.837          47.000  
> 2010 01 02 00 00 31.0000000  0 10                     
G15  20608717.641   108299518.699        -424.207          50.000    20608720.660    84389272.681        -330.551          43.000    20608720.813  
G09  22482382.594   118145696.218        3614.840          48.000    22482386.105    92061623.833        2816.758          34.000                  
G17  24405978.438   128254566.378        3360.574          45.000    24405982.500    99938420.706        2618.629          26.000    24405981.992  
G22  24655075.242   129563259.035        2725.207          45.000    24655075.902   100958413.252        2123.538          26.000                  
G08  23228599.727   122066991.149       -3313.031          40.000    23228603.949    95117264.418       -2581.583          22.000                  
G28  21511947.109   113045939.214       -1023.910          51.000    21511950.227    88087866.630        -797.852          41.000                  
R15  19297484.500   103119839.284         965.480          51.000    19297483.703    19297488.012    80204399.501         752.322          49.000  
G18  22850845.289   120081965.173        1157.781          46.000    22850848.703    93570406.447         902.167          31.000                  
G27  22226419.852   116800771.146        2267.277          49.000    22226424.563    91013500.258        1766.710          38.000                  
R14  20622984.258   109932112.596       -2855.535          53.000    20622983.578    20622989.754    85502785.927       -2225.092          47.000  
> 2010 01 02 00 00 32.0000000  0 10                     
G15  20608798.742   108299943.286        -424.906          50.000    20608801.379    84389603.528        -331.096          43.000    20608801.367  
G09  22481694.625   118142081.616        3614.527          48.000    22481698.184    92058807.262        2816.515          33.000                  
G17  24405338.813   128251206.025        3360.297          45.000    24405343.137    99935802.235        2618.413          27.000    24405343.215  
G22  24654556.367   129560534.150        2724.734          45.000    24654557.629   100956289.968        2123.170          24.000                  
G08  23229229.359   122070304.392       -3313.332          39.000    23229234.387    95119846.176       -2581.817          22.000                  
G28  21512142.203   113046963.452       -1024.469          52.000    21512145.434    88088664.739        -798.287          41.000                  
R15  19297303.945   103118874.174         964.723          51.000    19297302.680    19297307.207    80203648.861         751.732          49.000  
G18  22850625.586   120080807.788        1157.090          46.000    22850628.160    93569504.585         901.628          32.000                  
G27  22225988.461   116798504.013        2267.016          49.000    22225992.723    91011733.659        1766.506          38.000                  
R14  20623519.531   109934968.377       -2855.957          53.000    20623519.086    20623525.844    85505007.088       -2225.421          47.000  
> 2010 01 02 00 00 41.0000000  0 10                     
G15  20609530.469   108303792.117        -430.367          49.000    20609534.063    84392602.616        -335.351          43.000    20609534.094  
G09  22475506.188   118109562.055        3612.180          48.000    22475509.711    92033467.344        2814.686          34.000                  
G17  24399585.172   128220970.627        3358.766          43.000    24399590.027    99912242.182        2617.220          25.000    24399589.461  
G22  24649893.195   129536027.744        2721.262          45.000    24649893.605   100937194.053        2120.464          23.000                  
G08  23234907.672   122100132.951       -3315.086          40.000    23234910.965    95143089.169       -2583.184          22.000                  
G28  21513900.961   113056206.143       -1029.332          51.000    21513903.965    88095866.833        -802.077          41.000                  
R15  19295683.688   103110216.085         959.309          51.000    19295682.891    19295687.426    80196914.792         747.513          49.000  
G18  22848648.438   120070418.958        1151.563          46.000    22848651.375    93561409.400         897.321          30.000                  
G27  22222107.977   116778112.283        2264.531          49.000    22222112.328    90995844.003        1764.570          39.000                  
R14  20628344.750   109960688.238       -2859.480          52.000    20628344.305    20628350.758    85525011.416       -2228.167          47.000  
> 2010 01 02 00 00 44.0000000  0 10                     
G15  20609776.984   108305086.087        -432.379          50.000    20609780.250    84393610.905        -336.919          43.000    20609780.508  
G09  22473444.555   118098726.964        3611.109          47.000    22473448.336    92025024.425        2813.852          34.000                  
G17  24397668.148   128210895.356        3358.012          43.000    24397672.641    99904391.324        2616.633          26.000    24397671.965  
G22  24648340.117   129527865.948        2719.840          44.000    24648340.289   100930834.210        2119.356          24.000                  
G08  23236799.023   122110079.508       -3316.020          41.000    23236803.008    95150839.726       -2583.911          22.000                  
G28  21514489.383   113059296.788       -1031.098          51.000    21514492.109    88098275.128        -803.453          41.000                  
R15  19295145.828   103107341.080         957.332          52.000    19295145.383    19295149.395    80194678.679         745.973          49.000  
G18  22847991.297   120066967.098        1149.645          46.000    22847994.602    93558719.637         895.827          31.000                  
G27  22220815.641   116771320.030        2263.441          48.000    22220819.785    90990551.345        1763.721          38.000                  
R14  20629954.297   109969268.643       -2860.840          52.000    20629953.617    20629960.547    85531685.070       -2229.226          47.000  
> 2010 01 02 00 00 45.0000000  0 10                     
G15  20609859.453   108305518.616        -432.809          50.000    20609862.254    84393947.939        -337.253          43.000    20609862.473  
G09  22472757.906   118095115.747        3611.066          48.000    22472760.809    92022210.489        2813.818          34.000                  
G17  24397028.984   128207537.275        3357.996          44.000    24397033.844    99901774.643        2616.620          27.000    24397033.336  
G22  24647822.625   129525146.119        2719.691          44.000    24647822.621   100928714.863        2119.240          25.000                  
G08  23237430.375   122113395.431       -3316.047          41.000    23237434.664    95153423.555       -2583.933          23.000                  
G28  21514686.031   113060328.059       -1031.539          51.000    21514688.473    88099078.710        -803.797          41.000                  
R15  19294967.094   103106383.906         956.836          51.000    19294965.945    19294970.059    80193934.210         745.586          49.000  
G18  22847772.977   120065817.696        1149.055          47.000    22847775.762    93557823.995         895.367          31.000                  
G27  22220384.859   116769056.445        2263.426          48.000    22220388.906    90988787.507        1763.708          39.000                  
R14  20630490.688   109972129.541       -2861.117          52.000    20630490.242    20630496.926    85533910.212       -2229.442          47.000  
> 2010 01 02 00 00 46.0000000  0 10                     
G15  20609942.000   108305951.799        -433.578          50.000    20609944.848    84394285.485        -337.853          43.000    20609945.016  
G09  22472070.414   118091504.854        3610.637          48.000    22472073.488    92019396.808        2813.483          34.000                  
G17  24396389.703   128204179.422        3357.684          44.000    24396394.754    99899158.127        2616.377          26.000    24396394.176  
G22  24647305.000   129522426.719        2719.148          44.000    24647305.031   100926595.848        2118.817          25.000                  
G08  23238061.289   122116711.601       -3316.273          41.000    23238065.258    95156007.594       -2584.109          22.000                  
G28  21514881.914   113061359.932       -1032.211          51.000    21514884.824    88099882.771        -804.320          41.000                  
R15  19294787.109   103105427.372         956.129          52.000    19294786.664    19294791.031    80193190.239         745.036          49.000  
G18  22847554.203   120064668.941        1148.434          47.000    22847557.422    93556928.864         894.883          31.000                  
G27  22219954.172   116766793.207        2263.059          49.000    22219958.336    90987023.948        1763.422          38.000                  
R14  20631027.461   109974990.870       -2861.582          52.000    20631026.898    20631033.402    85536135.692       -2229.804          47.000  
> 2010 01 02 00 00 47.0000000  0 10                     
G15  20610024.109   108306385.407        -433.754          50.000    20610027.277    84394623.361        -337.990          43.000    20610027.543  
G09  22471383.477   118087894.058        3610.816          48.000    22471386.699    92016583.201        2813.623          34.000                  
G17  24395751.039   128200821.568        3357.824          44.000    24395755.633    99896541.616        2616.486          27.000    24395754.898  
G22  24646787.578   129519707.538        2719.203          44.000    24646787.984   100924477.015        2118.860          24.000                  
G08  23238692.102   122120027.810       -3316.098          41.000    23238696.633    95158591.661       -2583.972          22.000                  
G28  21515078.383   113062392.149       -1032.246          51.000    21515081.344    88100687.099        -804.348          41.000                  
R15  19294608.883   103104471.270         955.922          52.000    19294607.852    19294612.215    80192446.601         744.874          49.000  
G18  22847335.609   120063520.629        1148.176          47.000    22847338.543    93556034.076         894.682          31.000                  
G27  22219523.586   116764530.051        2263.227          49.000    22219527.988    90985260.452        1763.553          38.000                  
R14  20631564.609   109977852.399       -2861.512          52.000    20631564.047    20631570.523    85538361.317       -2229.750          47.000  
> 2010 01 02 00 00 48.0000000  0 10                     
G15  20610107.352   108306819.816        -434.730          49.000    20610110.051    84394961.861        -338.751          43.000    20610110.223  
G09  22470696.625   118084283.680        3610.184          48.000    22470699.516    92013769.919        2813.130          34.000                  
G17  24395111.977   128197464.041        3357.355          44.000    24395117.121    99893925.358        2616.121          26.000    24395116.570  
G22  24646269.953   129516988.922        2718.355          45.000    24646270.625   100922358.618        2118.199          24.000                  
G08  23239323.547   122123344.410       -3316.809          41.000    23239327.984    95161176.028       -2584.526          22.000                  
G28  21515274.898   113063425.097       -1033.211          51.000    21515277.566    88101491.995        -805.099          41.000                  
R15  19294429.844   103103515.941         954.988          51.000    19294429.637    19294433.809    80191703.570         744.147          49.000  
G18  22847117.344   120062373.093        1147.215          47.000    22847120.141    93555139.889         893.934          31.000                  
G27  22219092.844   116762267.370        2262.520          49.000    22219096.980    90983497.322        1763.002          38.000                  
R14  20632101.180   109980714.501       -2862.281          52.000    20632100.855    20632107.406    85540587.389       -2230.349          47.000  
> 2010 01 02 00 00 49.0000000  0 10                     
G15  20610190.234   108307254.910        -435.625          49.000    20610193.152    84395300.892        -339.448          43.000    20610193.320  
G09  22470009.664   118080673.656        3609.594          48.000    22470012.691    92010956.907        2812.670          35.000                  
G17  24394473.016   128194106.775        3356.875          45.000    24394477.914    99891309.305        2615.747          26.000    24394477.473  
G22  24645752.453   129514270.752        2717.715          44.000    24645753.348   100920240.559        2117.700          26.000                  
G08  23239955.195   122126661.288       -3317.387          41.000    23239959.027    95163760.613       -2584.977          22.000                  
G28  21515471.828   113064458.658       -1034.035          51.000    21515474.609    88102297.365        -805.742          41.000                  
R15  19294251.141   103102561.344         953.996          51.000    19294250.578    19294254.777    80190961.101         743.374          49.000  
G18  22846898.859   120061226.272        1146.309          47.000    22846902.078    93554246.264         893.227          31.000                  
G27  22218662.195   116760005.015        2261.910          49.000    22218666.492    90981734.452        1762.527          39.000                  
R14  20632638.688   109983577.081       -2863.063          52.000    20632637.656    20632644.367    85542813.842       -2230.958          47.000  
> 2010 01 02 00 00 50.0000000  0 10                     
G15  20610272.648   108307690.435        -435.848          49.000    20610275.836    84395640.266        -339.622          43.000    20610275.945  
G09  22469322.633   118077063.711        3609.891          47.000    22469325.820    92008143.964        2812.902          34.000                  
G17  24393834.805   128190749.537        3357.070          44.000    24393838.711    99888693.270        2615.899          25.000    24393838.688  
G22  24645235.766   129511552.829        2717.746          45.000    24645236.133   100918122.705        2117.724          26.000                  
G08  23240586.141   122129978.194       -3317.004          41.000    23240590.551    95166345.218       -2584.678          22.000                  
G28  21515668.516   113065492.582       -1034.160          52.000    21515671.379    88103103.023        -805.839          41.000                  
R15  19294073.055   103101607.198         953.844          52.000    19294071.906    19294076.547    80190218.990         743.255          49.000  
G18  22846681.086   120060079.878        1146.086          47.000    22846683.711    93553352.961         893.054          31.000                  
G27  22218231.727   116757742.777        2262.141          49.000    22218236.215    90979971.670        1762.707          39.000                  
R14  20633175.477   109986439.839       -2862.891          52.000    20633174.563    20633181.371    85545040.428       -2230.824          47.000  
> 2010 01 02 00 00 51.0000000  0 10                     
G15  20610355.461   108308126.656        -436.492          50.000    20610358.941    84395980.176        -340.124          43.000    20610359.492  
G09  22468635.570   118073454.110        3609.512          47.000    22468638.586    92005331.287        2812.606          34.000                  
G17  24393195.484   128187392.530        3356.895          44.000    24393199.898    99886077.421        2615.762          26.000    24393199.594  
G22  24644718.703   129508835.353        2717.313          44.000    24644719.012   100916005.188        2117.386          26.000                  
G08  23241217.227   122133295.364       -3317.227          41.000    23241221.301    95168930.026       -2584.852          22.000                  
G28  21515865.180   113066527.113       -1034.762          51.000    21515867.785    88103909.146        -806.308          41.000                  
R15  19293894.516   103100653.780         953.098          52.000    19293893.133    19293897.629    80189477.448         742.674          49.000  
G18  22846463.250   120058934.185        1145.398          47.000    22846465.750    93552460.211         892.518          32.000                  
G27  22217801.320   116755480.885        2261.781          49.000    22217805.801    90978209.157        1762.427          38.000                  
R14  20633712.914   109989303.081       -2863.398          53.000    20633711.531    20633718.160    85547267.394       -2231.219          47.000  
> 2010 01 02 00 00 52.0000000  0 10                     
G15  20610438.625   108308563.520        -437.234          50.000    20610441.988    84396320.593        -340.702          43.000    20610442.270  
G09  22467949.008   118069844.796        3609.102          47.000    22467951.844    92002518.839        2812.287          34.000                  
G17  24392556.703   128184035.711        3356.633          44.000    24392561.117    99883461.713        2615.558          27.000    24392560.813  
G22  24644201.766   129506118.297        2716.785          44.000    24644202.277   100913888.003        2116.975          26.000                  
G08  23241848.477   122136612.780       -3317.531          41.000    23241852.820    95171515.030       -2585.089          22.000                  
G28  21516062.484   113067562.228       -1035.461          51.000    21516065.383    88104715.730        -806.853          41.000                  
R15  19293715.836   103099701.002         952.355          52.000    19293715.039    19293719.656    80188736.395         742.095          49.000  
G18  22846245.289   120057789.130        1144.621          47.000    22846248.211    93551567.963         891.913          30.000                  
G27  22217370.633   116753219.303        2261.383          49.000    22217375.285    90976446.885        1762.116          38.000                  
R14  20634249.453   109992166.727       -2863.914          53.000    20634248.773    20634255.574    85549494.681       -2231.621          47.000  
> 2010 01 02 00 00 53.0000000  0 10                     
G15  20610522.047   108309000.949        -437.723          50.000    20610525.383    84396661.441        -341.083          43.000    20610525.555  
G09  22467261.727   118066235.714        3608.945          48.000    22467265.305    91999706.568        2812.165          34.000                  
G17  24391918.109   128180679.049        3356.535          44.000    24391922.598    99880846.132        2615.482          27.000    24391922.418  
G22  24643684.734   129503401.594        2716.500          44.000    24643685.098   100911771.091        2116.753          24.000                  
G08  23242479.570   122139930.369       -3317.566          41.000    23242483.969    95174100.153       -2585.117          22.000                  
G28  21516259.234   113068597.826       -1035.828          51.000    21516262.098    88105522.687        -807.139          41.000                  
R15  19293537.813   103098748.828         951.906          51.000    19293537.488    19293541.848    80187995.819         741.745          49.000  
G18  22846027.023   120056644.660        1144.109          47.000    22846030.441    93550676.175         891.514          30.000                  
G27  22216940.711   116750957.942        2261.199          49.000    22216944.930    90974684.787        1761.973          38.000                  
R14  20634787.133   109995030.758       -2864.281          53.000    20634786.336    20634793.094    85551722.264       -2231.907          47.000  
> 2010 01 02 00 00 54.0000000  0 10                     
G15  20610605.539   108309439.007        -438.445          50.000    20610608.633    84397002.785        -341.646          43.000    20610608.906  
G09  22466575.352   118062626.891        3608.625          47.000    22466578.121    91996894.503        2811.916          34.000                  
G17  24391279.313   128177322.590        3356.258          44.000    24391283.301    99878230.709        2615.266          26.000    24391283.188  
G22  24643167.813   129500685.281        2716.078          45.000    24643168.227   100909654.489        2116.425          26.000                  
G08  23243111.414   122143248.188       -3317.957          41.000    23243115.211    95176685.462       -2585.421          22.000                  
G28  21516456.195   113069633.978       -1036.434          51.000    21516458.957    88106330.084        -807.611          41.000                  
R15  19293359.922   103097797.250         951.238          51.000    19293358.773    19293363.254    80187255.705         741.225          49.000  
G18  22845809.813   120055500.775        1143.543          47.000    22845812.516    93549784.829         891.072          30.000                  
G27  22216510.094   116748696.870        2260.891          49.000    22216514.418    90972922.912        1761.733          39.000                  
R14  20635324.617   109997895.166       -2864.711          53.000    20635324.172    20635330.680    85553950.135       -2232.242          47.000  
> 2010 01 02 00 00 55.0000000  0 10                     
G15  20610688.977   108309877.600        -438.723          50.000    20610692.023    84397344.545        -341.862          43.000    20610692.254  
G09  22465888.047   118059018.279        3608.586          47.000    22465891.715    91994082.595        2811.885          34.000                  
G17  24390640.820   128173966.227        3356.371          44.000    24390644.980    99875615.359        2615.354          27.000    24390644.836  
G22  24642650.625   129497969.296        2715.910          45.000    24642651.457   100907538.137        2116.294          25.000                  
G08  23243742.633   122146566.149       -3318.027          41.000    23243747.055    95179270.888       -2585.476          22.000                  
G28  21516653.563   113070670.606       -1036.746          51.000    21516656.844    88107137.842        -807.854          41.000                  
R15  19293182.031   103096846.219         950.758          52.000    19293181.234    19293185.629    80186516.013         740.850          49.000  
G18  22845592.297   120054357.482        1143.125          47.000    22845594.980    93548893.954         890.747          31.000                  
G27  22216080.352   116746436.016        2260.820          48.000    22216084.684    90971161.207        1761.678          39.000                  
R14  20635861.227   110000759.907       -2864.848          53.000    20635861.254    20635868.016    85556178.258       -2232.349          47.000  
> 2010 01 02 00 00 56.0000000  0 10                     
G15  20610772.953   108310316.941        -439.680          49.000    20610775.566    84397686.891        -342.608          43.000    20610775.770  
G09  22465201.906   118055410.058        3607.918          47.000    22465205.000    91991270.994        2811.365          34.000                  
G17  24390002.000   128170610.183        3355.836          45.000    24390006.461    99873000.257        2614.937          28.000    24390006.156  
G22  24642133.953   129495253.823        2715.172          45.000    24642134.836   100905422.191        2115.718          25.000                  
G08  23244373.656   122149884.415       -3318.457          41.000    23244377.859    95181856.560       -2585.811          22.000                  
G28  21516851.039   113071707.899       -1037.617          51.000    21516853.809    88107946.123        -808.533          41.000                  
R15  19293004.102   103095895.897         949.922          51.000    19293002.719    19293007.094    80185776.871         740.199          49.000  
G18  22845374.578   120053214.939        1142.094          47.000    22845377.539    93548003.652         889.943          30.000                  
G27  22215650.008   116744175.562        2260.191          48.000    22215654.398    90969399.812        1761.188          39.000                  
R14  20636399.016   110003625.183       -2865.566          53.000    20636398.336    20636404.832    85558406.804       -2232.909          47.000  
> 2010 01 02 00 00 58.0000000  0 10                     
G15  20610940.047   108311197.264        -440.621          50.000    20610942.836    84398372.853        -343.341          43.000    20610942.977  
G09  22463828.820   118048194.207        3607.758          48.000    22463832.098    91985648.252        2811.240          34.000                  
G17  24388724.992   128163898.437        3355.801          44.000    24388729.406    99867770.330        2614.910          27.000    24388729.332  
G22  24641100.313   129489823.893        2714.590          45.000    24641101.219   100901191.088        2115.265          25.000                  
G08  23245636.563   122156521.403       -3318.516          41.000    23245641.438    95187028.241       -2585.856          22.000                  
G28  21517246.313   113073783.941       -1038.457          52.000    21517249.207    88109563.822        -809.187          41.000                  
R15  19292648.852   103093996.900         948.996          51.000    19292647.938    19292652.211    80184299.872         739.477          49.000  
G18  22844940.164   120050931.472        1141.316          46.000    22844942.738    93546224.332         889.337          30.000                  
G27  22214789.625   116739655.310        2259.953          48.000    22214794.270    90965877.547        1761.002          38.000                  
R14  20637475.148   110009356.694       -2865.977          53.000    20637474.352    20637480.813    85562864.651       -2233.229          47.000  
> 2010 01 02 00 00 59.0000000  0 10                     
G15  20611024.156   108311638.507        -441.473          50.000    20611027.043    84398716.677        -344.005          43.000    20611026.984  
G09  22463142.203   118044586.824        3607.332          48.000    22463145.820    91982837.304        2810.908          34.000                  
G17  24388086.211   128160542.989        3355.426          44.000    24388090.945    99865155.703        2614.617          27.000    24388090.688  
G22  24640583.563   129487109.649        2714.086          44.000    24640584.781   100899076.092        2114.872          25.000                  
G08  23246267.820   122159840.331       -3319.059          41.000    23246273.277    95189614.413       -2586.280          22.000                  
G28  21517443.750   113074822.900       -1039.168          52.000    21517446.461    88110373.398        -809.741          41.000                  
R15  19292471.102   103093048.456         948.219          51.000    19292470.539    19292474.773    80183562.196         738.872          49.000  
G18  22844723.016   120049790.833        1140.355          45.000    22844725.813    93545335.523         888.589          30.000                  
G27  22214359.953   116737395.729        2259.480          48.000    22214364.008    90964116.833        1760.634          39.000                  
R14  20638012.438   110012223.187       -2866.633          53.000    20638011.523    20638018.133    85565094.148       -2233.740          47.000  
> 2010 01 02 00 01 00.0000000  0 10                     
G15  20611108.352   108312080.292        -442.113          50.000    20611111.281    84399060.923        -344.504          43.000    20611111.559  
G09  22462455.750   118040979.635        3606.992          47.000    22462459.324    91980026.508        2810.643          34.000                  
G17  24387447.195   128157187.644        3355.137          44.000    24387452.609    99862541.148        2614.392          26.000    24387452.293  
G22  24640067.688   129484395.765        2713.441          45.000    24640068.113   100896961.369        2114.370          25.000                  
G08  23246899.398   122163159.443       -3319.281          40.000    23246904.598    95192200.726       -2586.453          22.000                  
G28  21517641.617   113075862.338       -1039.746          52.000    21517644.332    88111183.354        -810.192          41.000                  
R15  19292293.711   103092100.580         947.516          52.000    19292292.914    19292297.195    80182824.964         738.324          49.000  
G18  22844506.188   120048650.719        1139.805          46.000    22844509.102    93544447.124         888.159          31.000                  
G27  22213929.930   116735136.367        2259.195          49.000    22213933.957    90962356.287        1760.412          39.000                  
R14  20638550.203   110015089.991       -2867.105          53.000    20638549.879    20638556.633    85567323.887       -2234.108          47.000  
> 2010 01 02 00 01 01.0000000  0 10                     
G15  20611192.211   108312522.682        -442.844          50.000    20611195.492    84399405.646        -345.073          43.000    20611195.695  
G09  22461769.563   118037372.714        3606.664          48.000    22461772.781    91977215.922        2810.388          34.000                  
G17  24386809.320   128153832.459        3354.965          44.000    24386813.742    99859926.726        2614.258          26.000    24386813.504  
G22  24639551.063   129481682.213        2713.246          44.000    24639551.820   100894846.901        2114.218          24.000                  
G08  23247530.969   122166478.750       -3319.605          41.000    23247536.422    95194787.204       -2586.706          22.000                  
G28  21517839.523   113076902.324       -1040.371          52.000    21517842.441    88111993.731        -810.679          41.000                  
R15  19292116.445   103091153.317         946.766          52.000    19292115.648    19292119.984    80182088.205         737.739          49.000  
G18  22844289.195   120047511.227        1139.078          45.000    22844291.984    93543559.205         887.593          31.000                  
G27  22213499.836   116732877.276        2258.832          49.000    22213504.105    90960595.956        1760.129          38.000                  
R14  20639087.430   110017957.190       -2867.570          52.000    20639088.043    20639094.563    85569553.932       -2234.470          47.000  
> 2010 01 02 00 01 02.0000000  0 10                     
G15  20611276.414   108312965.649        -443.195          50.000    20611279.441    84399750.816        -345.347          43.000    20611279.617  
G09  22461082.961   118033766.022        3606.652          48.000    22461086.559    91974405.514        2810.378          34.000                  
G17  24386170.695   128150477.426        3355.047          44.000    24386175.238    99857312.407        2614.322          25.000    24386175.133  
G22  24639035.227   129478969.047        2713.078          44.000    24639035.496   100892732.762        2114.087          24.000                  
G08  23248162.555   122169798.184       -3319.473          40.000    23248168.004    95197373.786       -2586.602          22.000                  
G28  21518037.461   113077942.788       -1040.664          52.000    21518040.266    88112804.479        -810.907          41.000                  
R15  19291939.305   103090206.626         946.375          52.000    19291938.508    19291942.617    80181351.887         737.435          49.000  
G18  22844072.352   120046372.345        1138.586          45.000    22844075.109    93542671.766         887.210          31.000                  
G27  22213070.172   116730618.437        2258.777          49.000    22213074.637    90958835.821        1760.086          38.000                  
R14  20639626.023   110020824.735       -2867.711          52.000    20639625.344    20639632.129    85571784.244       -2234.580          47.000  
> 2010 01 02 00 01 03.0000000  0 10                     
G15  20611361.086   108313409.298        -443.934          50.000    20611364.230    84400096.512        -345.922          43.000    20611364.297  
G09  22460396.430   118030159.679        3606.145          48.000    22460400.406    91971595.371        2809.983          34.000                  
G17  24385531.992   128147122.664        3354.684          44.000    24385536.750    99854698.301        2614.039          26.000    24385536.430  
G22  24638518.477   129476256.352        2712.523          44.000    24638518.973   100890618.981        2113.655          24.000                  
G08  23248793.859   122173117.940       -3319.984          40.000    23248799.641    95199960.607       -2587.001          22.000                  
G28  21518235.578   113078983.904       -1041.434          52.000    21518238.551    88113615.745        -811.507          41.000                  
R15  19291762.008   103089260.641         945.625          52.000    19291760.742    19291765.164    80180616.121         736.851          49.000  
G18  22843856.023   120045234.135        1137.832          46.000    22843858.719    93541784.850         886.622          31.000                  
G27  22212640.508   116728359.943        2258.324          49.000    22212644.680    90957075.958        1759.733          38.000                  
R14  20640163.656   110023692.740       -2868.203          52.000    20640163.332    20640169.957    85574014.913       -2234.963          47.000  
> 2010 01 02 00 01 04.0000000  0 10                     
G15  20611445.461   108313853.465        -444.277          50.000    20611448.730    84400442.616        -346.190          43.000    20611448.926  
G09  22459710.664   118026553.492        3606.184          48.000    22459714.383    91968785.354        2810.013          34.000                  
G17  24384893.992   128143767.986        3354.727          42.000    24384898.672    99852084.273        2614.073          26.000    24384898.711  
G22  24638003.070   129473543.969        2712.344          44.000    24638003.000   100888505.440        2113.515          23.000                  
G08  23249425.234   122176437.785       -3319.852          39.000    23249430.984    95202547.497       -2586.897          21.000                  
G28  21518433.922   113080025.450       -1041.613          51.000    21518436.840    88114427.339        -811.647          41.000                  
R15  19291585.273   103088315.150         945.328          52.000    19291584.828    19291589.094    80179880.738         736.619          49.000  
G18  22843639.438   120044096.435        1137.551          46.000    22843642.313    93540898.326         886.403          31.000                  
G27  22212210.680   116726101.633        2258.313          48.000    22212215.195    90955316.235        1759.724          38.000                  
R14  20640701.539   110026561.052       -2868.348          52.000    20640701.684    20640708.586    85576245.823       -2235.076          47.000  
> 2010 01 02 00 01 05.0000000  0 10                     
G15  20611530.094   108314298.306        -445.125          49.000    20611533.184    84400789.241        -346.851          43.000    20611533.410  
G09  22459024.742   118022947.599        3605.777          48.000    22459027.508    91965975.574        2809.697          34.000                  
G17  24384255.141   128140413.506        3354.418          42.000    24384260.148    99849470.393        2613.832          26.000    24384260.070  
G22  24637486.813   129470831.987        2711.773          44.000    24637486.828   100886392.195        2113.070          25.000                  
G08  23250057.461   122179757.885       -3320.137          39.000    23250062.957    95205134.596       -2587.120          22.000                  
G28  21518632.133   113081067.576       -1042.359          51.000    21518634.762    88115239.388        -812.228          41.000                  
R15  19291408.688   103087370.304         944.555          52.000    19291408.008    19291412.359    80179145.860         736.017          49.000  
G18  22843422.906   120042959.415        1136.758          46.000    22843425.496    93540012.337         885.785          31.000                  
G27  22211780.789   116723843.634        2257.809          48.000    22211785.473    90953556.760        1759.331          39.000                  
R14  20641240.008   110029429.773       -2868.883          52.000    20641239.801    20641246.656    85578477.047       -2235.493          47.000  
> 2010 01 02 00 01 06.0000000  0 10                     
G15  20611614.633   108314743.710        -445.641          48.000    20611617.852    84401136.314        -347.252          43.000    20611618.023  
G09  22458338.398   118019341.973        3605.625          48.000    22458341.703    91963165.994        2809.578          34.000                  
G17  24383617.219   128137059.198        3354.355          43.000    24383621.887    99846856.645        2613.783          27.000    24383621.785  
G22  24636970.547   129468120.392        2711.535          44.000    24636970.691   100884279.265        2112.885          24.000                  
G08  23250689.406   122183078.179       -3320.270          38.000    23250694.695    95207721.828       -2587.223          21.000                  
G28  21518830.578   113082110.223       -1042.871          51.000    21518833.652    88116051.836        -812.627          41.000                  
R15  19291231.633   103086426.057         944.086          51.000    19291231.070    19291235.645    80178411.445         735.651          49.000  
G18  22843206.547   120041822.994        1136.215          46.000    22843209.590    93539126.811         885.362          31.000                  
G27  22211351.727   116721585.901        2257.676          48.000    22211355.965    90951797.487        1759.228          38.000                  
R14  20641778.281   110032298.890       -2869.242          52.000    20641777.367    20641784.555    85580708.584       -2235.773          47.000  
> 2010 01 02 00 01 07.0000000  0 10                     
G15  20611699.891   108315189.800        -446.309          49.000    20611702.984    84401483.910        -347.773          43.000    20611703.074  
G09  22457652.453   118015736.659        3605.199          48.000    22457655.469    91960356.658        2809.246          34.000                  
G17  24382979.617   128133705.133        3353.965          44.000    24382983.500    99844243.095        2613.479          27.000    24382983.023  
G22  24636454.766   129465409.258        2711.035          44.000    24636454.996   100882166.687        2112.495          24.000                  
G08  23251322.031   122186398.726       -3320.516          38.000    23251326.594    95210309.250       -2587.415          21.000                  
G28  21519028.789   113083153.445       -1043.375          51.000    21519031.914    88116864.735        -813.019          41.000                  
R15  19291054.695   103085482.491         943.230          51.000    19291053.664    19291058.090    80177677.563         734.985          49.000  
G18  22842990.992   120040687.225        1135.547          47.000    22842993.066    93538241.795         884.842          31.000                  
G27  22210921.648   116719328.491        2257.262          49.000    22210926.008    90950038.467        1758.905          38.000                  
R14  20642316.828   110035168.441       -2869.703          52.000    20642315.680    20642323.059    85582940.452       -2236.132          47.000  
> 2010 01 02 00 01 09.0000000  0 10                     
G15  20611870.031   108316083.759        -447.652          49.000    20611873.332    84402180.502        -348.820          43.000    20611873.512  
G09  22456280.125   118008526.766        3604.633          49.000    22456283.449    91954738.561        2808.805          34.000                  
G17  24381703.477   128126997.499        3353.613          45.000    24381707.066    99839016.374        2613.205          28.000    24381706.156  
G22  24635422.789   129459988.091        2710.207          44.000    24635423.375   100877942.386        2111.850          24.000                  
G08  23252586.031   122193040.425       -3320.988          37.000    23252590.465    95215484.582       -2587.783          21.000                  
G28  21519426.461   113085241.500       -1044.547          51.000    21519429.262    88118491.784        -813.933          41.000                  
R15  19290702.461   103083597.066         942.074          51.000    19290701.313    19290705.992    80176211.120         734.084          49.000  
G18  22842558.578   120038417.513        1134.184          47.000    22842561.594    93536473.187         883.779          31.000                  
G27  22210062.891   116714814.463        2256.711          49.000    22210066.809    90946521.043        1758.476          38.000                  
R14  20643393.328   110040908.703       -2870.578          53.000    20643392.414    20643399.859    85587405.101       -2236.814          47.000  
> 2010 01 02 00 01 10.0000000  0 10                     
G15  20611955.344   108316531.631        -448.285          50.000    20611958.445    84402529.492        -349.313          43.000    20611958.582  
G09  22455594.516   118004922.198        3604.301          48.000    22455597.547    91951929.799        2808.546          34.000                  
G17  24381064.883   128123643.933        3353.363          45.000    24381069.035    99836403.205        2613.010          26.000    24381068.273  
G22  24634907.359   129457278.082        2709.605          44.000    24634907.973   100875830.683        2111.381          23.000                  
G08  23253218.172   122196361.524       -3321.230          38.000    23253222.367    95218072.458       -2587.972          20.000                  
G28  21519625.109   113086286.317       -1045.211          51.000    21519627.898    88119305.933        -814.450          41.000                  
R15  19290526.266   103082655.246         941.406          51.000    19290525.469    19290529.668    80175478.587         733.563          49.000  
G18  22842343.273   120037283.560        1133.539          47.000    22842345.602    93535589.587         883.277          31.000                  
G27  22209633.477   116712557.837        2256.367          49.000    22209637.848    90944762.633        1758.208          38.000                  
R14  20643931.922   110043779.387       -2870.961          52.000    20643931.242    20643938.832    85589637.855       -2237.112          47.000  
> 2010 01 02 00 01 11.0000000  0 10                     
G15  20612040.391   108316980.059        -448.770          50.000    20612043.621    84402878.919        -349.691          43.000    20612043.738  
G09  22454908.789   118001317.820        3604.246          48.000    22454911.848    91949121.199        2808.503          34.000                  
G17  24380426.602   128120290.491        3353.297          45.000    24380430.762    99833790.116        2612.958          27.000    24380430.328  
G22  24634391.836   129454568.384        2709.461          44.000    24634391.461   100873719.237        2111.268          25.000                  
G08  23253850.492   122199682.787       -3321.258          38.000    23253854.180    95220660.474       -2587.993          20.000                  
G28  21519824.102   113087331.604       -1045.586          51.000    21519827.223    88120120.440        -814.742          41.000                  
R15  19290349.867   103081713.984         940.859          51.000    19290349.070    19290353.676    80174746.495         733.137          49.000  
G18  22842127.414   120036150.170        1133.047          47.000    22842129.863    93534706.419         882.894          31.000                  
G27  22209204.180   116710301.433        2256.266          50.000    22209208.461    90943004.394        1758.129          38.000                  
R14  20644469.914   110046650.396       -2871.180          52.000    20644469.590    20644477.180    85591870.858       -2237.283          47.000  
> 2010 01 02 00 01 12.0000000  0 10                     
G15  20612125.719   108317429.154        -449.531          50.000    20612128.797    84403228.865        -350.284          43.000    20612129.145  
G09  22454222.555   117997713.784        3603.754          48.000    22454226.152    91946312.861        2808.120          34.000                  
G17  24379788.609   128116937.264        3353.102          44.000    24379792.539    99831177.204        2612.806          28.000    24379792.090  
G22  24633876.539   129451859.115        2709.000          44.000    24633876.469   100871608.113        2110.909          25.000                  
G08  23254482.180   122203004.324       -3321.832          38.000    23254486.172    95223248.684       -2588.440          20.000                  
G28  21520023.258   113088377.496       -1046.273          51.000    21520026.539    88120935.421        -815.278          41.000                  
R15  19290173.906   103080773.413         940.148          51.000    19290173.227    19290177.480    80174014.946         732.583          49.000  
G18  22841911.742   120035017.429        1132.324          47.000    22841914.445    93533823.769         882.331          31.000                  
G27  22208774.500   116708045.353        2255.863          50.000    22208778.848    90941246.412        1757.816          38.000                  
R14  20645009.203   110049521.848       -2871.762          52.000    20645008.055    20645015.578    85594104.210       -2237.736          47.000  
> 2010 01 02 00 01 13.0000000  0 10                     
G15  20612211.391   108317878.902        -450.055          50.000    20612214.617    84403579.313        -350.692          43.000    20612214.941  
G09  22453536.883   117994110.056        3603.570          48.000    22453540.270    91943504.759        2807.977          34.000                  
G17  24379149.930   128113584.293        3352.840          44.000    24379154.613    99828564.502        2612.603          27.000    24379154.223  
G22  24633360.836   129449150.342        2708.535          44.000    24633361.406   100869497.391        2110.547          26.000                  
G08  23255114.273   122206326.136       -3321.992          39.000    23255118.203    95225837.109       -2588.565          20.000                  
G28  21520222.344   113089423.959       -1046.605          51.000    21520225.668    88121750.850        -815.537          41.000                  
R15  19289998.117   103079833.535         939.555          51.000    19289997.203    19290001.699    80173283.930         732.121          49.000  
G18  22841696.195   120033885.353        1131.777          47.000    22841699.230    93532941.633         881.904          31.000                  
G27  22208345.133   116705789.607        2255.578          49.000    22208349.859    90939488.691        1757.593          38.000                  
R14  20645547.539   110052393.761       -2872.148          52.000    20645547.566    20645554.879    85596337.923       -2238.038          47.000  
> 2010 01 02 00 01 14.0000000  0 10                     
G15  20612296.977   108318329.199        -450.770          50.000    20612300.148    84403930.193        -351.249          43.000    20612300.445  
G09  22452851.164   117990506.503        3603.207          49.000    22452854.871    91940696.798        2807.694          34.000                  
G17  24378512.055   128110231.417        3352.578          43.000    24378516.711    99825951.874        2612.398          27.000    24378516.340  
G22  24632845.352   129446441.869        2708.125          43.000    24632845.457   100867386.898        2110.227          25.000                  
G08  23255747.227   122209648.022       -3322.219          39.000    23255750.238    95228425.597       -2588.742          21.000                  
G28  21520421.406   113090470.913       -1047.434          52.000    21520424.367    88122566.654        -816.182          41.000                  
R15  19289822.273   103078894.213         938.840          51.000    19289820.891    19289825.289    80172553.345         731.564          49.000  
G18  22841480.984   120032753.849        1130.988          47.000    22841483.609    93532059.943         881.290          30.000                  
G27  22207916.234   116703534.060        2255.266          49.000    22207920.586    90937731.122        1757.350          38.000                  
R14  20646087.078   110055265.955       -2872.563          52.000    20646086.164    20646093.828    85598571.853       -2238.360          47.000  
> 2010 01 02 00 01 15.0000000  0 10                     
G15  20612382.914   108318780.103        -451.203          50.000    20612386.285    84404281.549        -351.587          43.000    20612386.219  
G09  22452165.398   117986903.229        3603.152          48.000    22452168.492    91937889.053        2807.651          34.000                  
G17  24377873.945   128106878.709        3352.594          44.000    24377878.852    99823339.382        2612.411          27.000    24377878.750  
G22  24632330.266   129443733.763        2707.914          43.000    24632330.238   100865276.691        2110.063          25.000                  
G08  23256379.359   122212970.129       -3322.215          40.000    23256382.449    95231014.260       -2588.739          21.000                  
G28  21520620.945   113091518.390       -1047.762          52.000    21520623.867    88123382.873        -816.438          41.000                  
R15  19289647.063   103077955.501         938.422          51.000    19289645.797    19289650.160    80171823.237         731.238          49.000  
G18  22841265.672   120031622.945        1130.613          47.000    22841268.207    93531178.715         880.997          31.000                  
G27  22207486.898   116701278.787        2255.141          49.000    22207491.379    90935973.766        1757.252          38.000                  
R14  20646625.625   110058138.560       -2872.828          52.000    20646625.301    20646632.730    85600806.093       -2238.567          47.000  
> 2010 01 02 00 01 17.0000000  0 10                     
G15  20612554.891   108319683.735        -452.355          49.000    20612558.352    84404985.675        -352.485          43.000    20612558.441  
G09  22450794.242   117979697.438        3602.734          47.000    22450797.469    91932274.154        2807.325          34.000                  
G17  24376598.156   128100173.854        3352.262          43.000    24376603.051    99818114.820        2612.152          27.000    24376603.191  
G22  24631299.070   129438318.745        2707.313          43.000    24631299.719   100861057.208        2109.594          25.000                  
G08  23257643.391   122219615.000       -3322.570          40.000    23257647.133    95236192.079       -2589.016          21.000                  
G28  21521019.461   113093614.979       -1048.734          52.000    21521022.582    88125016.576        -817.196          41.000                  
R15  19289295.633   103076079.898         937.336          52.000    19289294.719    19289299.367    80170364.436         730.392          49.000  
G18  22840835.648   120029362.961        1129.504          47.000    22840838.398    93529417.684         880.133          31.000                  
G27  22206628.797   116696769.053        2254.715          49.000    22206633.191    90932459.683        1756.921          38.000                  
R14  20647703.164   110063884.903       -2873.422          52.000    20647703.426    20647710.637    85605275.467       -2239.030          47.000  
> 2010 01 02 00 01 18.0000000  0 10                     
G15  20612641.070   108320136.577        -453.184          49.000    20612643.906    84405338.538        -353.130          43.000    20612643.871  
G09  22450108.820   117976095.045        3602.160          47.000    22450111.992    91929467.090        2806.878          34.000                  
G17  24375960.773   128096821.786        3352.023          44.000    24375965.070    99815502.819        2611.966          27.000    24375965.180  
G22  24630784.719   129435611.957        2706.602          43.000    24630784.730   100858948.032        2109.040          25.000                  
G08  23258275.289   122222937.829       -3322.988          40.000    23258279.293    95238781.302       -2589.342          20.000                  
G28  21521219.133   113094664.171       -1049.453          52.000    21521221.949    88125834.131        -817.756          41.000                  
R15  19289120.617   103075143.084         936.480          51.000    19289119.820    19289124.105    80169635.802         729.725          49.000  
G18  22840621.016   120028234.004        1128.633          47.000    22840623.770    93528537.974         879.454          30.000                  
G27  22206199.492   116694514.694        2254.176          49.000    22206203.910    90930703.040        1756.501          38.000                  
R14  20648243.438   110066758.755       -2873.988          52.000    20648242.406    20648250.090    85607510.686       -2239.471          47.000  
> 2010 01 02 00 01 19.0000000  0 10                     
G15  20612727.359   108320589.958        -453.734          49.000    20612730.633    84405691.828        -353.559          43.000    20612730.980  
G09  22449423.148   117972492.867        3602.008          47.000    22449426.703    91926660.197        2806.759          34.000                  
G17  24375323.016   128093469.844        3351.758          44.000    24375327.336    99812890.910        2611.759          27.000    24375327.730  
G22  24630269.367   129432905.471        2706.242          43.000    24630269.742   100856839.076        2108.760          24.000                  
G08  23258907.617   122226260.823       -3323.254          40.000    23258911.488    95241370.640       -2589.549          20.000                  
G28  21521419.391   113095713.857       -1049.984          52.000    21521422.164    88126652.068        -818.170          41.000                  
R15  19288945.227   103074206.836         935.820          51.000    19288943.961    19288948.398    80168907.610         729.211          49.000  
G18  22840405.789   120027105.595        1128.055          46.000    22840408.902    93527658.698         879.004          31.000                  
G27  22205770.742   116692260.575        2253.914          49.000    22205775.516    90928946.583        1756.297          38.000                  
R14  20648782.188   110069632.981       -2874.480          52.000    20648781.625    20648789.340    85609746.191       -2239.855          47.000  
> 2010 01 02 00 01 20.0000000  0 10                     
G15  20612813.898   108321043.961        -454.445          49.000    20612817.016    84406045.594        -354.113          43.000    20612816.941  
G09  22448738.047   117968890.934        3601.656          48.000    22448741.426    91923853.499        2806.485          34.000                  
G17  24374684.531   128090118.079        3351.520          44.000    24374689.480    99810279.136        2611.574          26.000    24374690.027  
G22  24629754.578   129430199.380        2705.793          44.000    24629754.695   100854730.431        2108.410          23.000                  
G08  23259540.352   122229583.986       -3323.367          41.000    23259544.238    95243960.129       -2589.637          21.000                  
G28  21521618.922   113096764.071       -1050.633          52.000    21521621.863    88127470.414        -818.675          41.000                  
R15  19288769.641   103073271.168         935.262          52.000    19288769.668    19288773.883    80168179.868         728.775          49.000  
G18  22840191.430   120025977.809        1127.281          47.000    22840194.277    93526779.898         878.401          31.000                  
G27  22205342.211   116690006.713        2253.547          49.000    22205346.523    90927190.326        1756.010          38.000                  
R14  20649321.297   110072507.548       -2874.926          52.000    20649320.617    20649328.227    85611981.970       -2240.202          47.000  
> 2010 01 02 00 01 21.0000000  0 10                     
G15  20612900.602   108321498.575        -454.879          50.000    20612903.441    84406399.834        -354.451          43.000    20612903.629  
G09  22448052.375   117965289.306        3601.461          48.000    22448055.805    91921047.034        2806.333          34.000                  
G17  24374047.148   128086766.522        3351.422          44.000    24374051.430    99807667.545        2611.498          27.000    24374052.012  
G22  24629239.828   129427493.710        2705.438          44.000    24629239.563   100852622.115        2108.133          23.000                  
G08  23260172.984   122232907.422       -3323.516          41.000    23260176.781    95246549.814       -2589.752          21.000                  
G28  21521819.203   113097814.839       -1051.055          52.000    21521822.156    88128289.196        -819.004          41.000                  
R15  19288594.945   103072336.177         934.598          52.000    19288594.266    19288598.379    80167452.651         728.258          49.000  
G18  22839976.813   120024850.652        1126.840          47.000    22839980.098    93525901.593         878.057          30.000                  
G27  22204913.305   116687753.143        2253.465          50.000    22204917.563    90925434.300        1755.947          38.000                  
R14  20649860.945   110075382.567       -2875.219          53.000    20649859.445    20649866.953    85614218.091       -2240.430          47.000  
> 2010 01 02 00 01 22.0000000  0 10                     
G15  20612987.102   108321953.791        -455.543          50.000    20612989.820    84406754.551        -354.969          43.000    20612989.785  
G09  22447366.836   117961687.899        3601.254          48.000    22447370.449    91918240.744        2806.172          35.000                  
G17  24373409.234   128083415.098        3351.465          45.000    24373413.355    99805056.042        2611.531          27.000    24373413.484  
G22  24628725.234   129424788.391        2705.141          44.000    24628724.859   100850514.088        2107.902          24.000                  
G08  23260804.648   122236230.969       -3323.570          40.000    23260809.414    95249139.591       -2589.795          21.000                  
G28  21522019.227   113098866.109       -1051.453          52.000    21522022.273    88129108.367        -819.314          41.000                  
R15  19288420.656   103071401.755         934.109          51.000    19288419.508    19288423.738    80166725.880         727.877          49.000  
G18  22839762.992   120023724.079        1126.273          47.000    22839765.480    93525023.747         877.616          30.000                  
G27  22204484.250   116685499.830        2253.219          49.000    22204488.629    90923678.473        1755.755          38.000                  
R14  20650399.945   110078257.906       -2875.527          52.000    20650399.621    20650407.066    85616454.470       -2240.671          47.000  
> 2010 01 02 00 01 23.0000000  0 10                     
G15  20613073.703   108322409.702        -456.242          49.000    20613076.738    84407109.805        -355.513          43.000    20613076.754  
G09  22446682.047   117958086.852        3600.922          48.000    22446685.262    91915434.739        2805.913          34.000                  
G17  24372771.656   128080063.959        3351.043          45.000    24372775.848    99802444.765        2611.202          27.000    24372776.211  
G22  24628210.422   129422083.594        2704.559          44.000    24628210.340   100848406.456        2107.448          25.000                  
G08  23261437.742   122239554.879       -3324.000          41.000    23261441.543    95251729.642       -2590.130          22.000                  
G28  21522219.016   113099918.035       -1052.172          52.000    21522221.945    88129928.052        -819.874          41.000                  
R15  19288245.688   103070468.070         933.371          51.000    19288244.539    19288248.906    80165999.684         727.302          49.000  
G18  22839548.547   120022598.225        1125.594          46.000    22839550.781    93524146.452         877.086          31.000                  
G27  22204055.602   116683246.898        2252.758          49.000    22204060.012    90921922.941        1755.396          38.000                  
R14  20650939.711   110081133.761       -2876.082          52.000    20650938.797    20650946.328    85618691.245       -2241.103          47.000  
> 2010 01 02 00 01 24.0000000  0 10                     
G15  20613160.477   108322866.181        -456.660          49.000    20613163.590    84407465.505        -355.839          43.000    20613163.938  
G09  22445996.477   117954486.032        3600.773          48.000    22446000.156    91912628.902        2805.797          35.000                  
G17  24372134.297   128076712.958        3351.066          45.000    24372138.180    99799833.598        2611.220          27.000    24372138.219  
G22  24627695.617   129419379.112        2704.430          44.000    24627695.555   100846299.059        2107.348          25.000                  
G08  23262070.664   122242878.931       -3324.012          41.000    23262074.426    95254319.812       -2590.139          22.000                  
G28  21522419.641   113100970.440       -1052.500          52.000    21522422.473    88130748.108        -820.130          41.000                  
R15  19288071.227   103069534.929         932.938          51.000    19288069.727    19288074.133    80165273.904         726.964          49.000  
G18  22839334.289   120021472.939        1125.148          47.000    22839337.043    93523269.607         876.739          31.000                  
G27  22203627.086   116680994.165        2252.711          50.000    22203631.508    90920167.565        1755.359          38.000                  
R14  20651478.992   110084009.933       -2876.184          52.000    20651478.668    20651485.441    85620928.266       -2241.182          47.000  
> 2010 01 02 00 01 25.0000000  0 10                     
G15  20613247.570   108323323.277        -457.316          49.000    20613250.887    84407821.684        -356.350          43.000    20613251.039  
G09  22445311.227   117950885.463        3600.488          48.000    22445314.871    91909823.265        2805.575          34.000                  
G17  24371496.148   128073362.133        3350.742          45.000    24371500.574    99797222.561        2610.968          27.000    24371500.738  
G22  24627181.094   129416675.047        2703.914          45.000    24627181.156   100844191.988        2106.946          24.000                  
G08  23262702.984   122246203.171       -3324.371          42.000    23262707.246    95256910.124       -2590.419          22.000                  
G28  21522619.875   113102023.381       -1053.109          52.000    21522622.754    88131568.584        -820.605          41.000                  
R15  19287896.406   103068602.378         932.301          51.000    19287895.375    19287899.801    80164548.591         726.468          49.000  
G18  22839119.961   120020348.284        1124.363          47.000    22839123.301    93522393.250         876.127          31.000                  
G27  22203198.070   116678741.738        2252.309          49.000    22203202.887    90918412.426        1755.046          38.000                  
R14  20652019.281   110086886.521       -2876.730          53.000    20652018.602    20652025.348    85623165.610       -2241.608          47.000  
> 2010 01 02 00 01 26.0000000  0 10                     
G15  20613334.656   108323780.956        -458.012          50.000    20613337.855    84408178.316        -356.892          43.000    20613337.918  
G09  22444626.078   117947285.160        3600.195          48.000    22444630.004    91907017.835        2805.347          35.000                  
G17  24370858.734   128070011.485        3350.605          44.000    24370863.137    99794611.667        2610.861          28.000    24370863.531  
G22  24626666.414   129413971.333        2703.508          45.000    24626666.520   100842085.213        2106.629          25.000                  
G08  23263335.492   122249527.604       -3324.625          41.000    23263339.594    95259500.591       -2590.617          22.000                  
G28  21522820.188   113103076.836       -1053.699          52.000    21522823.375    88132389.454        -821.064          42.000                  
R15  19287722.109   103067670.413         931.672          51.000    19287720.961    19287725.609    80163823.728         725.978          49.000  
G18  22838906.289   120019224.209        1123.691          47.000    22838909.063    93521517.346         875.604          30.000                  
G27  22202769.828   116676489.561        2251.984          49.000    22202774.156    90916657.486        1754.793          38.000                  
R14  20652558.438   110089763.473       -2877.145          53.000    20652558.465    20652565.020    85625403.236       -2241.931          46.000  
> 2010 01 02 00 01 27.0000000  0 10                     
G15  20613421.773   108324239.306        -458.656          49.000    20613425.078    84408535.469        -357.394          43.000    20613425.242  
G09  22443941.008   117943685.149        3599.789          48.000    22443944.672    91904212.633        2805.031          35.000                  
G17  24370221.398   128066661.072        3350.344          44.000    24370225.676    99792000.958        2610.657          26.000    24370225.879  
G22  24626151.750   129411268.054        2703.090          44.000    24626152.078   100839978.752        2106.304          26.000                  
G08  23263968.258   122252852.303       -3324.918          41.000    23263972.602    95262091.262       -2590.845          22.000                  
G28  21523020.672   113104130.905       -1054.344          52.000    21523024.039    88133210.806        -821.567          42.000                  
R15  19287547.805   103066739.095         930.961          51.000    19287546.422    19287550.770    80163099.375         725.424          49.000  
G18  22838692.063   120018100.803        1123.070          47.000    22838695.191    93520641.967         875.120          30.000                  
G27  22202341.359   116674237.714        2251.695          49.000    22202345.367    90914902.798        1754.568          38.000                  
R14  20653098.328   110092640.853       -2877.574          53.000    20653098.355    20653104.945    85627641.203       -2242.266          46.000  
> 2010 01 02 00 01 28.0000000  0 10                     
G15  20613509.289   108324698.249        -459.156          49.000    20613512.660    84408893.088        -357.784          43.000    20613512.602  
G09  22443256.055   117940085.406        3599.758          48.000    22443259.836    91901407.635        2805.006          35.000                  
G17  24369583.188   128063310.821        3350.184          45.000    24369587.898    99789390.368        2610.533          27.000    24369588.074  
G22  24625637.414   129408565.178        2702.762          44.000    24625637.695   100837872.611        2106.048          26.000                  
G08  23264600.422   122256177.170       -3325.016          41.000    23264605.117    95264682.071       -2590.921          22.000                  
G28  21523221.344   113105185.498       -1054.844          51.000    21523224.777    88134032.572        -821.956          42.000                  
R15  19287373.445   103065808.375         930.520          51.000    19287372.648    19287376.938    80162375.476         725.080          49.000  
G18  22838478.438   120016978.004        1122.547          47.000    22838481.625    93519767.060         874.712          30.000                  
G27  22201912.766   116671986.118        2251.504          49.000    22201917.230    90913148.308        1754.419          38.000                  
R14  20653638.523   110095518.600       -2877.895          53.000    20653638.316    20653644.574    85629879.449       -2242.515          46.000  
> 2010 01 02 00 01 29.0000000  0 10                     
G15  20613596.555   108325157.780        -459.723          49.000    20613599.723    84409251.162        -358.225          43.000    20613599.895  
G09  22442571.625   117936485.879        3599.469          48.000    22442574.867    91898602.809        2804.781          35.000                  
G17  24368946.016   128059960.724        3350.008          45.000    24368950.465    99786779.903        2610.396          27.000    24368950.734  
G22  24625123.070   129405862.667        2702.426          45.000    24625123.711   100835766.765        2105.786          25.000                  
G08  23265232.758   122259502.221       -3325.109          41.000    23265238.105    95267273.030       -2590.994          22.000                  
G28  21523422.367   113106240.574       -1055.305          51.000    21523425.531    88134854.706        -822.315          42.000                  
R15  19287199.180   103064878.268         929.848          51.000    19287198.734    19287203.129    80161652.057         724.557          49.000  
G18  22838265.313   120015855.786        1121.996          47.000    22838268.113    93518892.604         874.283          30.000                  
G27  22201484.500   116669734.780        2251.262          49.000    22201488.980    90911394.020        1754.230          38.000                  
R14  20654178.492   110098396.703       -2878.215          53.000    20654177.930    20654184.090    85632117.980       -2242.765          46.000  
> 2010 01 02 00 01 30.0000000  0 10                     
G15  20613683.859   108325617.956        -460.547          49.000    20613687.340    84409609.746        -358.868          43.000    20613687.547  
G09  22441886.555   117932886.681        3598.961          47.000    22441890.180    91895798.238        2804.385          35.000                  
G17  24368308.375   128056610.835        3349.633          45.000    24368312.988    99784169.602        2610.104          27.000    24368313.148  
G22  24624608.984   129403160.576        2701.773          45.000    24624609.418   100833661.244        2105.278          26.000                  
G08  23265865.719   122262827.517       -3325.570          41.000    23265870.824    95269864.168       -2591.354          22.000                  
G28  21523623.203   113107296.251       -1056.078          51.000    21523626.215    88135677.311        -822.918          41.000                  
R15  19287025.484   103063948.803         929.070          52.000    19287024.805    19287029.074    80160929.139         723.951          49.000  
G18  22838052.016   120014734.220        1121.133          47.000    22838054.633    93518018.657         873.610          30.000                  
G27  22201056.078   116667483.745        2250.793          49.000    22201060.301    90909639.966        1753.865          38.000                  
R14  20654717.930   110101275.222       -2878.844          53.000    20654717.723    20654723.742    85634356.827       -2243.255          47.000  
> 2010 01 02 00 01 31.0000000  0 10                     
G15  20613771.844   108326078.581        -460.871          49.000    20613774.914    84409968.675        -359.120          43.000    20613774.953  
G09  22441201.242   117929287.579        3598.938          48.000    22441204.852    91892993.742        2804.367          34.000                  
G17  24367671.258   128053260.959        3349.891          45.000    24367675.484    99781559.313        2610.304          27.000    24367675.656  
G22  24624095.328   129400458.710        2701.621          44.000    24624095.117   100831555.897        2105.159          24.000                  
G08  23266498.117   122266152.851       -3325.422          41.000    23266503.887    95272455.345       -2591.238          22.000                  
G28  21523824.211   113108352.289       -1056.262          51.000    21523827.109    88136500.195        -823.061          41.000                  
R15  19286851.688   103063019.797         928.684          51.000    19286851.480    19286855.867    80160206.580         723.650          49.000  
G18  22837838.336   120013613.120        1120.777          47.000    22837840.844    93517145.074         873.333          30.000                  
G27  22200627.484   116665232.834        2250.773          49.000    22200632.039    90907886.014        1753.849          38.000                  
R14  20655258.563   110104153.964       -2878.910          53.000    20655257.883    20655263.855    85636595.846       -2243.307          47.000  
> 2010 01 02 00 01 33.0000000  0 10                     
G15  20613947.523   108327002.028        -462.324          49.000    20613950.828    84410688.240        -360.253          43.000    20613950.977  
G09  22439831.813   117922090.527        3598.238          48.000    22439835.426    91887385.651        2803.822          35.000                  
G17  24366396.695   128046562.155        3349.258          45.000    24366400.770    99776339.449        2609.811          27.000    24366400.715  
G22  24623067.180   129395056.521        2700.703          45.000    24623066.809   100827346.402        2104.444          24.000                  
G08  23267763.734   122272804.481       -3325.953          42.000    23267769.727    95277638.417       -2591.652          23.000                  
G28  21524226.500   113110466.344       -1057.590          51.000    21524229.801    88138147.511        -824.096          41.000                  
R15  19286504.195   103061164.007         927.258          51.000    19286503.398    19286508.016    80158763.193         722.539          49.000  
G18  22837411.766   120011373.112        1119.336          46.000    22837414.867    93515399.608         872.210          31.000                  
G27  22199771.094   116660732.190        2250.023          49.000    22199775.824    90904379.020        1753.265          38.000                  
R14  20656338.594   110109912.951       -2879.914          53.000    20656337.914    20656344.383    85641075.064       -2244.089          47.000  
> 2010 01 02 00 01 34.0000000  0 10                     
G15  20614035.555   108327464.653        -462.977          49.000    20614038.516    84411048.727        -360.761          43.000    20614038.695  
G09  22439147.258   117918492.371        3597.992          48.000    22439150.566    91884581.902        2803.630          35.000                  
G17  24365759.797   128043213.010        3349.016          44.000    24365763.512    99773729.713        2609.623          27.000    24365763.590  
G22  24622553.086   129392356.015        2700.227          45.000    24622552.805   100825242.120        2104.073          24.000                  
G08  23268396.852   122276130.610       -3326.316          40.000    23268402.332    95280230.201       -2591.935          22.000                  
G28  21524427.789   113111524.158       -1058.066          51.000    21524430.859    88138971.781        -824.467          41.000                  
R15  19286330.648   103060237.029         926.734          51.000    19286330.203    19286334.613    80158042.210         722.131          49.000  
G18  22837199.445   120010254.009        1118.758          46.000    22837201.820    93514527.571         871.759          31.000                  
G27  22199343.242   116658482.256        2249.832          49.000    22199347.402    90902625.821        1753.116          38.000                  
R14  20656878.461   110112793.010       -2880.281          53.000    20656878.605    20656884.598    85643315.114       -2244.375          47.000  
> 2010 01 02 00 01 36.0000000  0 10                     
G15  20614211.930   108328391.631        -464.199          50.000    20614215.164    84411771.049        -361.714          43.000    20614215.391  
G09  22437778.336   117911296.808        3597.543          48.000    22437781.609    91878974.964        2803.280          35.000                  
G17  24364484.242   128036515.166        3348.648          44.000    24364489.082    99768510.610        2609.336          27.000    24364489.254  
G22  24621525.781   129386956.072        2699.586          45.000    24621525.359   100821034.366        2103.573          25.000                  
G08  23269662.883   122282783.345       -3326.781          40.000    23269668.813    95285414.143       -2592.297          22.000                  
G28  21524830.477   113113641.318       -1059.160          51.000    21524833.785    88140621.520        -825.320          41.000                  
R15  19285984.133   103058384.811         925.539          51.000    19285983.688    19285987.859    80156601.597         721.199          49.000  
G18  22836773.117   120008017.588        1117.641          47.000    22836776.418    93512784.906         870.889          30.000                  
G27  22198487.266   116653983.145        2249.242          48.000    22198491.262    90899120.017        1752.656          38.000                  
R14  20657959.227   110118554.222       -2881.082          53.000    20657959.137    20657965.223    85647796.054       -2244.999          46.000  
> 2010 01 02 00 01 37.0000000  0 10                     
G15  20614300.445   108328856.071        -464.688          50.000    20614303.758    84412132.944        -362.094          43.000    20614303.797  
G09  22437093.156   117907699.443        3597.176          48.000    22437097.129    91876171.819        2802.994          35.000                  
G17  24363847.305   128033166.533        3348.613          44.000    24363852.039    99765901.279        2609.309          27.000    24363852.152  
G22  24621012.133   129384256.714        2699.121          45.000    24621011.793   100818930.969        2103.211          25.000                  
G08  23270295.563   122286110.085       -3326.996          39.000    23270301.688    95288006.398       -2592.465          22.000                  
G28  21525032.125   113114700.729       -1059.551          51.000    21525035.098    88141447.033        -825.624          41.000                  
R15  19285811.102   103057459.652         924.766          51.000    19285810.070    19285814.598    80155882.027         720.597          49.000  
G18  22836561.055   120006900.331        1117.008          47.000    22836563.711    93511914.323         870.396          30.000                  
G27  22198059.141   116651734.024        2249.004          48.000    22198063.395    90897367.457        1752.471          38.000                  
R14  20658500.055   110121435.447       -2881.434          52.000    20658498.789    20658505.227    85650037.013       -2245.273          46.000  
> 2010 01 02 00 01 38.0000000  0 10                     
G15  20614388.781   108329321.140        -465.344          50.000    20614392.488    84412495.341        -362.606          43.000    20614392.496  
G09  22436408.781   117904102.364        3596.953          48.000    22436412.348    91873368.907        2802.821          35.000                  
G17  24363209.820   128029818.108        3348.328          44.000    24363215.027    99763292.125        2609.087          27.000    24363214.863  
G22  24620498.469   129381557.785        2698.758          45.000    24620498.094   100816827.913        2102.928          25.000                  
G08  23270929.813   122289436.986       -3326.797          39.000    23270934.652    95290598.785       -2592.309          22.000                  
G28  21525234.195   113115760.704       -1060.234          51.000    21525236.809    88142272.982        -826.157          42.000                  
R15  19285637.891   103056535.103         924.227          51.000    19285636.977    19285641.543    80155162.937         720.177          49.000  
G18  22836348.359   120005783.708        1116.305          46.000    22836351.152    93511044.229         869.848          30.000                  
G27  22197631.313   116649485.211        2248.707          48.000    22197635.508    90895615.137        1752.239          38.000                  
R14  20659040.031   110124317.064       -2881.770          52.000    20659040.293    20659046.578    85652278.273       -2245.535          46.000  
> 2010 01 02 00 01 39.0000000  0 10                     
G15  20614477.508   108329786.767        -465.945          50.000    20614480.875    84412858.161        -363.074          43.000    20614480.930  
G09  22435724.727   117900505.499        3596.707          48.000    22435728.234    91870566.154        2802.629          35.000                  
G17  24362573.078   128026469.807        3348.246          45.000    24362577.672    99760683.063        2609.023          27.000    24362577.563  
G22  24619984.828   129378859.205        2698.363          46.000    24619985.148   100814725.123        2102.621          25.000                  
G08  23271562.664   122292764.086       -3327.211          39.000    23271567.910    95293191.323       -2592.632          22.000                  
G28  21525435.852   113116821.161       -1060.777          51.000    21525439.203    88143099.317        -826.580          41.000                  
R15  19285465.133   103055611.131         923.641          51.000    19285464.336    19285468.902    80154444.293         719.720          49.000  
G18  22836136.086   120004667.627        1115.852          47.000    22836138.793    93510174.558         869.495          31.000                  
G27  22197203.023   116647236.617        2248.426          48.000    22197207.676    90893862.987        1752.020          39.000                  
R14  20659581.086   110127199.036       -2882.180          52.000    20659580.879    20659587.035    85654519.799       -2245.854          46.000  
> 2010 01 02 00 01 40.0000000  0 10                     
G15  20614566.234   108330253.120        -466.734          50.000    20614569.578    84413221.558        -363.689          43.000    20614569.602  
G09  22435040.125   117896909.008        3596.258          47.000    22435043.895    91867763.698        2802.279          35.000                  
G17  24361936.234   128023121.808        3347.867          44.000    24361940.246    99758074.242        2608.728          27.000    24361939.879  
G22  24619471.297   129376161.120        2697.789          45.000    24619471.660   100812622.715        2102.173          26.000                  
G08  23272195.531   122296091.496       -3327.570          40.000    23272201.359    95295784.113       -2592.912          22.000                  
G28  21525637.781   113117882.277       -1061.496          51.000    21525640.832    88143926.160        -827.140          41.000                  
R15  19285292.500   103054687.907         922.828          51.000    19285291.586    19285296.199    80153726.228         719.087          49.000  
G18  22835923.523   120003552.317        1114.980          46.000    22835926.574    93509305.478         868.816          30.000                  
G27  22196775.438   116644988.416        2247.969          48.000    22196779.656    90892111.143        1751.664          38.000                  
R14  20660122.203   110130081.506       -2882.742          52.000    20660121.996    20660128.418    85656761.723       -2246.293          47.000  
> 2010 01 02 00 01 41.0000000  0 10                     
G15  20614655.008   108330719.960        -467.145          50.000    20614658.285    84413585.328        -364.009          43.000    20614658.316  
G09  22434355.898   117893312.655        3596.195          47.000    22434359.281    91864961.347        2802.230          35.000                  
G17  24361298.578   128019773.897        3347.875          43.000    24361303.676    99755465.492        2608.734          27.000    24361303.551  
G22  24618958.641   129373463.325        2697.645          46.000    24618958.332   100810520.540        2102.061          26.000                  
G08  23272828.086   122299418.991       -3327.543          39.000    23272834.301    95298376.966       -2592.891          22.000                  
G28  21525839.852   113118943.809       -1061.797          51.000    21525842.891    88144753.328        -827.374          41.000                  
R15  19285119.805   103053765.192         922.367          51.000    19285118.891    19285123.281    80153008.562         718.728          49.000  
G18  22835711.633   120002437.492        1114.508          46.000    22835714.070    93508436.777         868.448          31.000                  
G27  22196347.586   116642740.370        2247.859          49.000    22196352.012    90890359.419        1751.579          38.000                  
R14  20660662.758   110132964.224       -2882.867          52.000    20660661.961    20660668.258    85659003.826       -2246.390          47.000  
> 2010 01 02 00 01 42.0000000  0 10                     
G15  20614744.109   108331187.498        -467.797          50.000    20614747.109    84413949.643        -364.517          43.000    20614746.973  
G09  22433671.547   117889716.663        3595.914          47.000    22433675.160    91862159.274        2802.011          35.000                  
G17  24360661.734   128016426.206        3347.645          44.000    24360666.098    99752856.911        2608.554          27.000    24360666.129  
G22  24618444.633   129370765.998        2697.102          45.000    24618444.848   100808418.724        2101.638          27.000                  
G08  23273462.281   122302746.762       -3327.836          38.000    23273467.434    95300970.040       -2593.119          22.000                  
G28  21526041.859   113120005.939       -1062.363          51.000    21526045.258    88145580.962        -827.816          41.000                  
R15  19284947.070   103052843.142         921.840          51.000    19284946.039    19284950.613    80152291.415         718.317          49.000  
G18  22835500.102   120001323.343        1113.855          45.000    22835502.105    93507568.608         867.939          30.000                  
G27  22195919.711   116640492.662        2247.578          49.000    22195924.355    90888607.961        1751.360          38.000                  
R14  20661203.086   110135847.417       -2883.344          52.000    20661203.230    20661209.828    85661246.311       -2246.761          47.000  
> 2010 01 02 00 01 43.0000000  0 10                     
G15  20614832.961   108331655.647        -468.457          49.000    20614836.117    84414314.435        -365.031          43.000    20614836.336  
G09  22432987.016   117886120.955        3595.535          47.000    22432991.055    91859357.423        2801.716          35.000                  
G17  24360025.070   128013078.757        3347.293          45.000    24360029.363    99750248.504        2608.280          27.000    24360029.270  
G22  24617931.375   129368069.084        2696.688          45.000    24617931.555   100806317.241        2101.315          26.000                  
G08  23274095.648   122306074.757       -3328.113          39.000    23274100.570    95303563.278       -2593.335          22.000                  
G28  21526244.102   113121068.627       -1062.898          51.000    21526247.090    88146409.031        -828.233          41.000                  
R15  19284774.922   103051921.749         921.051          51.000    19284773.773    19284778.020    80151574.773         717.702          49.000  
G18  22835287.734   120000209.846        1113.203          45.000    22835290.371    93506700.952         867.431          31.000                  
G27  22195492.266   116638245.288        2247.211          49.000    22195496.648    90886856.758        1751.073          39.000                  
R14  20661744.945   110138731.027       -2883.848          52.000    20661744.500    20661750.820    85663489.116       -2247.154          47.000  
> 2010 01 02 00 01 44.0000000  0 10                     
G15  20614922.461   108332124.335        -469.020          49.000    20614925.727    84414679.639        -365.470          43.000    20614925.703  
G09  22432303.000   117882525.413        3595.418          47.000    22432306.328    91856555.702        2801.625          35.000                  
G17  24359388.469   128009731.368        3347.273          45.000    24359392.453    99747640.136        2608.265          27.000    24359392.340  
G22  24617418.031   129365372.445        2696.418          46.000    24617418.359   100804215.960        2101.105          26.000                  
G08  23274728.891   122309402.860       -3328.180          39.000    23274734.008    95306156.579       -2593.387          22.000                  
G28  21526446.367   113122131.759       -1063.434          51.000    21526449.465    88147237.451        -828.650          41.000                  
R15  19284602.453   103051000.840         920.496          52.000    19284601.539    19284606.008    80150858.514         717.270          49.000  
G18  22835075.680   119999096.878        1112.609          46.000    22835078.461    93505833.708         866.968          30.000                  
G27  22195064.492   116635998.069        2247.027          49.000    22195069.211    90885105.680        1750.930          38.000                  
R14  20662285.867   110141614.929       -2884.145          53.000    20662285.305    20662291.758    85665732.155       -2247.385          47.000  
> 2010 01 02 00 01 45.0000000  0 10                     
G15  20615011.547   108332593.772        -469.820          50.000    20615014.641    84415045.441        -366.094          43.000    20615014.730  
G09  22431618.828   117878930.294        3594.906          48.000    22431622.488    91853754.308        2801.226          35.000                  
G17  24358751.180   128006384.333        3346.840          45.000    24358755.418    99745032.051        2607.927          27.000    24358755.375  
G22  24616905.547   129362676.375        2695.742          45.000    24616905.512   100802115.133        2100.578          26.000                  
G08  23275362.719   122312731.318       -3328.660          39.000    23275367.461    95308750.185       -2593.761          22.000                  
G28  21526648.883   113123195.573       -1064.160          51.000    21526651.922    88148066.395        -829.216          41.000                  
R15  19284430.094   103050080.697         919.641          52.000    19284429.063    19284433.422    80150142.846         716.603          49.000  
G18  22834864.164   119997984.668        1111.758          46.000    22834867.078    93504967.049         866.305          30.000                  
G27  22194636.992   116633751.270        2246.508          49.000    22194641.648    90883354.926        1750.526          38.000                  
R14  20662826.875   110144499.359       -2884.738          53.000    20662826.668    20662833.418    85667975.599       -2247.848          47.000  
> 2010 01 02 00 01 46.0000000  0 10                     
G15  20615101.102   108333063.717        -470.211          50.000    20615104.602    84415411.628        -366.398          43.000    20615104.320  
G09  22430934.672   117875335.320        3594.906          48.000    22430938.262    91850953.031        2801.226          35.000                  
G17  24358114.500   128003037.368        3346.875          45.000    24358118.570    99742424.011        2607.955          27.000    24358118.410  
G22  24616392.508   129359980.566        2695.648          45.000    24616392.480   100800014.504        2100.505          25.000                  
G08  23275996.000   122316059.860       -3328.641          39.000    23276000.523    95311343.860       -2593.746          22.000                  
G28  21526851.242   113124259.828       -1064.520          51.000    21526854.527    88148895.681        -829.496          41.000                  
R15  19284258.063   103049161.016         919.391          52.000    19284257.031    19284261.496    80149427.539         716.408          49.000  
G18  22834653.047   119996872.960        1111.453          46.000    22834655.742    93504100.773         866.067          31.000                  
G27  22194209.594   116631504.624        2246.555          49.000    22194213.793    90881604.296        1750.562          39.000                  
R14  20663367.375   110147384.077       -2884.887          52.000    20663367.402    20663374.309    85670219.270       -2247.964          47.000  
> 2010 01 02 00 01 47.0000000  0 10                     
G15  20615190.531   108333534.369        -470.949          50.000    20615193.895    84415778.375        -366.973          43.000    20615193.801  
G09  22430250.945   117871740.714        3594.504          48.000    22430254.375    91848152.040        2800.912          35.000                  
G17  24357477.219   127999690.667        3346.641          45.000    24357481.391    99739816.179        2607.772          27.000    24357481.406  
G22  24615879.188   129357285.265        2695.137          45.000    24615879.684   100797914.273        2100.106          27.000                  
G08  23276629.758   122319388.713       -3328.820          39.000    23276634.270    95313937.786       -2593.886          22.000                  
G28  21527053.898   113125324.713       -1065.117          51.000    21527056.980    88149725.464        -829.961          41.000                  
R15  19284085.461   103048242.042         918.723          51.000    19284084.781    19284089.441    80148712.784         715.888          49.000  
G18  22834442.148   119995761.974        1110.746          46.000    22834444.512    93503235.068         865.516          30.000                  
G27  22193781.688   116629258.380        2246.160          50.000    22193786.465    90879853.970        1750.255          39.000                  
R14  20663909.383   110150269.289       -2885.402          53.000    20663909.059    20663916.012    85672463.323       -2248.365          47.000  
> 2010 01 02 00 01 48.0000000  0 10                     
G15  20615280.203   108334005.623        -471.574          50.000    20615283.500    84416145.586        -367.460          43.000    20615283.695  
G09  22429566.898   117868146.377        3594.168          48.000    22429570.461    91845351.256        2800.650          35.000                  
G17  24356840.586   127996344.161        3346.398          45.000    24356844.672    99737208.512        2607.583          28.000    24356844.598  
G22  24615366.633   129354590.334        2694.633          45.000    24615366.738   100795814.324        2099.714          26.000                  
G08  23277263.320   122322717.758       -3329.148          40.000    23277267.773    95316531.832       -2594.142          22.000                  
G28  21527256.570   113126390.141       -1065.691          51.000    21527259.680    88150555.667        -830.409          41.000                  
R15  19283913.914   103047323.687         918.059          51.000    19283913.234    19283917.547    80147998.511         715.370          49.000  
G18  22834230.023   119994651.603        1110.020          46.000    22834232.918    93502369.849         864.950          30.000                  
G27  22193354.648   116627012.404        2245.828          49.000    22193359.297    90878103.859        1749.996          38.000                  
R14  20664450.703   110153154.878       -2885.820          53.000    20664449.906    20664456.754    85674707.667       -2248.691          47.000  
> 2010 01 02 00 01 49.0000000  0 10                     
G15  20615370.250   108334477.331        -471.934          50.000    20615373.746    84416513.148        -367.740          43.000    20615373.797  
G09  22428882.836   117864552.162        3594.031          48.000    22428886.309    91842550.569        2800.544          35.000                  
G17  24356203.859   127992997.695        3346.367          45.000    24356208.277    99734600.884        2607.559          28.000    24356208.090  
G22  24614853.859   129351895.686        2694.449          45.000    24614853.977   100793714.603        2099.571          26.000                  
G08  23277896.750   122326046.866       -3329.270          40.000    23277901.113    95319125.950       -2594.236          22.000                  
G28  21527459.539   113127455.929       -1065.938          51.000    21527462.531    88151386.149        -830.601          41.000                  
R15  19283742.242   103046405.810         917.563          51.000    19283741.680    19283746.078    80147284.608         714.984          49.000  
G18  22834019.344   119993541.684        1109.699          46.000    22834021.520    93501504.981         864.701          29.000                  
G27  22192927.336   116624766.556        2245.715          49.000    22192931.707    90876353.852        1749.908          39.000                  
R14  20664992.242   110156040.712       -2886.035          53.000    20664991.680    20664998.457    85676952.207       -2248.859          47.000  
> 2010 01 02 00 01 50.0000000  0 10                     
G15  20615460.227   108334949.670        -472.660          49.000    20615463.336    84416881.201        -368.307          43.000    20615463.348  
G09  22428198.828   117860958.200        3593.699          48.000    22428202.633    91839750.082        2800.285          35.000                  
G17  24355567.008   127989651.398        3346.148          45.000    24355570.977    99731993.384        2607.388          28.000    24355570.789  
G22  24614341.359   129349201.421        2693.961          45.000    24614341.234   100791615.170        2099.190          26.000                  
G08  23278529.773   122329376.147       -3329.484          40.000    23278534.699    95321720.197       -2594.403          22.000                  
G28  21527662.359   113128522.285       -1066.688          51.000    21527665.188    88152217.081        -831.185          41.000                  
R15  19283570.172   103045488.546         916.957          51.000    19283569.609    19283574.012    80146571.176         714.512          49.000  
G18  22833807.953   119992432.444        1108.848          46.000    22833810.738    93500640.628         864.037          29.000                  
G27  22192499.688   116622520.979        2245.383          49.000    22192504.512    90874604.052        1749.649          39.000                  
R14  20665533.250   110158926.932       -2886.488          53.000    20665533.395    20665540.148    85679197.044       -2249.212          47.000  
> 2010 01 02 00 01 51.0000000  0 10                     
G15  20615549.836   108335422.672        -473.320          50.000    20615553.391    84417249.777        -368.821          43.000    20615553.430  
G09  22427514.961   117857364.568        3593.516          48.000    22427518.945    91836949.853        2800.142          35.000                  
G17  24354930.383   127986305.350        3345.941          45.000    24354934.629    99729386.073        2607.227          28.000    24354934.113  
G22  24613828.641   129346507.599        2693.641          46.000    24613828.539   100789516.097        2098.941          27.000                  
G08  23279163.469   122332705.686       -3329.547          40.000    23279168.367    95324314.646       -2594.452          22.000                  
G28  21527865.227   113129589.218       -1067.125          51.000    21527868.574    88153048.457        -831.526          41.000                  
R15  19283399.266   103044571.946         916.316          51.000    19283398.586    19283402.945    80145858.265         714.013          49.000  
G18  22833597.094   119991323.857        1108.262          46.000    22833599.684    93499776.798         863.581          30.000                  
G27  22192072.938   116620275.745        2245.082          49.000    22192077.102    90872854.515        1749.415          38.000                  
R14  20666075.133   110161813.592       -2886.828          53.000    20666074.453    20666081.117    85681442.225       -2249.477          47.000  
> 2010 01 02 00 01 52.0000000  0 10                     
G15  20615640.328   108335896.275        -473.926          49.000    20615643.344    84417618.813        -369.293          43.000    20615643.012  
G09  22426830.961   117853771.229        3593.180          47.000    22426835.137    91834149.850        2799.880          35.000                  
G17  24354294.039   127982959.516        3345.715          45.000    24354298.055    99726778.935        2607.051          27.000    24354297.641  
G22  24613316.000   129343814.186        2693.191          46.000    24613315.805   100787417.333        2098.591          26.000                  
G08  23279796.328   122336035.489       -3329.848          39.000    23279801.293    95326909.291       -2594.687          22.000                  
G28  21528068.406   113130656.720       -1067.777          51.000    21528071.695    88153880.278        -832.034          41.000                  
R15  19283227.742   103043655.967         915.703          51.000    19283227.297    19283231.723    80145145.838         713.535          49.000  
G18  22833385.602   119990215.890        1107.668          46.000    22833388.723    93498913.445         863.118          30.000                  
G27  22191645.266   116618030.800        2244.805          49.000    22191649.754    90871105.208        1749.198          39.000                  
R14  20666616.656   110164700.666       -2887.199          53.000    20666615.859    20666622.859    85683687.726       -2249.766          47.000  
> 2010 01 02 00 01 53.0000000  0 10                     
G15  20615730.492   108336370.466        -474.395          49.000    20615733.840    84417988.313        -369.658          43.000    20615733.887  
G09  22426147.375   117850178.090        3593.125          47.000    22426151.371    91831350.003        2799.838          35.000                  
G17  24353656.898   127979613.817        3345.746          45.000    24353661.414    99724171.899        2607.075          27.000    24353660.961  
G22  24612804.133   129341121.120        2693.074          46.000    24612803.840   100785318.841        2098.500          27.000                  
G08  23280430.102   122339365.411       -3329.879          39.000    23280435.191    95329504.044       -2594.711          22.000                  
G28  21528271.859   113131724.690       -1068.078          52.000    21528275.141    88154712.459        -832.269          41.000                  
R15  19283056.305   103042740.547         915.242          52.000    19283055.625    19283060.105    80144433.845         713.176          49.000  
G18  22833175.352   119989108.504        1107.246          46.000    22833178.082    93498050.543         862.789          30.000                  
G27  22191218.375   116615786.074        2244.750          49.000    22191222.863    90869356.071        1749.156          39.000                  
R14  20667158.805   110167588.082       -2887.504          53.000    20667158.242    20667164.980    85685933.496       -2250.003          47.000  
> 2010 01 02 00 01 54.0000000  0 10                     
G15  20615820.609   108336845.379        -475.004          49.000    20615823.762    84418358.371        -370.133          43.000    20615823.621  
G09  22425463.523   117846585.355        3592.840          47.000    22425467.352    91828550.468        2799.615          35.000                  
G17  24353020.273   127976268.426        3345.457          45.000    24353024.598    99721565.094        2606.850          28.000    24353024.176  
G22  24612291.328   129338428.604        2692.512          46.000    24612291.352   100783220.776        2098.061          26.000                  
G08  23281064.180   122342695.664       -3330.207          40.000    23281068.199    95332099.050       -2594.967          22.000                  
G28  21528475.016   113132793.332       -1068.688          51.000    21528478.129    88155545.172        -832.744          41.000                  
R15  19282885.094   103041825.868         914.547          51.000    19282884.648    19282888.855    80143722.426         712.634          49.000  
G18  22832964.484   119988001.867        1106.551          46.000    22832967.652    93497188.230         862.247          29.000                  
G27  22190791.391   116613541.755        2244.348          49.000    22190795.684    90867607.256        1748.842          39.000                  
R14  20667700.008   110170475.992       -2887.883          53.000    20667699.328    20667706.508    85688179.645       -2250.298          47.000  
> 2010 01 02 00 01 55.0000000  0 10                     
G15  20615911.125   108337320.868        -475.668          49.000    20615914.430    84418728.882        -370.650          43.000    20615914.336  
G09  22424780.117   117842992.833        3592.457          47.000    22424783.965    91825751.099        2799.317          35.000                  
G17  24352383.195   127972923.164        3345.297          45.000    24352388.215    99718958.388        2606.725          27.000    24352387.660  
G22  24611779.516   129335736.418        2692.078          46.000    24611778.941   100781122.974        2097.723          26.000                  
G08  23281698.672   122346026.057       -3330.383          40.000    23281702.441    95334694.157       -2595.104          22.000                  
G28  21528678.492   113133862.454       -1069.176          51.000    21528681.457    88156378.252        -833.124          42.000                  
R15  19282714.078   103040911.760         913.949          52.000    19282713.164    19282717.363    80143011.459         712.168          49.000  
G18  22832754.391   119986895.780        1105.891          45.000    22832757.270    93496326.346         861.733          29.000                  
G27  22190364.305   116611297.668        2244.035          49.000    22190368.703    90865858.620        1748.599          39.000                  
R14  20668242.070   110173364.266       -2888.359          53.000    20668241.980    20668248.746    85690426.084       -2250.670          47.000  
> 2010 01 02 00 01 56.0000000  0 10                     
G15  20616001.828   108337796.951        -476.332          49.000    20616004.766    84419099.857        -371.168          43.000    20616004.863  
G09  22424096.586   117839400.580        3592.129          47.000    22424100.496    91822951.945        2799.062          36.000                  
G17  24351747.164   127969578.090        3344.965          44.000    24351751.531    99716351.845        2606.466          27.000    24351751.078  
G22  24611266.852   129333044.606        2691.625          46.000    24611266.688   100779025.454        2097.370          26.000                  
G08  23282332.445   122349356.661       -3330.734          40.000    23282336.027    95337289.446       -2595.377          21.000                  
G28  21528882.008   113134932.107       -1069.875          51.000    21528885.133    88157211.746        -833.669          42.000                  
R15  19282543.508   103039998.234         913.227          52.000    19282542.828    19282547.168    80142300.936         711.605          49.000  
G18  22832543.734   119985790.329        1105.117          46.000    22832546.637    93495464.954         861.130          30.000                  
G27  22189937.281   116609053.853        2243.762          49.000    22189941.598    90864110.191        1748.386          39.000                  
R14  20668784.047   110176252.898       -2888.762          53.000    20668783.484    20668790.684    85692672.801       -2250.983          47.000  
> 2010 01 02 00 01 57.0000000  0 10                     
G15  20616092.875   108338273.602        -477.020          49.000    20616096.207    84419471.272        -371.704          43.000    20616096.227  
G09  22423413.102   117835808.539        3591.828          47.000    22423417.039    91820152.947        2798.827          35.000                  
G17  24351110.711   127966233.142        3344.730          44.000    24351114.988    99713745.387        2606.283          27.000    24351114.523  
G22  24610754.336   129330353.168        2691.176          46.000    24610754.797   100776928.216        2097.020          25.000                  
G08  23282966.086   122352687.405       -3330.898          40.000    23282969.586    95339884.842       -2595.505          20.000                  
G28  21529085.758   113136002.249       -1070.469          52.000    21529088.797    88158045.624        -834.131          42.000                  
R15  19282372.492   103039085.269         912.570          52.000    19282371.930    19282376.293    80141590.850         711.094          49.000  
G18  22832333.805   119984685.432        1104.551          46.000    22832336.664    93494603.992         860.689          30.000                  
G27  22189510.727   116606810.271        2243.379          49.000    22189514.688    90862361.945        1748.087          39.000                  
R14  20669326.055   110179141.884       -2889.250          53.000    20669325.609    20669332.652    85694919.787       -2251.364          47.000  
> 2010 01 02 00 01 58.0000000  0 10                     
G15  20616183.578   108338750.873        -477.664          49.000    20616186.715    84419843.170        -372.206          43.000    20616186.684  
G09  22422729.742   117832216.783        3591.516          48.000    22422733.484    91817354.179        2798.583          35.000                  
G17  24350474.086   127962888.385        3344.520          44.000    24350478.355    99711139.080        2606.119          27.000    24350478.051  
G22  24610242.680   129327662.112        2690.766          47.000    24610242.563   100774831.286        2096.700          26.000                  
G08  23283599.203   122356018.366       -3331.219          40.000    23283603.145    95342480.393       -2595.755          20.000                  
G28  21529289.656   113137072.965       -1071.035          52.000    21529292.965    88158879.941        -834.573          41.000                  
R15  19282201.367   103038172.894         912.035          51.000    19282201.043    19282205.398    80140881.228         710.677          49.000  
G18  22832123.500   119983581.174        1103.879          46.000    22832126.422    93493743.534         860.165          30.000                  
G27  22189083.453   116604566.973        2243.027          49.000    22189087.684    90860613.918        1747.813          39.000                  
R14  20669868.117   110182031.241       -2889.641          53.000    20669867.438    20669874.500    85697167.062       -2251.668          47.000  
> 2010 01 02 00 01 59.0000000  0 10                     
G15  20616274.094   108339228.704        -478.242          50.000    20616277.641    84420215.508        -372.656          43.000    20616277.461  
G09  22422045.828   117828625.228        3591.363          48.000    22422049.711    91814555.570        2798.465          35.000                  
G17  24349837.227   127959543.747        3344.512          45.000    24349841.895    99708532.876        2606.113          27.000    24349841.777  
G22  24609730.117   129324971.390        2690.484          47.000    24609730.504   100772734.622        2096.481          26.000                  
G08  23284233.516   122359349.488       -3331.301          40.000    23284237.156    95345076.084       -2595.819          21.000                  
G28  21529493.320   113138144.120       -1071.543          52.000    21529496.977    88159714.610        -834.969          42.000                  
R15  19282030.742   103037261.056         911.523          51.000    19282030.770    19282034.988    80140172.021         710.278          49.000  
G18  22831913.766   119982477.466        1103.348          46.000    22831916.336    93492883.508         859.751          30.000                  
G27  22188656.250   116602323.873        2242.945          49.000    22188661.090    90858866.051        1747.750          39.000                  
R14  20670410.438   110184920.905       -2889.855          53.000    20670409.992    20670417.020    85699414.576       -2251.835          47.000  
> 2010 01 02 00 02 00.0000000  0 10                     
G15  20616365.164   108339707.226        -478.719          50.000    20616368.676    84420588.382        -373.028          43.000    20616368.301  
G09  22421362.563   117825034.031        3591.145          48.000    22421366.617    91811757.236        2798.294          35.000                  
G17  24349201.281   127956199.390        3344.387          45.000    24349205.492    99705926.892        2606.016          28.000    24349205.242  
G22  24609218.547   129322281.163        2690.184          47.000    24609218.586   100770638.342        2096.247          26.000                  
G08  23284868.016   122362680.884       -3331.414          40.000    23284871.418    95347671.977       -2595.907          21.000                  
G28  21529697.352   113139215.909       -1071.980          52.000    21529700.461    88160549.774        -835.309          41.000                  
R15  19281860.516   103036349.939         910.867          51.000    19281859.367    19281863.688    80139463.374         709.767          49.000  
G18  22831703.750   119981374.464        1102.789          46.000    22831706.613    93492024.022         859.316          30.000                  
G27  22188230.078   116600081.163        2242.648          50.000    22188234.184    90857118.485        1747.518          39.000                  
R14  20670952.641   110187811.060       -2890.219          53.000    20670952.316    20670959.207    85701662.468       -2252.118          47.000  
> 2010 01 02 00 02 01.0000000  0 10                     
G15  20616456.695   108340186.393        -479.387          50.000    20616460.203    84420961.758        -373.548          44.000    20616459.922  
G09  22420679.445   117821443.125        3590.859          48.000    22420683.234    91808959.127        2798.072          36.000                  
G17  24348564.961   127952855.241        3344.262          45.000    24348569.410    99703321.069        2605.918          28.000    24348569.078  
G22  24608706.320   129319591.367        2689.656          47.000    24608706.434   100768542.395        2095.836          26.000                  
G08  23285501.109   122366012.485       -3331.570          40.000    23285505.086    95350268.019       -2596.029          21.000                  
G28  21529901.188   113140288.245       -1072.434          51.000    21529904.566    88161385.363        -835.663          41.000                  
R15  19281690.242   103035439.461         910.293          51.000    19281689.445    19281693.750    80138755.229         709.319          49.000  
G18  22831493.063   119980272.087        1102.141          46.000    22831496.625    93491165.021         858.811          31.000                  
G27  22187802.836   116597838.740        2242.383          49.000    22187807.402    90855371.140        1747.311          39.000                  
R14  20671494.430   110190701.621       -2890.672          53.000    20671494.105    20671500.844    85703910.686       -2252.472          47.000  
> 2010 01 02 00 02 02.0000000  0 10                     
G15  20616547.953   108340666.248        -480.191          50.000    20616551.078    84421335.668        -374.175          44.000    20616551.047  
G09  22419996.203   117817852.556        3590.434          48.000    22419999.754    91806161.278        2797.740          36.000                  
G17  24347928.547   127949511.351        3343.793          45.000    24347932.621    99700715.437        2605.553          27.000    24347932.504  
G22  24608194.859   129316902.016        2689.090          47.000    24608194.664   100766446.799        2095.395          26.000                  
G08  23286135.586   122369344.369       -3331.926          40.000    23286139.391    95352864.302       -2596.306          21.000                  
G28  21530105.313   113141361.225       -1073.285          52.000    21530109.055    88162221.446        -836.326          41.000                  
R15  19281519.766   103034529.737         909.363          51.000    19281520.027    19281524.133    80138047.662         708.595          49.000  
G18  22831284.094   119979170.423        1101.301          46.000    22831287.004    93490306.581         858.156          30.000                  
G27  22187376.297   116595596.681        2241.883          49.000    22187380.422    90853624.080        1746.922          39.000                  
R14  20672037.500   110193592.640       -2891.258          53.000    20672036.352    20672042.992    85706159.251       -2252.928          47.000  
> 2010 01 02 00 02 03.0000000  0 10                     
G15  20616639.055   108341146.630        -480.730          49.000    20616642.508    84421709.998        -374.595          43.000    20616642.352  
G09  22419312.625   117814262.186        3590.328          48.000    22419316.582    91803363.587        2797.658          36.000                  
G17  24347292.133   127946167.597        3343.633          46.000    24347296.332    99698109.914        2605.428          28.000    24347296.262  
G22  24607683.250   129314213.000        2688.922          47.000    24607683.449   100764351.466        2095.264          27.000                  
G08  23286769.789   122372676.421       -3332.160          41.000    23286773.645    95355460.722       -2596.489          21.000                  
G28  21530309.680   113142434.647       -1073.695          52.000    21530312.961    88163057.882        -836.646          41.000                  
R15  19281349.641   103033620.568         908.910          51.000    19281348.492    19281352.684    80137340.530         708.242          49.000  
G18  22831074.820   119978069.299        1100.816          46.000    22831077.379    93489448.566         857.779          30.000                  
G27  22186949.906   116593354.818        2241.746          49.000    22186954.207    90851877.174        1746.815          39.000                  
R14  20672578.969   110196483.961       -2891.480          53.000    20672579.230    20672585.738    85708408.057       -2253.102          47.000  
> 2010 01 02 00 02 04.0000000  0 10                     
G15  20616730.602   108341627.649        -481.293          49.000    20616734.004    84422084.819        -375.033          43.000    20616734.066  
G09  22418630.008   117810672.116        3589.984          48.000    22418633.777    91800566.132        2797.390          36.000                  
G17  24346656.195   127942824.035        3343.418          45.000    24346660.055    99695504.532        2605.261          28.000    24346659.895  
G22  24607172.422   129311524.409        2688.430          47.000    24607171.926   100762256.458        2094.880          27.000                  
G08  23287403.141   122376008.645       -3332.270          41.000    23287407.441    95358057.258       -2596.574          21.000                  
G28  21530513.844   113143508.628       -1074.285          52.000    21530517.242    88163894.750        -837.105          41.000                  
R15  19281179.695   103032712.031         908.270          51.000    19281178.898    19281183.648    80136633.890         707.742          49.000  
G18  22830865.188   119976968.824        1100.098          46.000    22830868.012    93488591.049         857.219          29.000                  
G27  22186523.414   116591113.242        2241.410          49.000    22186527.730    90850130.490        1746.553          39.000                  
R14  20673122.352   110199375.680       -2891.906          53.000    20673121.672    20673128.023    85710657.175       -2253.433          47.000  
> 2010 01 02 00 02 05.0000000  0 10                     
G15  20616822.383   108342109.246        -481.871          49.000    20616825.516    84422460.089        -375.484          43.000    20616825.535  
G09  22417946.766   117807082.253        3589.734          48.000    22417950.520    91797768.838        2797.196          36.000                  
G17  24346019.742   127939480.613        3343.316          46.000    24346024.293    99692899.262        2605.182          27.000    24346023.914  
G22  24606660.039   129308836.182        2687.973          47.000    24606660.219   100760161.734        2094.524          26.000                  
G08  23288037.633   122379341.061       -3332.445          40.000    23288041.352    95360653.954       -2596.711          22.000                  
G28  21530718.602   113144583.133       -1074.840          51.000    21530722.164    88164732.028        -837.538          41.000                  
R15  19281009.914   103031804.078         907.676          51.000    19281009.469    19281013.855    80135927.704         707.280          49.000  
G18  22830656.250   119975868.910        1099.555          46.000    22830658.883    93487733.974         856.796          30.000                  
G27  22186096.516   116588871.916        2241.180          50.000    22186101.199    90848384.003        1746.374          39.000                  
R14  20673664.188   110202267.755       -2892.254          53.000    20673664.098    20673670.457    85712906.568       -2253.704          47.000  
> 2010 01 02 00 02 06.0000000  0 10                     
G15  20616914.383   108342591.479        -482.570          49.000    20616917.652    84422835.854        -376.029          43.000    20616917.770  
G09  22417263.680   117803492.691        3589.434          48.000    22417267.359    91794971.777        2796.961          36.000                  
G17  24345383.289   127936137.402        3343.094          46.000    24345388.199    99690294.159        2605.008          27.000    24345387.730  
G22  24606148.469   129306148.357        2687.578          47.000    24606148.559   100758067.321        2094.217          26.000                  
G08  23288671.656   122382673.698       -3332.676          41.000    23288675.957    95363250.812       -2596.890          22.000                  
G28  21530923.094   113145658.163       -1075.344          51.000    21530926.133    88165569.714        -837.930          41.000                  
R15  19280840.141   103030896.737         907.020          51.000    19280839.227    19280843.672    80135221.997         706.768          49.000  
G18  22830446.867   119974769.638        1098.984          46.000    22830449.242    93486877.399         856.351          30.000                  
G27  22185670.328   116586630.890        2240.906          50.000    22185674.750    90846637.751        1746.161          39.000                  
R14  20674207.250   110205160.240       -2892.648          53.000    20674205.984    20674212.227    85715156.286       -2254.012          47.000  
> 2010 01 02 00 02 07.0000000  0 10                     
G15  20617006.141   108343074.255        -482.992          49.000    20617009.332    84423212.040        -376.358          43.000    20617009.000  
G09  22416580.266   117799903.346        3589.141          47.000    22416584.379    91792174.884        2796.733          36.000                  
G17  24344747.273   127932794.310        3343.023          45.000    24344751.781    99687689.158        2604.953          28.000    24344751.758  
G22  24605637.070   129303460.863        2687.273          47.000    24605637.234   100755973.166        2093.979          28.000                  
G08  23289305.922   122386006.476       -3332.824          41.000    23289310.172    95365847.777       -2597.006          22.000                  
G28  21531127.555   113146733.676       -1075.684          51.000    21531130.973    88166407.776        -838.195          41.000                  
R15  19280670.414   103029989.947         906.516          52.000    19280669.734    19280674.152    80134516.715         706.376          48.000  
G18  22830237.648   119973670.932        1098.492          46.000    22830240.418    93486021.267         855.968          30.000                  
G27  22185243.891   116584390.068        2240.707          50.000    22185248.555    90844891.658        1746.005          39.000                  
R14  20674749.547   110208053.046       -2893.000          53.000    20674748.984    20674755.223    85717406.240       -2254.286          47.000  
> 2010 01 02 00 02 08.0000000  0 10                     
G15  20617097.914   108343557.687        -483.695          49.000    20617101.070    84423588.742        -376.905          43.000    20617100.941  
G09  22415897.789   117796314.285        3588.980          48.000    22415901.465    91789378.221        2796.608          35.000                  
G17  24344111.398   127929451.452        3342.805          46.000    24344115.902    99685084.332        2604.783          27.000    24344115.773  
G22  24605125.961   129300773.811        2686.930          46.000    24605126.016   100753879.363        2093.711          27.000                  
G08  23289940.008   122389339.510       -3333.008          40.000    23289944.652    95368444.935       -2597.149          22.000                  
G28  21531332.750   113147809.778       -1076.340          52.000    21531335.637    88167246.293        -838.706          41.000                  
R15  19280501.063   103029083.814         905.863          52.000    19280500.031    19280504.125    80133811.946         705.867          49.000  
G18  22830028.336   119972572.878        1097.789          46.000    22830031.520    93485165.643         855.420          30.000                  
G27  22184817.867   116582149.587        2240.398          50.000    22184822.156    90843145.828        1745.765          39.000                  
R14  20675292.297   110210946.285       -2893.332          53.000    20675291.852    20675298.004    85719656.537       -2254.544          47.000  
> 2010 01 02 00 02 09.0000000  0 10                     
G15  20617190.336   108344041.770        -484.324          49.000    20617193.914    84423965.951        -377.396          43.000    20617193.664  
G09  22415214.984   117792725.542        3588.734          48.000    22415218.539    91786581.793        2796.417          36.000                  
G17  24343475.281   127926108.821        3342.543          45.000    24343479.430    99682479.690        2604.579          27.000    24343479.516  
G22  24604614.422   129298087.198        2686.516          46.000    24604614.590   100751785.899        2093.389          28.000                  
G08  23290573.945   122392672.769       -3333.188          40.000    23290578.824    95371042.270       -2597.289          22.000                  
G28  21531537.578   113148886.443       -1076.820          52.000    21531540.797    88168085.253        -839.081          41.000                  
R15  19280330.883   103028178.341         905.211          52.000    19280330.559    19280334.762    80133107.691         705.359          49.000  
G18  22829820.023   119971475.495        1097.102          46.000    22829822.809    93484310.541         854.884          30.000                  
G27  22184391.258   116579909.391        2240.180          50.000    22184395.668    90841400.224        1745.595          39.000                  
R14  20675834.922   110213839.953       -2893.766          53.000    20675834.477    20675840.395    85721907.171       -2254.882          47.000  
> 2010 01 02 00 02 10.0000000  0 10                     
G15  20617282.273   108344526.494        -485.027          49.000    20617285.695    84424343.653        -377.943          43.000    20617285.594  
G09  22414531.969   117789137.084        3588.367          48.000    22414535.316    91783785.597        2796.130          36.000                  
G17  24342839.195   127922766.382        3342.344          45.000    24342843.730    99679875.188        2604.424          27.000    24342843.707  
G22  24604103.469   129295401.002        2686.020          47.000    24604103.590   100749692.767        2093.002          28.000                  
G08  23291208.297   122396006.288       -3333.543          41.000    23291213.148    95373639.814       -2597.566          22.000                  
G28  21531742.641   113149963.666       -1077.488          52.000    21531745.809    88168924.642        -839.601          41.000                  
R15  19280162.109   103027273.495         904.563          52.000    19280161.313    19280165.852    80132403.919         704.854          49.000  
G18  22829610.766   119970378.740        1096.430          46.000    22829614.141    93483455.921         854.361          30.000                  
G27  22183965.242   116577669.510        2239.770          50.000    22183969.766    90839654.858        1745.275          39.000                  
R14  20676378.406   110216734.014       -2894.227          53.000    20676378.199    20676383.875    85724158.104       -2255.241          47.000  
> 2010 01 02 00 02 11.0000000  0 10                     
G15  20617374.875   108345011.812        -485.590          49.000    20617378.090    84424721.820        -378.382          43.000    20617377.980  
G09  22413849.008   117785548.893        3588.043          48.000    22413852.418    91780989.603        2795.878          36.000                  
G17  24342203.555   127919424.118        3342.195          45.000    24342207.430    99677270.826        2604.308          27.000    24342207.441  
G22  24603592.828   129292715.182        2685.629          47.000    24603592.461   100747599.925        2092.698          28.000                  
G08  23291843.141   122399339.952       -3333.805          41.000    23291848.195    95376237.466       -2597.770          22.000                  
G28  21531947.688   113151041.400       -1077.988          51.000    21531950.816    88169764.439        -839.991          41.000                  
R15  19279993.109   103026369.255         903.914          52.000    19279991.961    19279996.164    80131700.623         704.349          49.000  
G18  22829402.492   119969282.590        1095.848          46.000    22829405.547    93482601.780         853.907          29.000                  
G27  22183539.031   116575429.885        2239.496          50.000    22183543.746    90837909.695        1745.062          39.000                  
R14  20676920.891   110219628.461       -2894.668          53.000    20676920.801    20676926.785    85726409.340       -2255.585          47.000  
> 2010 01 02 00 02 12.0000000  0 10                     
G15  20617467.227   108345497.747        -486.328          49.000    20617470.805    84425100.476        -378.957          43.000    20617470.898  
G09  22413166.313   117781960.967        3587.734          48.000    22413170.043    91778193.819        2795.637          36.000                  
G17  24341566.906   127916082.036        3341.969          45.000    24341571.855    99674666.613        2604.132          27.000    24341571.770  
G22  24603081.211   129290029.767        2685.184          47.000    24603081.648   100745507.394        2092.351          27.000                  
G08  23292477.211   122402673.819       -3334.000          41.000    23292482.723    95378835.284       -2597.922          22.000                  
G28  21532152.961   113152119.670       -1078.547          51.000    21532156.113    88170604.651        -840.426          41.000                  
R15  19279823.906   103025465.613         903.320          52.000    19279823.109    19279827.281    80130997.789         703.886          49.000  
G18  22829193.828   119968187.066        1095.137          46.000    22829196.695    93481748.127         853.353          30.000                  
G27  22183112.617   116573190.536        2239.090          49.000    22183116.828    90836164.748        1744.745          39.000                  
R14  20677464.219   110222523.273       -2895.043          53.000    20677463.895    20677469.410    85728660.863       -2255.878          47.000  
> 2010 01 02 00 02 13.0000000  0 10                     
G15  20617559.648   108345984.256        -486.789          49.000    20617563.484    84425479.569        -379.316          43.000    20617563.621  
G09  22412483.742   117778373.288        3587.516          48.000    22412487.422    91775398.224        2795.467          36.000                  
G17  24340930.789   127912740.139        3341.883          44.000    24340935.492    99672062.541        2604.064          27.000    24340935.078  
G22  24602570.617   129287344.741        2684.797          47.000    24602570.766   100743415.157        2092.050          27.000                  
G08  23293111.953   122406007.895       -3334.098          40.000    23293117.039    95381433.269       -2597.998          22.000                  
G28  21532358.297   113153198.470       -1078.977          51.000    21532361.395    88171445.277        -840.761          41.000                  
R15  19279654.813   103024562.589         902.699          52.000    19279653.664    19279658.047    80130295.442         703.402          48.000  
G18  22828986.023   119967092.131        1094.664          45.000    22828988.625    93480894.927         852.985          30.000                  
G27  22182686.773   116570951.455        2238.949          48.000    22182691.422    90834420.011        1744.636          39.000                  
R14  20678007.656   110225418.488       -2895.383          53.000    20678007.449    20678012.875    85730912.695       -2256.142          47.000  
> 2010 01 02 00 02 14.0000000  0 10                     
G15  20617652.125   108346471.389        -487.473          49.000    20617655.707    84425859.157        -379.849          43.000    20617655.555  
G09  22411800.828   117774785.872        3587.293          48.000    22411804.820    91772602.835        2795.293          36.000                  
G17  24340294.984   127909398.412        3341.590          44.000    24340300.051    99669458.609        2603.836          28.000    24340299.340  
G22  24602060.031   129284660.095        2684.402          47.000    24602059.883   100741323.223        2091.742          27.000                  
G08  23293746.234   122409342.142       -3334.336          39.000    23293752.063    95384031.401       -2598.184          22.000                  
G28  21532563.578   113154277.811       -1079.652          51.000    21532566.719    88172286.323        -841.288          41.000                  
R15  19279486.000   103023660.173         902.082          52.000    19279485.320    19279489.484    80129593.563         702.921          48.000  
G18  22828777.344   119965997.807        1094.000          46.000    22828780.141    93480042.206         852.468          30.000                  
G27  22182260.836   116568712.642        2238.672          48.000    22182265.168    90832675.482        1744.420          39.000                  
R14  20678551.289   110228314.080       -2895.719          53.000    20678550.375    20678555.914    85733164.822       -2256.404          47.000  
> 2010 01 02 00 02 15.0000000  0 10                     
G15  20617745.242   108346959.207        -488.129          49.000    20617748.441    84426239.274        -380.360          43.000    20617748.238  
G09  22411118.188   117771198.798        3586.883          48.000    22411122.121    91769807.717        2794.974          36.000                  
G17  24339659.773   127906056.937        3341.398          45.000    24339663.883    99666854.866        2603.687          28.000    24339663.211  
G22  24601548.641   129281975.915        2683.977          47.000    24601549.176   100739231.652        2091.410          26.000                  
G08  23294380.617   122412676.660       -3334.512          39.000    23294386.258    95386629.723       -2598.321          22.000                  
G28  21532768.883   113155357.740       -1080.238          51.000    21532771.918    88173127.824        -841.744          41.000                  
R15  19279316.680   103022758.457         901.414          52.000    19279316.117    19279320.539    80128892.227         702.401          49.000  
G18  22828569.203   119964904.200        1093.297          46.000    22828572.180    93479190.050         851.920          30.000                  
G27  22181834.445   116566474.184        2238.273          48.000    22181838.973    90830931.229        1744.109          39.000                  
R14  20679093.742   110231210.126       -2896.273          53.000    20679093.535    20679098.879    85735417.300       -2256.836          47.000  
> 2010 01 02 00 02 16.0000000  0 10                     
G15  20617838.086   108347447.592        -488.598          50.000    20617841.816    84426619.833        -380.725          43.000    20617841.563  
G09  22410435.227   117767611.944        3586.754          48.000    22410439.516    91767012.763        2794.873          36.000                  
G17  24339024.133   127902715.631        3341.293          45.000    24339028.160    99664251.241        2603.605          28.000    24339027.859  
G22  24601038.094   129279292.112        2683.582          47.000    24601038.395   100737140.377        2091.103          27.000                  
G08  23295014.703   122416011.379       -3334.824          39.000    23295020.918    95389228.195       -2598.564          22.000                  
G28  21532974.453   113156438.177       -1080.656          52.000    21532977.645    88173969.721        -842.070          41.000                  
R15  19279148.703   103021857.315         900.875          51.000    19279147.672    19279151.918    80128191.344         701.981          49.000  
G18  22828361.430   119963811.144        1092.750          46.000    22828364.492    93478338.316         851.494          30.000                  
G27  22181408.766   116564235.971        2238.102          48.000    22181413.250    90829187.167        1743.975          39.000                  
R14  20679638.039   110234106.507       -2896.504          53.000    20679637.477    20679642.492    85737670.039       -2257.016          47.000  
> 2010 01 02 00 02 17.0000000  0 10                     
G15  20617931.375   108347936.572        -489.266          49.000    20617934.617    84427000.855        -381.246          43.000    20617934.668  
G09  22409753.070   117764025.352        3586.453          48.000    22409757.215    91764218.021        2794.639          36.000                  
G17  24338387.992   127899374.481        3341.027          45.000    24338392.320    99661647.754        2603.398          28.000    24338392.555  
G22  24600527.398   129276608.650        2683.250          48.000    24600527.988   100735049.366        2090.844          29.000                  
G08  23295649.758   122419346.244       -3334.988          40.000    23295655.777    95391826.788       -2598.692          22.000                  
G28  21533180.016   113157519.118       -1081.199          51.000    21533183.473    88174812.015        -842.493          41.000                  
R15  19278979.984   103020956.752         900.297          51.000    19278979.660    19278983.969    80127490.905         701.530          48.000  
G18  22828153.906   119962718.704        1092.074          46.000    22828156.250    93477487.065         850.967          29.000                  
G27  22180982.922   116561997.992        2237.840          48.000    22180987.578    90827443.291        1743.771          39.000                  
R14  20680180.477   110237003.246       -2896.941          53.000    20680180.621    20680185.773    85739923.056       -2257.357          47.000  
> 2010 01 02 00 02 18.0000000  0 10                     
G15  20618024.469   108348426.176        -490.000          49.000    20618028.004    84427382.369        -381.818          43.000    20618027.855  
G09  22409070.602   117760439.044        3586.016          48.000    22409074.945    91761423.496        2794.298          36.000                  
G17  24337752.055   127896033.567        3340.605          45.000    24337756.621    99659044.443        2603.069          28.000    24337756.613  
G22  24600017.055   129273925.643        2682.727          47.000    24600017.172   100732958.711        2090.436          28.000                  
G08  23296284.813   122422681.367       -3335.410          40.000    23296290.203    95394425.564       -2599.021          22.000                  
G28  21533386.117   113158600.634       -1081.883          52.000    21533389.117    88175654.756        -843.026          41.000                  
R15  19278811.734   103020056.802         899.500          51.000    19278810.586    19278814.988    80126790.942         700.909          49.000  
G18  22827945.664   119961626.901        1091.328          46.000    22827948.563    93476636.304         850.386          29.000                  
G27  22180557.094   116559760.330        2237.410          49.000    22180561.402    90825699.655        1743.437          39.000                  
R14  20680724.148   110239900.387       -2897.449          54.000    20680724.059    20680729.676    85742176.393       -2257.753          47.000  
> 2010 01 02 00 02 19.0000000  0 10                     
G15  20618117.891   108348916.262        -490.457          49.000    20618120.883    84427764.258        -382.174          43.000    20618120.898  
G09  22408388.266   117756852.853        3585.996          48.000    22408392.047    91758629.065        2794.283          36.000                  
G17  24337116.055   127892692.642        3340.816          46.000    24337120.918    99656441.123        2603.234          28.000    24337120.715  
G22  24599506.391   129271242.875        2682.531          47.000    24599506.430   100730868.248        2090.284          28.000                  
G08  23296918.727   122426016.486       -3335.277          40.000    23296925.520    95397024.364       -2598.917          22.000                  
G28  21533592.031   113159682.509       -1082.148          52.000    21533594.961    88176497.774        -843.233          41.000                  
R15  19278643.523   103019157.301         899.113          51.000    19278642.492    19278646.879    80126091.331         700.608          49.000  
G18  22827738.219   119960535.580        1090.898          46.000    22827740.871    93475785.924         850.051          30.000                  
G27  22180131.406   116557522.777        2237.387          49.000    22180135.820    90823956.108        1743.418          39.000                  
R14  20681267.367   110242797.760       -2897.598          54.000    20681267.395    20681272.895    85744429.904       -2257.868          47.000  
> 2010 01 02 00 02 20.0000000  0 10                     
G15  20618211.117   108349407.068        -491.129          50.000    20618214.582    84428146.700        -382.698          43.000    20618214.363  
G09  22407705.922   117753267.056        3585.754          48.000    22407709.449    91755834.937        2794.094          36.000                  
G17  24336480.500   127889352.062        3340.633          45.000    24336485.664    99653838.067        2603.091          27.000    24336485.438  
G22  24598995.938   129268560.621        2682.129          46.000    24598996.082   100728778.174        2089.970          28.000                  
G08  23297553.266   122429351.975       -3335.473          39.000    23297559.840    95399623.450       -2599.070          22.000                  
G28  21533797.961   113160765.070       -1082.793          52.000    21533801.094    88177341.326        -843.735          41.000                  
R15  19278475.133   103018258.520         898.566          52.000    19278474.809    19278478.973    80125392.280         700.182          49.000  
G18  22827530.688   119959444.975        1090.422          46.000    22827533.188    93474936.097         849.679          29.000                  
G27  22179705.570   116555285.648        2237.086          49.000    22179710.332    90822212.889        1743.184          39.000                  
R14  20681811.797   110245695.639       -2898.063          53.000    20681810.414    20681816.125    85746683.812       -2258.230          47.000  
> 2010 01 02 00 02 21.0000000  0 10                     
G15  20618304.563   108349898.653        -491.906          50.000    20618307.648    84428529.754        -383.304          43.000    20618307.703  
G09  22407023.531   117749681.692        3585.258          48.000    22407027.574    91753041.148        2793.707          36.000                  
G17  24335844.945   127886011.830        3340.082          45.000    24335849.730    99651235.298        2602.661          27.000    24335849.516  
G22  24598486.148   129265878.939        2681.480          46.000    24598485.883   100726688.560        2089.465          27.000                  
G08  23298188.203   122432687.824       -3335.777          39.000    23298194.723    95402222.811       -2599.307          22.000                  
G28  21534003.938   113161848.319       -1083.488          52.000    21534007.699    88178185.415        -844.277          41.000                  
R15  19278306.844   103017360.544         897.680          51.000    19278306.164    19278310.605    80124693.853         699.491          49.000  
G18  22827322.914   119958355.175        1089.484          46.000    22827325.863    93474086.899         848.949          30.000                  
G27  22179279.711   116553048.953        2236.598          49.000    22179284.324    90820470.014        1742.803          39.000                  
R14  20682354.609   110248594.076       -2898.598          53.000    20682354.988    20682360.664    85748938.161       -2258.647          47.000  
> 2010 01 02 00 02 22.0000000  0 10                     
G15  20618398.398   108350390.702        -492.422          50.000    20618402.066    84428913.167        -383.705          43.000    20618401.871  
G09  22406341.258   117746096.447        3585.094          48.000    22406345.523    91750247.450        2793.580          36.000                  
G17  24335209.195   127882671.614        3340.125          45.000    24335213.820    99648632.541        2602.695          27.000    24335213.648  
G22  24597975.773   129263197.473        2681.254          47.000    24597975.871   100724599.103        2089.289          27.000                  
G08  23298823.977   122436023.719       -3335.902          40.000    23298829.270    95404822.185       -2599.405          22.000                  
G28  21534210.008   113162931.950       -1083.930          51.000    21534213.602    88179029.807        -844.621          41.000                  
R15  19278139.328   103016463.008         897.266          52.000    19278138.180    19278142.645    80123995.767         699.168          49.000  
G18  22827116.039   119957265.816        1089.125          46.000    22827118.633    93473238.049         848.669          30.000                  
G27  22178854.273   116550812.364        2236.453          49.000    22178858.875    90818727.215        1742.691          39.000                  
R14  20682899.180   110251492.736       -2898.848          53.000    20682898.855    20682904.539    85751192.675       -2258.842          47.000  
> 2010 01 02 00 02 23.0000000  0 10                     
G15  20618492.156   108350883.394        -492.941          50.000    20618495.602    84429297.081        -384.110          43.000    20618495.324  
G09  22405659.016   117742511.505        3584.773          48.000    22405662.949    91747453.988        2793.330          36.000                  
G17  24334573.594   127879331.635        3339.930          45.000    24334577.840    99646029.959        2602.543          27.000    24334577.480  
G22  24597465.398   129260516.470        2680.820          47.000    24597465.414   100722510.004        2088.951          27.000                  
G08  23299459.195   122439359.859       -3336.195          40.000    23299464.340    95407421.758       -2599.633          22.000                  
G28  21534416.711   113164016.158       -1084.438          51.000    21534419.863    88179874.643        -845.016          41.000                  
R15  19277971.328   103015566.190         896.516          52.000    19277970.766    19277975.098    80123298.250         698.584          49.000  
G18  22826909.055   119956177.164        1088.352          46.000    22826911.563    93472389.757         848.066          30.000                  
G27  22178428.438   116548576.137        2236.105          49.000    22178433.230    90816984.701        1742.420          38.000                  
R14  20683442.906   110254391.832       -2899.305          53.000    20683442.227    20683447.965    85753447.526       -2259.198          47.000  
> 2010 01 02 00 02 24.0000000  0 10                     
G15  20618585.836   108351376.713        -493.559          50.000    20618589.426    84429681.486        -384.591          43.000    20618589.285  
G09  22404976.930   117738926.847        3584.551          49.000    22404980.766    91744660.754        2793.156          36.000                  
G17  24333938.078   127875991.868        3339.723          46.000    24333942.348    99643427.540        2602.381          28.000    24333942.266  
G22  24596955.727   129257835.871        2680.523          47.000    24596955.727   100720421.224        2088.719          28.000                  
G08  23300093.844   122442696.187       -3336.383          39.000    23300099.203    95410021.502       -2599.779          22.000                  
G28  21534622.938   113165100.924       -1085.035          51.000    21534626.230    88180719.917        -845.482          41.000                  
R15  19277803.391   103014669.989         895.914          51.000    19277802.477    19277806.680    80122601.201         698.115          49.000  
G18  22826701.625   119955089.119        1087.852          46.000    22826704.477    93471541.931         847.677          30.000                  
G27  22178003.156   116546340.171        2235.883          49.000    22178008.055    90815242.388        1742.246          39.000                  
R14  20683986.914   110257291.322       -2899.648          53.000    20683986.352    20683992.316    85755702.682       -2259.466          47.000  
> 2010 01 02 00 02 25.0000000  0 10                     
G15  20618679.633   108351870.599        -494.063          50.000    20618683.383    84430066.336        -384.984          43.000    20618683.523  
G09  22404294.984   117735342.423        3584.316          49.000    22404298.922    91741867.695        2792.974          36.000                  
G17  24333302.961   127872652.250        3339.578          46.000    24333306.855    99640825.234        2602.269          27.000    24333307.066  
G22  24596445.313   129255155.646        2680.137          47.000    24596445.563   100718332.743        2088.418          27.000                  
G08  23300729.047   122446032.733       -3336.512          39.000    23300734.242    95412621.418       -2599.879          22.000                  
G28  21534829.844   113166186.171       -1085.359          52.000    21534832.703    88181565.563        -845.735          41.000                  
R15  19277635.914   103013774.386         895.414          51.000    19277635.590    19277639.895    80121904.620         697.725          49.000  
G18  22826494.961   119954001.671        1087.227          46.000    22826497.313    93470694.568         847.190          30.000                  
G27  22177577.719   116544104.461        2235.641          49.000    22177582.594    90813500.276        1742.058          39.000                  
R14  20684531.156   110260191.172       -2900.031          53.000    20684530.125    20684536.297    85757958.118       -2259.765          47.000  
> 2010 01 02 00 02 26.0000000  0 10                     
G15  20618774.094   108352365.090        -494.855          49.000    20618777.438    84430451.653        -385.602          43.000    20618777.488  
G09  22403613.266   117731758.251        3584.031          48.000    22403617.031    91739074.835        2792.752          36.000                  
G17  24332666.594   127869312.786        3339.316          46.000    24332671.461    99638223.047        2602.065          27.000    24332671.516  
G22  24595935.406   129252475.782        2679.676          46.000    24595935.520   100716244.537        2088.059          28.000                  
G08  23301363.758   122449369.428       -3336.887          40.000    23301369.012    95415221.432       -2600.171          22.000                  
G28  21535036.445   113167271.930       -1086.086          51.000    21535039.430    88182411.608        -846.301          41.000                  
R15  19277468.328   103012879.347         894.664          52.000    19277467.297    19277471.891    80121208.479         697.141          49.000  
G18  22826287.852   119952914.789        1086.570          46.000    22826290.602    93469847.639         846.678          29.000                  
G27  22177152.438   116541868.993        2235.215          49.000    22177156.949    90811758.358        1741.726          39.000                  
R14  20685074.891   110263091.333       -2900.359          53.000    20685074.211    20685080.527    85760213.797       -2260.020          47.000  
> 2010 01 02 00 02 27.0000000  0 10                     
G15  20618867.977   108352860.221        -495.367          49.000    20618871.707    84430837.465        -386.000          43.000    20618871.734  
G09  22402931.039   117728174.381        3583.773          48.000    22402934.875    91736282.207        2792.551          36.000                  
G17  24332031.359   127865973.568        3339.059          45.000    24332036.020    99635621.063        2601.864          27.000    24332036.020  
G22  24595425.250   129249796.385        2679.270          45.000    24595425.621   100714156.695        2087.742          27.000                  
G08  23301998.844   122452706.363       -3336.977          40.000    23302004.250    95417821.642       -2600.241          22.000                  
G28  21535242.898   113168358.293       -1086.590          51.000    21535246.043    88183258.124        -846.693          41.000                  
R15  19277301.219   103011984.976         894.094          52.000    19277300.539    19277304.719    80120512.860         696.696          49.000  
G18  22826081.602   119951828.596        1085.910          46.000    22826084.016    93469001.256         846.164          30.000                  
G27  22176727.266   116539633.855        2235.008          49.000    22176731.465    90810016.691        1741.565          39.000                  
R14  20685618.570   110265991.966       -2900.750          53.000    20685618.246    20685624.289    85762469.846       -2260.325          47.000  
> 2010 01 02 00 02 28.0000000  0 10                     
G15  20618962.555   108353355.921        -496.074          49.000    20618965.836    84431223.726        -386.551          43.000    20618965.887  
G09  22402249.336   117724590.740        3583.414          48.000    22402253.094    91733489.762        2792.271          36.000                  
G17  24331396.273   127862634.461        3338.969          46.000    24331400.793    99633019.157        2601.794          27.000    24331400.703  
G22  24594915.734   129247117.324        2678.879          46.000    24594915.836   100712069.109        2087.438          28.000                  
G08  23302633.523   122456043.462       -3337.195          40.000    23302638.941    95420421.975       -2600.412          22.000                  
G28  21535449.820   113169445.121       -1087.176          52.000    21535452.586    88184105.003        -847.150          41.000                  
R15  19277133.445   103011091.127         893.496          52.000    19277133.000    19277137.398    80119817.644         696.231          49.000  
G18  22825874.844   119950742.973        1085.270          46.000    22825877.258    93468155.307         845.665          30.000                  
G27  22176301.961   116537398.946        2234.691          49.000    22176306.586    90808275.206        1741.318          39.000                  
R14  20686163.414   110268892.913       -2901.219          52.000    20686162.969    20686169.203    85764726.135       -2260.690          47.000  
> 2010 01 02 00 02 29.0000000  0 10                     
G15  20619056.977   108353852.283        -496.664          49.000    20619060.281    84431610.501        -387.011          43.000    20619060.109  
G09  22401567.383   117721007.423        3583.211          47.000    22401571.383    91730697.568        2792.112          36.000                  
G17  24330760.867   127859295.615        3338.828          45.000    24330765.582    99630417.466        2601.684          27.000    24330765.316  
G22  24594405.570   129244438.743        2678.414          46.000    24594406.078   100709981.907        2087.076          27.000                  
G08  23303268.641   122459380.811       -3337.387          40.000    23303273.773    95423022.497       -2600.561          22.000                  
G28  21535656.594   113170532.550       -1087.684          51.000    21535660.148    88184952.349        -847.546          42.000                  
R15  19276966.617   103010197.953         892.926          52.000    19276966.410    19276970.547    80119122.952         695.786          49.000  
G18  22825668.203   119949658.007        1084.688          46.000    22825670.590    93467309.882         845.211          29.000                  
G27  22175876.398   116535164.368        2234.508          48.000    22175881.039    90806533.972        1741.175          39.000                  
R14  20686707.438   110271794.321       -2901.598          53.000    20686707.113    20686712.980    85766982.781       -2260.985          47.000  
> 2010 01 02 00 02 30.0000000  0 10                     
G15  20619151.609   108354349.350        -497.563          49.000    20619155.156    84431997.819        -387.711          43.000    20619155.230  
G09  22400885.453   117717424.451        3582.617          47.000    22400888.965    91727905.642        2791.650          36.000                  
G17  24330125.594   127855957.053        3338.219          46.000    24330130.441    99627815.997        2601.209          27.000    24330130.070  
G22  24593896.164   129241760.606        2677.797          46.000    24593896.266   100707895.048        2086.595          28.000                  
G08  23303904.789   122462718.437       -3337.977          40.000    23303908.980    95425623.248       -2601.021          22.000                  
G28  21535863.508   113171620.590       -1088.492          51.000    21535866.898    88185800.173        -848.176          41.000                  
R15  19276799.570   103009305.489         891.961          52.000    19276798.773    19276802.969    80118428.810         695.034          49.000  
G18  22825462.133   119948573.756        1083.805          47.000    22825464.316    93466465.005         844.523          30.000                  
G27  22175451.445   116532930.152        2233.965          48.000    22175455.793    90804793.029        1740.752          39.000                  
R14  20687251.992   110274696.175       -2902.207          53.000    20687251.078    20687257.395    85769239.777       -2261.460          47.000  
> 2010 01 02 00 02 31.0000000  0 10                     
G15  20619245.938   108354846.932        -497.906          49.000    20619249.660    84432385.547        -387.979          43.000    20619249.957  
G09  22400203.484   117713841.657        3582.648          48.000    22400207.445    91725113.854        2791.674          36.000                  
G17  24329490.219   127852618.577        3338.293          46.000    24329495.207    99625214.588        2601.267          28.000    24329494.883  
G22  24593386.352   129239082.815        2677.504          46.000    24593386.770   100705808.455        2086.367          29.000                  
G08  23304539.328   122466056.179       -3337.906          40.000    23304544.043    95428224.078       -2600.966          22.000                  
G28  21536070.734   113172709.075       -1088.836          51.000    21536074.086    88186648.344        -848.444          41.000                  
R15  19276633.359   103008413.516         891.570          51.000    19276632.211    19276636.531    80117735.057         694.730          49.000  
G18  22825255.758   119947490.043        1083.398          47.000    22825258.422    93465620.557         844.207          30.000                  
G27  22175026.398   116530696.123        2233.887          48.000    22175030.750    90803052.226        1740.691          39.000                  
R14  20687796.313   110277598.337       -2902.477          53.000    20687795.988    20687802.211    85771497.015       -2261.670          47.000  
> 2010 01 02 00 02 32.0000000  0 10                     
G15  20619341.227   108355345.046        -498.391          49.000    20619344.574    84432773.690        -388.356          43.000    20619344.523  
G09  22399521.898   117710259.068        3582.395          47.000    22399525.875    91722322.234        2791.476          36.000                  
G17  24328855.219   127849280.223        3338.250          46.000    24328859.574    99622613.269        2601.234          25.000    24328859.379  
G22  24592876.898   129236405.309        2677.328          46.000    24592877.715   100703722.084        2086.230          28.000                  
G08  23305174.883   122469394.046       -3338.008          40.000    23305179.203    95430825.011       -2601.045          22.000                  
G28  21536278.055   113173798.019       -1089.207          51.000    21536281.375    88187496.872        -848.733          41.000                  
R15  19276466.000   103007522.093         891.074          51.000    19276465.203    19276469.613    80117041.727         694.344          49.000  
G18  22825049.594   119946406.860        1082.793          46.000    22825052.148    93464776.523         843.735          30.000                  
G27  22174601.305   116528462.302        2233.723          49.000    22174605.648    90801311.588        1740.563          39.000                  
R14  20688340.680   110280500.780       -2902.617          53.000    20688340.000    20688346.934    85773754.468       -2261.780          47.000  
> 2010 01 02 00 02 33.0000000  0 10                     
G15  20619435.898   108355843.782        -499.016          49.000    20619439.367    84433162.315        -388.843          43.000    20619439.430  
G09  22398840.352   117706676.766        3582.242          47.000    22398844.094    91719530.827        2791.358          36.000                  
G17  24328219.750   127845942.051        3338.164          46.000    24328224.313    99620012.088        2601.167          26.000    24328224.199  
G22  24592367.703   129233728.227        2676.984          46.000    24592367.965   100701636.055        2085.962          28.000                  
G08  23305810.156   122472732.124       -3338.098          41.000    23305814.516    95433426.118       -2601.115          22.000                  
G28  21536485.375   113174887.509       -1089.707          51.000    21536488.340    88188345.824        -849.122          41.000                  
R15  19276299.742   103006631.311         890.512          52.000    19276298.828    19276303.121    80116348.895         693.905          49.000  
G18  22824843.570   119945324.341        1082.270          47.000    22824846.453    93463933.007         843.327          30.000                  
G27  22174176.156   116526228.779        2233.441          49.000    22174180.441    90799571.178        1740.344          39.000                  
R14  20688885.445   110283403.611       -2902.910          53.000    20688884.766    20688891.047    85776012.225       -2262.008          47.000  
> 2010 01 02 00 02 34.0000000  0 10                     
G15  20619530.875   108356343.255        -499.816          49.000    20619533.852    84433551.515        -389.467          43.000    20619533.930  
G09  22398158.523   117703094.821        3581.766          47.000    22398162.730    91716739.701        2790.986          36.000                  
G17  24327584.688   127842604.182        3337.676          45.000    24327589.090    99617411.152        2600.786          26.000    24327589.172  
G22  24591858.719   129231051.647        2676.316          46.000    24591859.371   100699550.412        2085.441          29.000                  
G08  23306445.195   122476070.504       -3338.516          41.000    23306449.832    95436027.452       -2601.441          22.000                  
G28  21536692.578   113175977.640       -1090.430          52.000    21536695.762    88189195.282        -849.685          41.000                  
R15  19276132.891   103005741.243         889.770          51.000    19276132.211    19276136.523    80115656.619         693.327          49.000  
G18  22824637.961   119944242.530        1081.488          47.000    22824640.805    93463090.034         842.718          29.000                  
G27  22173751.391   116523995.621        2232.988          49.000    22173755.957    90797831.058        1739.991          39.000                  
R14  20689429.680   110286306.938       -2903.559          53.000    20689429.473    20689435.750    85778270.372       -2262.513          47.000  
> 2010 01 02 00 02 35.0000000  0 10                     
G15  20619625.938   108356843.155        -500.090          49.000    20619629.168    84433941.042        -389.680          43.000    20619629.336  
G09  22397476.828   117699512.985        3581.742          47.000    22397480.688    91713948.662        2790.968          36.000                  
G17  24326949.922   127839266.350        3337.797          45.000    24326953.680    99614810.242        2600.881          26.000    24326953.918  
G22  24591349.258   129228375.308        2676.254          46.000    24591349.641   100697464.957        2085.393          28.000                  
G08  23307080.445   122479408.911       -3338.406          41.000    23307084.680    95438628.821       -2601.355          22.000                  
G28  21536900.281   113177068.148       -1090.715          52.000    21536903.617    88190045.024        -849.908          41.000                  
R15  19275966.023   103004851.643         889.355          51.000    19275965.934    19275970.215    80114964.711         693.004          49.000  
G18  22824432.094   119943161.188        1081.137          47.000    22824434.598    93462247.428         842.444          30.000                  
G27  22173326.219   116521762.592        2232.926          49.000    22173331.086    90796091.036        1739.942          39.000                  
R14  20689974.445   110289210.482       -2903.684          53.000    20689974.590    20689980.684    85780528.682       -2262.611          47.000  
> 2010 01 02 00 02 36.0000000  0 10                     
G15  20619721.586   108357343.775        -500.930          49.000    20619724.391    84434331.136        -390.335          43.000    20619724.254  
G09  22396795.484   117695931.523        3581.332          47.000    22396798.891    91711157.917        2790.648          37.000                  
G17  24326314.367   127835928.789        3337.430          44.000    24326318.840    99612209.551        2600.594          26.000    24326318.988  
G22  24590840.375   129225699.478        2675.609          47.000    24590840.770   100695379.898        2084.890          28.000                  
G08  23307715.695   122482747.643       -3338.797          41.000    23307720.270    95441230.438       -2601.660          22.000                  
G28  21537107.641   113178159.293       -1091.422          52.000    21537111.281    88190895.271        -850.459          41.000                  
R15  19275800.438   103003962.738         888.637          51.000    19275799.406    19275803.426    80114273.343         692.444          49.000  
G18  22824226.242   119942080.559        1080.320          47.000    22824229.090    93461405.375         841.808          30.000                  
G27  22172901.391   116519529.933        2232.492          49.000    22172906.141    90794351.302        1739.604          39.000                  
R14  20690519.031   110292114.510       -2904.234          53.000    20690519.059    20690525.547    85782787.371       -2263.040          47.000  
> 2010 01 02 00 02 37.0000000  0 10                     
G15  20619816.789   108357844.981        -501.516          49.000    20619819.676    84434721.687        -390.791          43.000    20619819.824  
G09  22396113.977   117692350.307        3581.027          47.000    22396117.723    91708367.354        2790.411          36.000                  
G17  24325679.805   127832591.386        3337.324          45.000    24325684.008    99609608.978        2600.512          27.000    24325684.102  
G22  24590331.141   129223024.020        2675.199          47.000    24590331.301   100693295.124        2084.571          28.000                  
G08  23308351.156   122486086.538       -3338.973          40.000    23308355.422    95443832.181       -2601.797          22.000                  
G28  21537315.563   113179250.942       -1091.875          52.000    21537318.879    88191745.910        -850.812          41.000                  
R15  19275633.977   103003074.416         888.004          52.000    19275633.180    19275637.156    80113582.425         691.951          49.000  
G18  22824020.664   119941000.517        1079.699          47.000    22824023.309    93460563.786         841.324          30.000                  
G27  22172476.641   116517297.532        2232.211          49.000    22172481.461    90792611.768        1739.385          39.000                  
R14  20691064.375   110295018.893       -2904.645          53.000    20691063.344    20691070.141    85785046.334       -2263.359          47.000  
> 2010 01 02 00 02 38.0000000  0 10                     
G15  20619912.398   108358346.849        -502.258          50.000    20619915.742    84435112.757        -391.370          43.000    20619915.758  
G09  22395432.234   117688769.397        3580.789          48.000    22395436.316    91705577.036        2790.225          36.000                  
G17  24325044.219   127829254.243        3337.012          45.000    24325048.828    99607008.613        2600.269          27.000    24325049.078  
G22  24589821.688   129220348.981        2674.855          47.000    24589822.250   100691210.676        2084.303          28.000                  
G08  23308986.523   122489425.683       -3339.332          41.000    23308990.508    95446434.115       -2602.077          22.000                  
G28  21537523.508   113180343.193       -1092.559          51.000    21537526.668    88192597.009        -851.344          41.000                  
R15  19275467.578   103002186.761         887.371          52.000    19275467.016    19275471.156    80112892.029         691.458          49.000  
G18  22823815.609   119939921.139        1079.008          47.000    22823818.047    93459722.711         840.785          30.000                  
G27  22172052.203   116515065.457        2231.887          49.000    22172056.617    90790872.487        1739.133          39.000                  
R14  20691609.297   110297923.700       -2905.004          53.000    20691609.207    20691615.477    85787305.630       -2263.639          47.000  
> 2010 01 02 00 02 39.0000000  0 10                     
G15  20620007.680   108358849.328        -502.820          49.000    20620010.988    84435504.297        -391.808          43.000    20620011.227  
G09  22394750.789   117685188.765        3580.566          47.000    22394754.961    91702786.929        2790.052          36.000                  
G17  24324409.344   127825917.261        3336.914          45.000    24324413.578    99604408.360        2600.193          27.000    24324413.902  
G22  24589312.875   129217674.362        2674.434          47.000    24589313.441   100689126.553        2083.974          29.000                  
G08  23309622.031   122492765.028       -3339.438          41.000    23309626.094    95449036.185       -2602.159          23.000                  
G28  21537731.625   113181435.971       -1093.039          51.000    21537734.719    88193448.530        -851.719          41.000                  
R15  19275301.094   103001299.711         886.785          52.000    19275300.887    19275304.965    80112202.097         691.001          49.000  
G18  22823610.141   119938842.396        1078.484          47.000    22823612.719    93458882.133         840.377          30.000                  
G27  22171627.172   116512833.655        2231.668          50.000    22171632.293    90789133.425        1738.962          39.000                  
R14  20692154.430   110300828.916       -2905.418          53.000    20692153.750    20692159.973    85789565.238       -2263.962          47.000  
> 2010 01 02 00 02 40.0000000  0 10                     
G15  20620103.609   108359352.443        -503.457          49.000    20620106.805    84435896.331        -392.304          43.000    20620106.859  
G09  22394069.953   117681608.449        3580.129          47.000    22394073.629    91699997.077        2789.711          36.000                  
G17  24323774.281   127822580.516        3336.660          46.000    24323778.941    99601808.300        2599.995          26.000    24323778.918  
G22  24588803.602   129215000.182        2674.004          46.000    24588804.531   100687042.778        2083.639          29.000                  
G08  23310257.508   122496104.592       -3339.711          42.000    23310261.629    95451638.432       -2602.372          23.000                  
G28  21537939.945   113182529.297       -1093.602          51.000    21537943.063    88194300.465        -852.157          41.000                  
R15  19275135.398   103000413.310         886.078          52.000    19275134.602    19275139.023    80111512.679         690.451          49.000  
G18  22823404.984   119937764.286        1077.859          47.000    22823407.887    93458042.052         839.890          30.000                  
G27  22171202.695   116510602.173        2231.285          49.000    22171207.246    90787394.605        1738.664          39.000                  
R14  20692699.328   110303734.524       -2905.879          53.000    20692698.766    20692705.406    85791825.148       -2264.321          47.000  
> 2010 01 02 00 02 41.0000000  0 10                     
G15  20620199.414   108359856.162        -503.988          49.000    20620202.953    84436288.833        -392.718          43.000    20620203.070  
G09  22393388.227   117678028.367        3579.961          46.000    22393392.629    91697207.405        2789.580          36.000                  
G17  24323139.313   127819243.949        3336.508          46.000    24323143.383    99599208.378        2599.876          26.000    24323143.363  
G22  24588294.891   129212326.359        2673.680          46.000    24588295.449   100684959.274        2083.387          28.000                  
G08  23310892.516   122499444.305       -3339.816          42.000    23310897.094    95454240.815       -2602.454          22.000                  
G28  21538147.445   113183623.138       -1094.074          52.000    21538150.719    88195152.810        -852.525          41.000                  
R15  19274970.133   102999527.474         885.574          51.000    19274969.336    19274973.801    80110823.691         690.058          49.000  
G18  22823199.953   119936686.779        1077.246          47.000    22823202.629    93457202.433         839.413          31.000                  
G27  22170778.234   116508370.914        2231.133          49.000    22170782.457    90785655.962        1738.545          39.000                  
R14  20693244.703   110306640.482       -2906.125          53.000    20693244.258    20693250.883    85794085.340       -2264.513          47.000  
> 2010 01 02 00 02 42.0000000  0 10                     
G15  20620295.320   108360360.513        -504.738          49.000    20620299.023    84436681.836        -393.303          43.000    20620298.859  
G09  22392707.422   117674448.596        3579.574          46.000    22392711.238    91694417.977        2789.279          36.000                  
G17  24322504.328   127815907.617        3336.184          46.000    24322508.906    99596608.632        2599.624          27.000    24322509.273  
G22  24587785.961   129209652.988        2673.191          46.000    24587786.996   100682876.129        2083.006          29.000                  
G08  23311528.359   122502784.290       -3340.172          41.000    23311532.738    95456843.423       -2602.731          23.000                  
G28  21538355.984   113184717.560       -1094.723          51.000    21538358.824    88196005.607        -853.031          41.000                  
R15  19274804.273   102998642.295         884.797          51.000    19274803.242    19274807.688    80110135.219         689.452          49.000  
G18  22822995.305   119935609.947        1076.398          47.000    22822997.566    93456363.344         838.752          30.000                  
G27  22170353.414   116506140.012        2230.707          49.000    22170358.508    90783917.598        1738.213          39.000                  
R14  20693789.422   110309546.879       -2906.648          53.000    20693789.801    20693796.207    85796345.867       -2264.921          47.000  
> 2010 01 02 00 02 43.0000000  0 10                     
G15  20620391.383   108360865.371        -505.117          50.000    20620394.668    84437075.230        -393.598          43.000    20620394.500  
G09  22392026.055   117670868.988        3579.469          47.000    22392030.094    91691628.672        2789.197          36.000                  
G17  24321869.695   127812571.350        3336.129          46.000    24321873.969    99594008.946        2599.581          26.000    24321874.074  
G22  24587277.820   129206979.925        2672.844          46.000    24587278.625   100680793.224        2082.735          29.000                  
G08  23312162.922   122506124.357       -3340.180          41.000    23312168.199    95459446.075       -2602.737          22.000                  
G28  21538564.070   113185812.398       -1095.008          51.000    21538567.586    88196858.731        -853.253          41.000                  
R15  19274638.680   102997757.646         884.301          51.000    19274638.473    19274642.473    80109447.163         689.066          49.000  
G18  22822790.750   119934533.579        1076.105          47.000    22822793.039    93455524.612         838.524          31.000                  
G27  22169928.922   116503909.262        2230.594          49.000    22169933.660    90782179.356        1738.125          39.000                  
R14  20694335.234   110312453.542       -2906.863          53.000    20694335.027    20694341.172    85798606.607       -2265.088          47.000  
> 2010 01 02 00 02 44.0000000  0 10                     
G15  20620487.641   108361370.889        -505.973          50.000    20620491.328    84437469.135        -394.264          43.000    20620491.691  
G09  22391344.961   117667289.697        3579.012          47.000    22391348.887    91688839.613        2788.840          37.000                  
G17  24321234.625   127809235.311        3335.824          45.000    24321239.012    99591409.434        2599.344          26.000    24321239.039  
G22  24586768.656   129204307.281        2672.293          46.000    24586769.813   100678710.635        2082.306          29.000                  
G08  23312798.930   122509464.684       -3340.461          40.000    23312804.152    95462048.932       -2602.957          22.000                  
G28  21538772.813   113186907.835       -1095.758          51.000    21538776.063    88197712.315        -853.837          41.000                  
R15  19274473.055   102996873.656         883.523          51.000    19274472.141    19274476.441    80108759.612         688.460          49.000  
G18  22822586.031   119933457.910        1075.238          47.000    22822587.957    93454686.429         837.848          30.000                  
G27  22169504.945   116501678.831        2230.227          49.000    22169509.832    90780441.358        1737.839          39.000                  
R14  20694879.852   110315360.605       -2907.406          53.000    20694880.230    20694886.449    85800867.658       -2265.511          47.000  
> 2010 01 02 00 02 45.0000000  0 10                     
G15  20620584.125   108361877.109        -506.328          49.000    20620587.230    84437863.596        -394.541          43.000    20620587.246  
G09  22390664.047   117663710.769        3578.965          48.000    22390667.848    91686050.839        2788.804          36.000                  
G17  24320599.703   127805899.578        3335.898          45.000    24320604.156    99588810.162        2599.401          28.000    24320604.242  
G22  24586260.219   129201635.142        2672.180          46.000    24586261.211   100676628.454        2082.218          30.000                  
G08  23313434.648   122512805.276       -3340.488          41.000    23313440.066    95464651.981       -2602.978          22.000                  
G28  21538981.500   113188003.896       -1096.117          51.000    21538984.648    88198566.386        -854.117          41.000                  
R15  19274307.984   102995990.400         883.152          51.000    19274307.070    19274311.238    80108072.638         688.171          49.000  
G18  22822381.070   119932382.950        1074.840          47.000    22822383.594    93453848.800         837.538          29.000                  
G27  22169080.070   116499448.785        2230.129          49.000    22169084.910    90778703.659        1737.763          39.000                  
R14  20695425.828   110318268.176       -2907.563          53.000    20695425.855    20695431.906    85803129.106       -2265.633          47.000  
> 2010 01 02 00 02 46.0000000  0 10                     
G15  20620680.297   108362383.914        -507.141          49.000    20620683.820    84438258.509        -395.174          43.000    20620683.852  
G09  22389983.273   117660132.078        3578.664          47.000    22389987.117    91683262.248        2788.569          36.000                  
G17  24319965.250   127802563.990        3335.504          45.000    24319969.449    99586211.013        2599.094          27.000    24319969.504  
G22  24585752.273   129198963.364        2671.594          47.000    24585753.063   100674546.557        2081.761          29.000                  
G08  23314069.883   122516146.037       -3340.969          40.000    23314075.227    95467255.159       -2603.352          22.000                  
G28  21539190.117   113189100.426       -1096.730          51.000    21539193.453    88199420.827        -854.595          41.000                  
R15  19274142.750   102995107.721         882.387          51.000    19274141.953    19274146.145    80107386.112         687.574          49.000  
G18  22822176.695   119931308.580        1074.023          47.000    22822179.117    93453011.623         836.901          29.000                  
G27  22168655.813   116497218.959        2229.641          48.000    22168660.891    90776966.134        1737.382          39.000                  
R14  20695971.070   110321176.076       -2908.090          53.000    20695971.566    20695977.391    85805390.805       -2266.044          47.000  
> 2010 01 02 00 02 47.0000000  0 10                     
G15  20620777.125   108362891.245        -507.707          49.000    20620780.191    84438653.832        -395.616          43.000    20620780.145  
G09  22389302.164   117656553.605        3578.246          47.000    22389305.703    91680473.832        2788.244          36.000                  
G17  24319330.438   127799228.526        3335.371          45.000    24319334.723    99583611.957        2598.990          27.000    24319334.848  
G22  24585243.648   129196291.924        2671.219          47.000    24585244.410   100672464.920        2081.469          29.000                  
G08  23314706.250   122519486.927       -3340.984          40.000    23314711.258    95469858.458       -2603.365          22.000                  
G28  21539399.195   113190197.456       -1097.352          51.000    21539402.070    88200275.657        -855.079          41.000                  
R15  19273977.641   102994225.615         881.750          51.000    19273976.727    19273981.129    80106700.026         687.078          49.000  
G18  22821972.602   119930234.744        1073.449          47.000    22821974.801    93452174.860         836.454          30.000                  
G27  22168231.375   116494989.357        2229.457          48.000    22168236.316    90775228.783        1737.239          39.000                  
R14  20696517.258   110324084.303       -2908.457          53.000    20696516.695    20696522.758    85807652.764       -2266.330          47.000  
> 2010 01 02 00 02 48.0000000  0 10                     
G15  20620874.133   108363399.253        -508.285          49.000    20620877.094    84439049.679        -396.066          43.000    20620877.137  
G09  22388621.273   117652975.451        3577.988          47.000    22388625.234    91677685.662        2788.043          36.000                  
G17  24318695.422   127795893.307        3335.113          45.000    24318699.727    99581013.092        2598.790          26.000    24318700.039  
G22  24584735.672   129193620.941        2670.758          47.000    24584736.273   100670383.635        2081.110          29.000                  
G08  23315341.211   122522828.076       -3341.160          39.000    23315347.176    95472461.969       -2603.501          22.000                  
G28  21539607.734   113191295.072       -1097.910          51.000    21539610.961    88201130.941        -855.514          41.000                  
R15  19273812.820   102993344.168         881.125          51.000    19273812.141    19273816.348    80106014.458         686.591          49.000  
G18  22821767.992   119929161.588        1072.828          47.000    22821770.145    93451338.639         835.970          31.000                  
G27  22167807.039   116492760.095        2229.074          49.000    22167812.367    90773491.695        1736.941          39.000                  
R14  20697062.695   110326992.976       -2908.922          53.000    20697062.133    20697068.086    85809915.061       -2266.692          47.000  
> 2010 01 02 00 02 49.0000000  0 10                     
G15  20620970.469   108363907.864        -508.816          50.000    20620973.508    84439446.002        -396.480          43.000    20620973.527  
G09  22387940.289   117649397.568        3577.707          47.000    22387944.211    91674897.698        2787.824          36.000                  
G17  24318060.695   127792558.308        3334.867          45.000    24318065.574    99578414.383        2598.598          26.000    24318065.824  
G22  24584227.344   129190950.352        2670.406          47.000    24584228.176   100668302.655        2080.836          29.000                  
G08  23315977.281   122526169.448       -3341.516          40.000    23315982.941    95475065.635       -2603.778          22.000                  
G28  21539816.719   113192393.194       -1098.266          52.000    21539819.680    88201986.621        -855.791          41.000                  
R15  19273647.820   102992463.347         880.551          51.000    19273646.789    19273651.195    80105329.378         686.143          49.000  
G18  22821564.266   119928089.047        1072.297          46.000    22821566.543    93450502.895         835.556          30.000                  
G27  22167383.203   116490531.100        2228.859          49.000    22167388.090    90771754.818        1736.774          39.000                  
R14  20697608.680   110329902.035       -2909.184          53.000    20697608.117    20697613.875    85812177.663       -2266.896          47.000  
> 2010 01 02 00 02 50.0000000  0 10                     
G15  20621067.406   108364416.969        -509.434          50.000    20621070.602    84439842.701        -396.961          43.000    20621070.750  
G09  22387259.742   117645819.823        3577.672          47.000    22387263.555    91672109.845        2787.796          36.000                  
G17  24317425.898   127789223.346        3334.805          45.000    24317430.902    99575815.702        2598.549          27.000    24317431.277  
G22  24583719.336   129188280.037        2670.113          46.000    24583720.000   100666221.889        2080.608          30.000                  
G08  23316613.133   122529510.890       -3341.551          40.000    23316619.008    95477669.360       -2603.806          22.000                  
G28  21540025.445   113193491.757       -1098.848          52.000    21540028.438    88202842.641        -856.245          41.000                  
R15  19273482.836   102991583.012         880.008          52.000    19273481.688    19273486.098    80104644.674         685.720          49.000  
G18  22821359.883   119927017.013        1071.758          47.000    22821362.281    93449667.541         835.136          30.000                  
G27  22166959.258   116488302.269        2228.715          49.000    22166964.141    90770018.065        1736.661          39.000                  
R14  20698153.539   110332811.356       -2909.531          53.000    20698154.152    20698159.824    85814440.470       -2267.167          47.000  
> 2010 01 02 00 02 51.0000000  0 10                     
G15  20621164.352   108364926.741        -509.984          50.000    20621167.695    84440239.926        -397.390          43.000    20621167.539  
G09  22386578.438   117642242.414        3577.344          47.000    22386582.910    91669322.257        2787.541          37.000                  
G17  24316791.141   127785888.640        3334.742          44.000    24316796.277    99573217.227        2598.500          26.000    24316796.430  
G22  24583211.375   129185610.201        2669.766          47.000    24583211.605   100664141.485        2080.337          29.000                  
G08  23317248.398   122532852.581       -3341.594          39.000    23317254.781    95480273.260       -2603.839          22.000                  
G28  21540234.867   113194590.920       -1099.395          51.000    21540237.945    88203699.133        -856.671          41.000                  
R15  19273318.219   102990703.359         879.367          52.000    19273317.895    19273322.457    80103960.495         685.221          49.000  
G18  22821156.281   119925945.663        1071.133          47.000    22821158.367    93448832.726         834.649          29.000                  
G27  22166534.695   116486073.769        2228.402          49.000    22166539.961    90768281.573        1736.417          39.000                  
R14  20698700.320   110335721.136       -2909.867          53.000    20698699.641    20698705.469    85816703.631       -2267.429          47.000  
> 2010 01 02 00 02 52.0000000  0 10                     
G15  20621261.789   108365437.293        -510.965          50.000    20621264.723    84440637.755        -398.154          43.000    20621264.801  
G09  22385898.258   117638665.444        3576.742          47.000    22385901.984    91666535.009        2787.072          37.000                  
G17  24316157.172   127782554.284        3334.168          45.000    24316161.656    99570619.030        2598.053          26.000    24316161.656  
G22  24582702.828   129182940.901        2669.023          47.000    24582704.035   100662061.508        2079.759          30.000                  
G08  23317884.609   122536194.632       -3342.129          39.000    23317890.953    95482877.440       -2604.256          22.000                  
G28  21540444.180   113195690.753       -1100.137          51.000    21540447.566    88204556.149        -857.249          41.000                  
R15  19273153.734   102989824.454         878.469          52.000    19273153.289    19273157.941    80103276.909         684.521          49.000  
G18  22820952.453   119924875.077        1070.215          47.000    22820954.617    93447998.500         833.934          30.000                  
G27  22166111.055   116483845.701        2227.863          49.000    22166116.176    90766545.419        1735.997          39.000                  
R14  20699245.609   110338631.432       -2910.520          53.000    20699245.754    20699251.313    85818967.189       -2267.937          47.000  
> 2010 01 02 00 02 53.0000000  0 10                     
G15  20621358.695   108365948.355        -511.391          50.000    20621361.934    84441035.984        -398.486          43.000    20621361.934  
G09  22385217.703   117635088.659        3576.555          47.000    22385221.074    91663747.907        2786.926          36.000                  
G17  24315523.141   127779220.035        3334.098          44.000    24315527.453    99568020.914        2597.998          26.000    24315527.723  
G22  24582195.570   129180271.931        2668.711          47.000    24582195.992   100659981.788        2079.515          29.000                  
G08  23318520.180   122539536.804       -3342.258          39.000    23318526.324    95485481.721       -2604.357          22.000                  
G28  21540653.586   113196791.057       -1100.633          51.000    21540656.820    88205413.527        -857.636          41.000                  
R15  19272989.656   102988946.049         878.129          52.000    19272988.742    19272993.219    80102593.701         684.256          49.000  
G18  22820748.906   119923805.047        1069.707          47.000    22820751.344    93447164.713         833.538          29.000                  
G27  22165686.922   116481617.843        2227.676          49.000    22165691.758    90764809.427        1735.851          39.000                  
R14  20699791.992   110341542.047       -2910.848          53.000    20699791.547    20699797.156    85821230.999       -2268.193          47.000  
> 2010 01 02 00 02 54.0000000  0 10                     
G15  20621456.000   108366459.995        -511.961          50.000    20621459.406    84441434.670        -398.931          43.000    20621459.551  
G09  22384536.727   117631512.088        3576.414          48.000    22384540.570    91660960.966        2786.816          37.000                  
G17  24314888.781   127775885.939        3333.996          44.000    24314892.531    99565422.916        2597.919          27.000    24314892.887  
G22  24581687.398   129177603.311        2668.367          47.000    24581688.063   100657902.357        2079.247          30.000                  
G08  23319156.508   122542879.168       -3342.527          38.000    23319162.824    95488086.153       -2604.567          22.000                  
G28  21540863.016   113197891.843       -1101.063          51.000    21540866.180    88206271.280        -857.971          41.000                  
R15  19272825.586   102988068.221         877.496          52.000    19272825.141    19272829.191    80101910.943         683.763          49.000  
G18  22820545.469   119922735.579        1069.168          47.000    22820547.652    93446331.357         833.118          29.000                  
G27  22165263.094   116479390.201        2227.516          49.000    22165267.762    90763073.603        1735.726          39.000                  
R14  20700338.063   110344452.982       -2911.117          53.000    20700337.973    20700343.574    85823495.062       -2268.403          47.000  
> 2010 01 02 00 02 55.0000000  0 10                     
G15  20621553.547   108366972.328        -512.633          50.000    20621556.531    84441833.885        -399.454          43.000    20621556.730  
G09  22383856.375   117627935.902        3576.020          47.000    22383860.309    91658174.331        2786.509          36.000                  
G17  24314254.180   127772552.109        3333.754          45.000    24314258.785    99562825.120        2597.730          27.000    24314259.215  
G22  24581180.016   129174935.177        2667.973          47.000    24581180.512   100655823.294        2078.940          29.000                  
G08  23319793.539   122546221.777       -3342.793          39.000    23319798.625    95490690.778       -2604.774          22.000                  
G28  21541072.586   113198993.234       -1101.578          51.000    21541075.480    88207129.510        -858.373          41.000                  
R15  19272661.133   102987191.082         876.809          52.000    19272660.102    19272664.957    80101228.732         683.227          49.000  
G18  22820341.758   119921666.810        1068.512          47.000    22820343.930    93445498.548         832.607          30.000                  
G27  22164839.023   116477162.944        2227.086          49.000    22164844.359    90761338.080        1735.392          39.000                  
R14  20700884.813   110347364.413       -2911.582          53.000    20700883.898    20700889.656    85825759.512       -2268.765          47.000  
> 2010 01 02 00 02 56.0000000  0 10                     
G15  20621651.047   108367485.212        -513.227          50.000    20621654.523    84442233.532        -399.917          43.000    20621654.645  
G09  22383175.852   117624359.902        3575.805          47.000    22383179.844    91655387.836        2786.341          36.000                  
G17  24313620.125   127769218.403        3333.617          45.000    24313624.117    99560227.436        2597.624          27.000    24313624.551  
G22  24580672.430   129172267.389        2667.574          47.000    24580672.941   100653744.493        2078.629          30.000                  
G08  23320430.633   122549564.509       -3342.902          39.000    23320434.996    95493295.504       -2604.859          22.000                  
G28  21541282.281   113200095.136       -1102.219          52.000    21541285.559    88207988.133        -858.872          41.000                  
R15  19272496.555   102986314.467         876.234          51.000    19272496.230    19272500.805    80100546.922         682.780          49.000  
G18  22820138.867   119920598.614        1067.848          47.000    22820140.742    93444666.193         832.089          29.000                  
G27  22164415.516   116474935.898        2226.789          48.000    22164420.238    90759602.717        1735.160          40.000                  
R14  20701430.133   110350276.134       -2911.992          53.000    20701430.043    20701435.762    85828024.186       -2269.085          47.000  
> 2010 01 02 00 02 57.0000000  0 10                     
G15  20621749.000   108367998.732        -513.887          50.000    20621752.344    84442633.681        -400.431          43.000    20621752.797  
G09  22382495.547   117620784.213        3575.520          47.000    22382499.234    91652601.585        2786.119          36.000                  
G17  24312985.242   127765884.905        3333.422          45.000    24312989.723    99557629.904        2597.472          27.000    24312989.871  
G22  24580164.586   129169600.018        2667.172          47.000    24580165.117   100651666.018        2078.316          29.000                  
G08  23321066.578   122552907.438       -3342.988          39.000    23321070.727    95495900.386       -2604.926          22.000                  
G28  21541492.086   113201197.556       -1102.711          51.000    21541494.973    88208847.162        -859.255          41.000                  
R15  19272333.172   102985438.506         875.664          51.000    19272332.375    19272336.746    80099865.617         682.336          49.000  
G18  22819935.734   119919531.058        1067.227          47.000    22819937.563    93443834.332         831.605          30.000                  
G27  22163991.867   116472709.155        2226.547          48.000    22163996.699    90757867.599        1734.972          39.000                  
R14  20701976.797   110353188.254       -2912.297          53.000    20701976.473    20701982.238    85830289.168       -2269.322          47.000  
> 2010 01 02 00 02 58.0000000  0 10                     
G15  20621846.547   108368512.866        -514.453          50.000    20621849.984    84443034.309        -400.873          43.000    20621849.973  
G09  22381815.414   117617208.785        3575.324          47.000    22381819.297    91649815.538        2785.967          36.000                  
G17  24312351.180   127762551.614        3333.270          46.000    24312355.410    99555032.527        2597.353          26.000    24312355.648  
G22  24579657.000   129166933.068        2666.699          47.000    24579658.082   100649587.868        2077.948          30.000                  
G08  23321702.211   122556250.593       -3343.176          39.000    23321706.730    95498505.441       -2605.072          22.000                  
G28  21541702.227   113202300.523       -1103.234          51.000    21541705.281    88209706.618        -859.663          41.000                  
R15  19272169.484   102984563.169         874.965          51.000    19272168.805    19272173.523    80099184.797         681.791          49.000  
G18  22819732.625   119918464.132        1066.629          47.000    22819734.773    93443002.963         831.139          30.000                  
G27  22163568.203   116470482.681        2226.328          48.000    22163573.313    90756132.681        1734.801          39.000                  
R14  20702523.063   110356100.772       -2912.711          52.000    20702522.500    20702528.230    85832554.465       -2269.645          47.000  
> 2010 01 02 00 02 59.0000000  0 10                     
G15  20621944.563   108369027.614        -515.078          50.000    20621947.953    84443435.410        -401.360          43.000    20621948.129  
G09  22381134.555   117613633.645        3574.953          47.000    22381138.461    91647029.716        2785.678          36.000                  
G17  24311716.852   127759218.512        3332.973          45.000    24311721.539    99552435.314        2597.122          26.000    24311721.898  
G22  24579149.516   129164266.507        2666.344          46.000    24579150.621   100647510.035        2077.670          30.000                  
G08  23322338.984   122559593.963       -3343.484          39.000    23322343.535    95501110.666       -2605.313          21.000                  
G28  21541911.820   113203404.038       -1103.816          51.000    21541914.930    88210566.502        -860.117          41.000                  
R15  19272005.813   102983688.471         874.320          52.000    19272004.664    19272009.340    80098504.478         681.289          49.000  
G18  22819529.625   119917397.833        1065.953          47.000    22819531.680    93442172.076         830.613          30.000                  
G27  22163144.469   116468256.505        2225.941          48.000    22163149.598    90754398.003        1734.500          39.000                  
R14  20703070.398   110359013.688       -2913.098          53.000    20703069.484    20703075.105    85834820.064       -2269.946          47.000  
> 2010 01 02 00 03 00.0000000  0 10                     
G15  20622042.820   108369542.985        -515.707          50.000    20622045.965    84443836.999        -401.850          43.000    20622046.230  
G09  22380454.516   117610058.775        3574.695          46.000    22380458.508    91644244.099        2785.477          36.000                  
G17  24311082.680   127755885.625        3332.703          45.000    24311087.301    99549838.266        2596.912          25.000    24311087.637  
G22  24578642.453   129161600.347        2665.895          46.000    24578642.906   100645432.504        2077.320          29.000                  
G08  23322974.656   122562937.558       -3343.770          39.000    23322979.660    95503716.069       -2605.535          21.000                  
G28  21542121.930   113204508.085       -1104.293          51.000    21542125.133    88211426.798        -860.488          41.000                  
R15  19271841.859   102982814.381         873.719          52.000    19271841.535    19271845.879    80097824.628         680.820          49.000  
G18  22819327.070   119916332.170        1065.258          47.000    22819328.930    93441341.684         830.071          30.000                  
G27  22162720.867   116466030.625        2225.621          49.000    22162725.695    90752663.552        1734.250          39.000                  
R14  20703616.289   110361926.981       -2913.520          53.000    20703615.727    20703621.523    85837085.957       -2270.275          47.000  
> 2010 01 02 00 03 01.0000000  0 10                     
G15  20622141.109   108370058.889        -516.227          49.000    20622144.156    84444239.001        -402.254          43.000    20622144.469  
G09  22379774.289   117606484.098        3574.602          47.000    22379778.238    91641458.637        2785.404          36.000                  
G17  24310447.969   127752552.835        3332.680          46.000    24310452.832    99547241.289        2596.893          26.000    24310453.242  
G22  24578135.016   129158934.518        2665.668          47.000    24578135.633   100643355.242        2077.144          29.000                  
G08  23323611.930   122566281.261       -3343.738          39.000    23323615.824    95506321.542       -2605.510          21.000                  
G28  21542332.266   113205612.614       -1104.809          51.000    21542335.457    88212287.466        -860.890          41.000                  
R15  19271678.836   102981940.820         873.258          51.000    19271677.805    19271682.523    80097145.196         680.461          49.000  
G18  22819124.211   119915267.016        1064.836          47.000    22819126.441    93440511.697         829.742          30.000                  
G27  22162297.398   116463804.927        2225.586          49.000    22162302.184    90750929.240        1734.223          39.000                  
R14  20704163.094   110364840.582       -2913.785          53.000    20704162.180    20704168.148    85839352.092       -2270.482          47.000  
> 2010 01 02 00 03 02.0000000  0 10                     
G15  20622239.156   108370575.477        -516.895          49.000    20622242.742    84444641.536        -402.775          43.000    20622243.059  
G09  22379093.922   117602909.805        3574.156          47.000    22379097.789    91638673.475        2785.057          36.000                  
G17  24309814.352   127749220.331        3332.387          45.000    24309818.754    99544644.530        2596.665          27.000    24309819.020  
G22  24577628.023   129156269.181        2665.137          47.000    24577628.805   100641278.353        2076.730          29.000                  
G08  23324247.953   122569625.212       -3344.063          39.000    23324252.418    95508927.206       -2605.763          22.000                  
G28  21542542.398   113206717.729       -1105.434          52.000    21542545.961    88213148.598        -861.377          41.000                  
R15  19271514.953   102981067.939         872.543          52.000    19271513.688    19271518.410    80096466.290         679.904          49.000  
G18  22818921.297   119914202.599        1064.055          48.000    22818923.438    93439682.278         829.134          30.000                  
G27  22161873.813   116461579.603        2225.168          49.000    22161879.012    90749195.222        1733.897          39.000                  
R14  20704708.727   110367754.652       -2914.277          53.000    20704708.754    20704714.551    85841618.589       -2270.865          47.000  
> 2010 01 02 00 03 03.0000000  0 10                     
G15  20622337.906   108371092.667        -517.555          49.000    20622341.051    84445044.536        -403.289          43.000    20622341.309  
G09  22378414.000   117599335.737        3573.871          47.000    22378417.578    91635888.487        2784.835          36.000                  
G17  24309179.875   127745887.982        3332.238          45.000    24309184.473    99542047.890        2596.549          27.000    24309184.516  
G22  24577120.898   129153604.227        2664.766          47.000    24577121.520   100639201.769        2076.441          30.000                  
G08  23324883.859   122572969.386       -3344.258          40.000    23324889.074    95511533.066       -2605.915          21.000                  
G28  21542752.992   113207823.371       -1105.902          52.000    21542756.078    88214010.137        -861.742          41.000                  
R15  19271352.070   102980195.647         871.941          52.000    19271351.508    19271355.898    80095787.842         679.435          49.000  
G18  22818719.297   119913138.760        1063.473          47.000    22818721.176    93438853.313         828.680          30.000                  
G27  22161450.445   116459354.543        2224.879          49.000    22161455.355    90747461.414        1733.672          39.000                  
R14  20705255.930   110370669.088       -2914.695          53.000    20705255.484    20705261.484    85843885.374       -2271.191          47.000  
> 2010 01 02 00 03 04.0000000  0 10                     
G15  20622436.344   108371610.473        -518.082          49.000    20622439.324    84445448.021        -403.700          43.000    20622439.414  
G09  22377733.711   117595761.970        3573.594          47.000    22377737.883    91633103.737        2784.618          36.000                  
G17  24308545.703   127742555.865        3331.969          45.000    24308550.449    99539451.426        2596.339          27.000    24308550.414  
G22  24576613.602   129150939.696        2664.258          47.000    24576614.617   100637125.514        2076.045          30.000                  
G08  23325520.609   122576313.769       -3344.707          40.000    23325525.211    95514139.078       -2606.265          21.000                  
G28  21542963.508   113208929.565       -1106.559          52.000    21542966.703    88214872.107        -862.253          41.000                  
R15  19271188.977   102979323.978         871.270          52.000    19271188.180    19271192.777    80095109.878         678.911          49.000  
G18  22818516.625   119912075.584        1062.773          47.000    22818518.734    93438024.862         828.135          30.000                  
G27  22161027.086   116457129.764        2224.590          49.000    22161031.883    90745727.817        1733.447          40.000                  
R14  20705802.797   110373583.916       -2915.121          53.000    20705802.473    20705808.699    85846152.463       -2271.523          47.000  
> 2010 01 02 00 03 05.0000000  0 10                     
G15  20622534.922   108372128.873        -518.809          50.000    20622537.855    84445851.974        -404.266          43.000    20622537.730  
G09  22377053.766   117592188.424        3573.258          47.000    22377057.449    91630319.157        2784.357          36.000                  
G17  24307911.492   127739223.892        3331.703          45.000    24307916.488    99536855.083        2596.132          27.000    24307916.480  
G22  24576106.633   129148275.509        2663.957          47.000    24576107.754   100635049.528        2075.811          29.000                  
G08  23326156.945   122579658.318       -3344.746          40.000    23326161.590    95516745.222       -2606.296          21.000                  
G28  21543174.047   113210036.261       -1107.109          52.000    21543177.016    88215734.464        -862.683          41.000                  
R15  19271025.789   102978452.874         870.695          52.000    19271025.227    19271029.625    80094432.349         678.464          49.000  
G18  22818314.859   119911012.987        1062.113          47.000    22818317.027    93437196.863         827.621          30.000                  
G27  22160603.641   116454905.231        2224.316          49.000    22160608.652    90743994.420        1733.234          40.000                  
R14  20706349.508   110376499.092       -2915.555          52.000    20706348.828    20706354.961    85848419.819       -2271.861          47.000  
> 2010 01 02 00 03 06.0000000  0 10                     
G15  20622633.758   108372647.863        -519.320          50.000    20622636.684    84446256.376        -404.665          43.000    20622636.918  
G09  22376373.945   117588615.148        3573.141          48.000    22376377.750    91627534.791        2784.265          36.000                  
G17  24307277.711   127735892.097        3331.680          45.000    24307282.453    99534258.877        2596.114          26.000    24307282.492  
G22  24575599.922   129145611.735        2663.605          48.000    24575600.723   100632973.854        2075.537          29.000                  
G08  23326793.625   122583003.043       -3344.871          41.000    23326798.059    95519351.512       -2606.393          21.000                  
G28  21543384.727   113211143.466       -1107.520          52.000    21543387.898    88216597.225        -863.002          41.000                  
R15  19270863.219   102977582.387         870.168          52.000    19270862.539    19270867.156    80093755.309         678.053          49.000  
G18  22818112.672   119909950.983        1061.598          47.000    22818114.625    93436369.331         827.219          30.000                  
G27  22160180.727   116452680.973        2224.113          49.000    22160185.621    90742261.233        1733.075          39.000                  
R14  20706896.648   110379414.642       -2915.762          53.000    20706896.203    20706902.293    85850687.468       -2272.022          47.000  
> 2010 01 02 00 03 07.0000000  0 10                     
G15  20622732.633   108373167.452        -519.824          50.000    20622735.988    84446661.248        -405.058          43.000    20622736.027  
G09  22375693.883   117585042.145        3572.855          47.000    22375697.645    91624750.633        2784.043          36.000                  
G17  24306643.391   127732560.491        3331.496          45.000    24306648.602    99531662.829        2595.971          27.000    24306648.625  
G22  24575092.969   129142948.365        2663.164          47.000    24575093.879   100630898.497        2075.193          28.000                  
G08  23327430.352   122586347.984       -3344.949          41.000    23327434.723    95521957.950       -2606.454          21.000                  
G28  21543595.430   113212251.211       -1107.934          51.000    21543598.883    88217460.403        -863.325          41.000                  
R15  19270700.281   102976712.541         869.523          52.000    19270699.836    19270704.133    80093078.758         677.551          49.000  
G18  22817910.539   119908889.600        1061.125          47.000    22817912.898    93435542.280         826.851          30.000                  
G27  22159757.195   116450456.994        2223.867          49.000    22159762.410    90740528.261        1732.884          39.000                  
R14  20707443.984   110382330.545       -2916.043          53.000    20707443.188    20707449.148    85852955.387       -2272.241          47.000  
> 2010 01 02 00 03 08.0000000  0 10                     
G15  20622831.555   108373687.757        -520.602          49.000    20622834.512    84447066.681        -405.664          43.000    20622834.547  
G09  22375014.125   117581469.494        3572.500          47.000    22375017.539    91621966.746        2783.766          36.000                  
G17  24306009.648   127729229.171        3331.195          45.000    24306014.840    99529066.994        2595.737          27.000    24306014.723  
G22  24574586.922   129140285.475        2662.625          48.000    24574587.395   100628823.519        2074.773          29.000                  
G08  23328066.344   122589693.197       -3345.281          41.000    23328071.348    95524564.602       -2606.713          21.000                  
G28  21543806.445   113213359.581       -1108.660          51.000    21543809.434    88218324.067        -863.891          41.000                  
R15  19270538.102   102975843.377         868.875          51.000    19270537.539    19270541.852    80092402.743         677.045          49.000  
G18  22817709.047   119907828.912        1060.383          47.000    22817711.191    93434715.771         826.272          30.000                  
G27  22159334.336   116448233.370        2223.480          49.000    22159339.180    90738795.571        1732.582          39.000                  
R14  20707990.734   110385246.918       -2916.566          53.000    20707990.879    20707996.926    85855223.672       -2272.649          47.000  
> 2010 01 02 00 03 09.0000000  0 10                     
G15  20622930.656   108374208.534        -521.242          50.000    20622934.238    84447472.482        -406.163          43.000    20622934.266  
G09  22374334.406   117577897.004        3572.121          47.000    22374337.895    91619182.992        2783.471          36.000                  
G17  24305375.766   127725897.923        3330.945          45.000    24305380.906    99526471.226        2595.542          26.000    24305380.879  
G22  24574079.734   129137622.849        2662.250          48.000    24574080.371   100626748.740        2074.480          29.000                  
G08  23328702.922   122593038.513       -3345.680          41.000    23328707.961    95527171.358       -2607.023          22.000                  
G28  21544017.234   113214468.349       -1109.195          52.000    21544020.387    88219188.041        -864.308          41.000                  
R15  19270375.125   102974974.733         868.129          52.000    19270373.859    19270378.309    80091727.129         676.464          49.000  
G18  22817507.648   119906768.750        1059.680          47.000    22817509.457    93433889.672         825.724          30.000                  
G27  22158911.094   116446009.905        2223.141          49.000    22158916.004    90737062.999        1732.317          39.000                  
R14  20708538.156   110388163.571       -2916.992          53.000    20708537.594    20708543.785    85857492.185       -2272.981          47.000  
> 2010 01 02 00 03 10.0000000  0 10                     
G15  20623029.617   108374729.956        -521.691          49.000    20623033.145    84447878.783        -406.513          43.000    20623033.227  
G09  22373654.672   117574324.795        3572.066          47.000    22373658.395    91616399.450        2783.428          36.000                  
G17  24304741.523   127722566.865        3331.051          45.000    24304746.914    99523875.605        2595.624          27.000    24304746.855  
G22  24573573.313   129134960.671        2662.012          48.000    24573574.086   100624674.319        2074.295          29.000                  
G08  23329339.547   122596384.012       -3345.629          41.000    23329344.672    95529778.238       -2606.984          22.000                  
G28  21544228.352   113215577.688       -1109.566          52.000    21544231.535    88220052.456        -864.597          41.000                  
R15  19270212.344   102974106.739         867.703          52.000    19270211.781    19270216.254    80091052.025         676.132          49.000  
G18  22817305.625   119905709.215        1059.223          47.000    22817307.563    93433064.053         825.368          30.000                  
G27  22158488.305   116443786.746        2223.035          49.000    22158492.918    90735330.669        1732.235          39.000                  
R14  20709085.375   110391080.622       -2917.219          53.000    20709084.695    20709090.719    85859760.998       -2273.157          47.000  
> 2010 01 02 00 03 11.0000000  0 10                     
G15  20623129.172   108375252.063        -522.473          50.000    20623132.250    84448285.625        -407.122          43.000    20623132.398  
G09  22372974.531   117570752.963        3571.691          47.000    22372978.328    91613616.203        2783.136          36.000                  
G17  24304107.945   127719236.130        3330.609          44.000    24304112.715    99521280.224        2595.280          26.000    24304112.586  
G22  24573066.586   129132298.989        2661.453          48.000    24573067.422   100622600.275        2073.860          29.000                  
G08  23329976.234   122599729.829       -3346.102          41.000    23329981.203    95532385.372       -2607.352          22.000                  
G28  21544439.883   113216687.652       -1110.266          51.000    21544443.078    88220917.366        -865.142          41.000                  
R15  19270050.406   102973239.472         866.910          51.000    19270049.375    19270053.953    80090377.483         675.514          49.000  
G18  22817103.773   119904650.401        1058.453          47.000    22817105.980    93432239.007         824.769          30.000                  
G27  22158064.984   116441563.959        2222.625          49.000    22158070.195    90733598.626        1731.916          39.000                  
R14  20709632.992   110393998.137       -2917.754          53.000    20709632.078    20709638.148    85862030.173       -2273.574          47.000  
> 2010 01 02 00 03 12.0000000  0 10                     
G15  20623228.539   108375774.706        -522.918          49.000    20623231.988    84448692.883        -407.469          43.000    20623232.320  
G09  22372295.039   117567181.322        3571.531          47.000    22372298.750    91610833.107        2783.011          36.000                  
G17  24303474.391   127715905.485        3330.613          44.000    24303479.348    99518684.921        2595.283          27.000    24303479.402  
G22  24572560.234   129129637.614        2661.141          48.000    24572560.801   100620526.479        2073.616          29.000                  
G08  23330613.250   122603075.734       -3345.871          41.000    23330617.676    95534992.562       -2607.172          23.000                  
G28  21544651.047   113217798.055       -1110.629          51.000    21544653.977    88221782.617        -865.425          41.000                  
R15  19269888.484   102972372.734         866.457          52.000    19269887.688    19269892.000    80089703.355         675.161          49.000  
G18  22816902.539   119903592.107        1057.988          47.000    22816904.637    93431414.365         824.406          30.000                  
G27  22157642.188   116439341.358        2222.500          49.000    22157646.977    90731866.729        1731.818          39.000                  
R14  20710179.523   110396915.950       -2917.973          53.000    20710179.078    20710185.258    85864299.591       -2273.745          47.000  
> 2010 01 02 00 03 13.0000000  0 10                     
G15  20623328.570   108376298.019        -523.531          50.000    20623331.344    84449100.655        -407.946          43.000    20623331.453  
G09  22371615.555   117563610.000        3571.258          48.000    22371619.391    91608050.259        2782.798          36.000                  
G17  24302840.453   127712575.084        3330.355          44.000    24302845.387    99516089.799        2595.082          27.000    24302845.625  
G22  24572053.492   129126976.686        2660.832          48.000    24572054.523   100618453.021        2073.375          29.000                  
G08  23331249.586   122606421.876       -3346.023          41.000    23331254.680    95537599.939       -2607.291          22.000                  
G28  21544862.531   113218909.046       -1111.156          51.000    21544865.859    88222648.323        -865.836          41.000                  
R15  19269726.242   102971506.658         865.852          52.000    19269725.094    19269729.656    80089029.735         674.690          49.000  
G18  22816701.164   119902534.493        1057.410          47.000    22816703.285    93430590.247         823.956          30.000                  
G27  22157219.258   116437119.106        2222.141          49.000    22157224.188    90730135.109        1731.538          39.000                  
R14  20710727.344   110399834.209       -2918.363          53.000    20710726.781    20710732.906    85866569.346       -2274.049          47.000  
> 2010 01 02 00 03 14.0000000  0 10                     
G15  20623428.141   108376821.963        -524.266          50.000    20623431.215    84449508.917        -408.519          43.000    20623431.406  
G09  22370935.609   117560038.988        3570.852          47.000    22370939.855    91605267.657        2782.482          36.000                  
G17  24302206.539   127709244.914        3330.102          45.000    24302211.527    99513494.855        2594.884          26.000    24302211.719  
G22  24571547.609   129124316.200        2660.316          48.000    24571547.906   100616379.907        2072.974          28.000                  
G08  23331885.836   122609768.291       -3346.426          40.000    23331891.383    95540207.533       -2607.604          22.000                  
G28  21545073.961   113220020.602       -1111.797          51.000    21545077.141    88223514.467        -866.335          42.000                  
R15  19269564.320   102970641.219         865.184          52.000    19269563.289    19269567.867    80088356.619         674.169          49.000  
G18  22816500.273   119901477.526        1056.668          47.000    22816502.344    93429766.632         823.378          30.000                  
G27  22156796.250   116434897.152        2221.809          49.000    22156801.297    90728403.714        1731.279          39.000                  
R14  20711274.859   110402752.861       -2918.820          53.000    20711274.887    20711280.875    85868839.413       -2274.406          47.000  
> 2010 01 02 00 03 15.0000000  0 10                     
G15  20623527.852   108377346.478        -524.836          50.000    20623531.137    84449917.634        -408.963          43.000    20623531.480  
G09  22370256.227   117556468.191        3570.625          47.000    22370260.070    91602485.215        2782.305          36.000                  
G17  24301572.977   127705914.890        3329.863          45.000    24301578.207    99510900.020        2594.699          27.000    24301578.121  
G22  24571041.391   129121656.069        2659.934          48.000    24571041.980   100614307.082        2072.676          28.000                  
G08  23332522.813   122613114.824       -3346.715          41.000    23332528.113    95542815.212       -2607.830          22.000                  
G28  21545285.516   113221132.646       -1112.305          51.000    21545288.762    88224380.999        -866.731          42.000                  
R15  19269402.414   102969776.345         864.566          52.000    19269402.090    19269406.574    80087683.938         673.688          49.000  
G18  22816299.469   119900421.150        1056.043          47.000    22816301.578    93428943.484         822.891          30.000                  
G27  22156373.813   116432675.425        2221.543          49.000    22156378.570    90726672.501        1731.072          39.000                  
R14  20711822.922   110405671.852       -2919.191          53.000    20711822.477    20711828.496    85871109.740       -2274.695          47.000  
> 2010 01 02 00 03 16.0000000  0 10                     
G15  20623627.508   108377871.685        -525.707          50.000    20623630.672    84450326.889        -409.642          43.000    20623631.008  
G09  22369576.578   117552897.733        3570.078          47.000    22369580.734    91599703.045        2781.879          36.000                  
G17  24300939.719   127702585.142        3329.398          45.000    24300944.277    99508305.415        2594.336          27.000    24300944.313  
G22  24570535.125   129118996.422        2659.238          48.000    24570535.910   100612234.629        2072.134          28.000                  
G08  23333160.227   122616461.639       -3347.188          41.000    23333165.301    95545423.128       -2608.198          22.000                  
G28  21545497.320   113222245.278       -1113.129          51.000    21545500.527    88225247.987        -867.373          42.000                  
R15  19269240.586   102968912.132         863.723          51.000    19269239.438    19269243.953    80087011.776         673.031          49.000  
G18  22816098.266   119899365.453        1055.137          47.000    22816100.621    93428120.856         822.184          30.000                  
G27  22155950.914   116430454.068        2220.992          49.000    22155955.785    90724941.574        1730.643          39.000                  
R14  20712370.086   110408591.269       -2919.816          53.000    20712369.762    20712376.039    85873380.404       -2275.182          47.000  
> 2010 01 02 00 03 17.0000000  0 10                     
G15  20623727.961   108378397.426        -526.117          50.000    20623730.570    84450736.554        -409.961          43.000    20623730.711  
G09  22368897.477   117549327.485        3570.023          46.000    22368901.430    91596921.036        2781.836          36.000                  
G17  24300306.031   127699255.513        3329.453          45.000    24300310.727    99505710.908        2594.379          26.000    24300310.691  
G22  24570028.727   129116337.087        2659.066          46.000    24570029.809   100610162.421        2072.000          29.000                  
G08  23333797.227   122619808.571       -3347.184          41.000    23333801.770    95548031.123       -2608.195          22.000                  
G28  21545709.156   113223358.398       -1113.477          51.000    21545712.090    88226115.355        -867.644          42.000                  
R15  19269078.984   102968048.481         863.293          51.000    19269077.719    19269082.797    80086340.048         672.696          49.000  
G18  22815897.891   119898310.311        1054.680          47.000    22815899.715    93427298.669         821.828          30.000                  
G27  22155528.266   116428232.909        2220.930          49.000    22155533.125    90723210.804        1730.595          39.000                  
R14  20712918.039   110411511.007       -2920.059          53.000    20712918.184    20712924.402    85875651.305       -2275.370          47.000  
> 2010 01 02 00 03 18.0000000  0 10                     
G15  20623827.805   108378923.699        -526.730          50.000    20623831.035    84451146.633        -410.439          43.000    20623831.141  
G09  22368218.039   117545757.430        3569.766          46.000    22368222.207    91594139.171        2781.635          36.000                  
G17  24299672.195   127695926.003        3329.211          45.000    24299677.266    99503116.493        2594.190          27.000    24299677.410  
G22  24569523.430   129113678.103        2658.555          46.000    24569524.016   100608090.488        2071.601          29.000                  
G08  23334433.664   122623155.611       -3347.363          41.000    23334438.988    95550639.209       -2608.335          22.000                  
G28  21545920.820   113224471.946       -1114.012          52.000    21545924.098    88226983.054        -868.061          41.000                  
R15  19268917.633   102967185.377         862.574          52.000    19268916.484    19268921.078    80085668.747         672.136          49.000  
G18  22815697.219   119897255.702        1054.035          47.000    22815699.324    93426476.897         821.326          31.000                  
G27  22155105.758   116426011.946        2220.605          49.000    22155110.523    90721480.183        1730.342          39.000                  
R14  20713466.031   110414431.046       -2920.438          53.000    20713465.586    20713471.523    85877922.449       -2275.666          47.000  
> 2010 01 02 00 03 19.0000000  0 10                     
G15  20623928.602   108379450.619        -527.141          49.000    20623931.207    84451557.222        -410.759          43.000    20623931.441  
G09  22367538.961   117542187.697        3569.621          46.000    22367542.813    91591357.562        2781.523          36.000                  
G17  24299038.703   127692596.711        3329.320          45.000    24299043.801    99500522.234        2594.276          27.000    24299043.664  
G22  24569016.766   129111019.533        2658.406          46.000    24569017.871   100606018.878        2071.485          29.000                  
G08  23335071.211   122626502.900       -3347.457          41.000    23335076.078    95553247.494       -2608.408          22.000                  
G28  21546133.023   113225586.084       -1114.270          51.000    21546136.141    88227851.212        -868.262          42.000                  
R15  19268756.219   102966322.937         862.156          51.000    19268755.188    19268759.695    80084997.958         671.810          49.000  
G18  22815496.547   119896201.767        1053.691          47.000    22815498.621    93425655.656         821.058          30.000                  
G27  22154683.094   116423791.314        2220.492          49.000    22154687.734    90719749.818        1730.254          39.000                  
R14  20714014.398   110417351.511       -2920.641          53.000    20714013.367    20714019.457    85880193.917       -2275.824          47.000  
> 2010 01 02 00 03 20.0000000  0 10                     
G15  20624028.688   108379978.263        -527.961          49.000    20624031.949    84451968.373        -411.398          43.000    20624032.145  
G09  22366859.563   117538618.328        3569.227          47.000    22366863.469    91588576.240        2781.216          36.000                  
G17  24298405.266   127689267.726        3328.941          45.000    24298409.934    99497928.228        2593.980          27.000    24298410.113  
G22  24568511.109   129108361.474        2657.895          46.000    24568512.207   100603947.667        2071.087          29.000                  
G08  23335707.734   122629850.478       -3347.578          41.000    23335713.199    95555856.005       -2608.502          22.000                  
G28  21546345.008   113226700.869       -1115.004          51.000    21546348.219    88228719.873        -868.834          41.000                  
R15  19268594.555   102965461.199         861.426          52.000    19268593.641    19268598.082    80084327.717         671.241          49.000  
G18  22815295.875   119895148.535        1052.961          47.000    22815298.195    93424834.954         820.489          30.000                  
G27  22154260.539   116421571.042        2220.172          49.000    22154265.332    90718019.737        1730.004          39.000                  
R14  20714561.375   110420272.438       -2921.086          53.000    20714561.168    20714567.285    85882465.747       -2276.171          47.000  
> 2010 01 02 00 03 21.0000000  0 10                     
G15  20624128.820   108380506.503        -528.594          49.000    20624132.277    84452379.985        -411.891          43.000    20624132.508  
G09  22366180.109   117535049.228        3568.887          47.000    22366184.285    91585795.119        2780.951          36.000                  
G17  24297772.125   127685938.932        3328.652          45.000    24297776.973    99495334.366        2593.755          26.000    24297776.766  
G22  24568005.359   129105703.817        2657.469          47.000    24568006.234   100601876.761        2070.755          29.000                  
G08  23336344.086   122633198.251       -3347.984          41.000    23336350.234    95558464.663       -2608.819          22.000                  
G28  21546557.133   113227816.154       -1115.516          51.000    21546560.617    88229588.927        -869.233          41.000                  
R15  19268433.797   102964600.094         860.742          51.000    19268432.648    19268437.188    80083657.965         670.708          49.000  
G18  22815095.328   119894095.940        1052.277          47.000    22815097.852    93424014.752         819.956          31.000                  
G27  22153838.047   116419351.055        2219.793          48.000    22153842.609    90716289.883        1729.709          39.000                  
R14  20715109.633   110423193.762       -2921.520          53.000    20715109.188    20715115.582    85884737.888       -2276.509          47.000  
> 2010 01 02 00 03 22.0000000  0 10                     
G15  20624230.000   108381035.277        -529.086          49.000    20624232.816    84452792.020        -412.275          43.000    20624232.965  
G09  22365501.172   117531480.322        3568.801          47.000    22365504.941    91583014.153        2780.884          36.000                  
G17  24297138.453   127682610.264        3328.629          44.000    24297143.594    99492740.591        2593.737          26.000    24297143.000  
G22  24567499.984   129103046.499        2657.168          47.000    24567500.586   100599806.122        2070.521          28.000                  
G08  23336981.203   122636546.158       -3347.938          40.000    23336987.016    95561073.404       -2608.782          22.000                  
G28  21546769.688   113228931.920       -1115.984          52.000    21546772.805    88230458.353        -869.598          41.000                  
R15  19268272.609   102963739.511         860.293          51.000    19268271.930    19268276.711    80082988.628         670.358          49.000  
G18  22814895.383   119893043.896        1051.813          47.000    22814897.938    93423194.979         819.594          30.000                  
G27  22153415.922   116417131.285        2219.684          49.000    22153420.355    90714560.190        1729.624          39.000                  
R14  20715657.602   110426115.385       -2921.773          53.000    20715657.629    20715664.023    85887010.259       -2276.707          47.000  
> 2010 01 02 00 03 23.0000000  0 10                     
G15  20624330.555   108381564.745        -529.781          49.000    20624333.520    84453204.593        -412.817          43.000    20624333.738  
G09  22364822.445   117527911.764        3568.355          47.000    22364826.316    91580233.461        2780.537          36.000                  
G17  24296505.031   127679281.845        3328.199          43.000    24296510.137    99490147.010        2593.402          26.000    24296509.605  
G22  24566994.391   129100389.640        2656.617          47.000    24566995.094   100597735.842        2070.091          29.000                  
G08  23337618.633   122639894.325       -3348.152          40.000    23337624.176    95563682.353       -2608.950          22.000                  
G28  21546982.547   113230048.277       -1116.668          52.000    21546985.402    88231328.242        -870.131          41.000                  
R15  19268111.773   102962879.598         859.570          51.000    19268110.742    19268115.277    80082319.809         669.795          49.000  
G18  22814695.297   119891992.534        1051.008          47.000    22814697.746    93422375.732         818.967          30.000                  
G27  22152993.141   116414911.856        2219.266          49.000    22152998.059    90712830.768        1729.298          38.000                  
R14  20716205.711   110429037.461       -2922.316          53.000    20716205.266    20716211.414    85889282.981       -2277.130          47.000  
> 2010 01 02 00 03 24.0000000  0 10                     
G15  20624431.180   108382094.744        -530.332          49.000    20624434.277    84453617.579        -413.246          43.000    20624434.363  
G09  22364143.070   117524343.387        3568.184          47.000    22364147.027    91577452.909        2780.403          36.000                  
G17  24295871.805   127675953.529        3328.195          44.000    24295876.953    99487553.507        2593.399          26.000    24295876.953  
G22  24566488.813   129097733.108        2656.324          47.000    24566489.656   100595665.817        2069.863          29.000                  
G08  23338255.469   122643242.643       -3348.500          40.000    23338261.109    95566291.414       -2609.221          22.000                  
G28  21547194.977   113231165.076       -1117.055          52.000    21547197.750    88232198.476        -870.432          41.000                  
R15  19267951.188   102962020.221         859.121          51.000    19267950.039    19267954.762    80081651.407         669.445          49.000  
G18  22814495.141   119890941.727        1050.461          47.000    22814497.762    93421556.929         818.541          31.000                  
G27  22152570.805   116412692.604        2219.098          49.000    22152575.367    90711101.478        1729.167          38.000                  
R14  20716754.047   110431959.804       -2922.551          53.000    20716753.602    20716759.898    85891555.915       -2277.312          47.000  
> 2010 01 02 00 03 25.0000000  0 10                     
G15  20624532.336   108382625.408        -530.965          50.000    20624535.281    84454031.081        -413.739          43.000    20624535.395  
G09  22363463.906   117520775.357        3567.785          47.000    22363468.313    91574672.626        2780.092          36.000                  
G17  24295238.672   127672625.471        3327.938          44.000    24295243.516    99484960.224        2593.198          27.000    24295243.617  
G22  24565982.992   129095077.047        2655.816          48.000    24565984.168   100593596.163        2069.467          29.000                  
G08  23338893.070   122646591.208       -3348.695          40.000    23338898.512    95568900.688       -2609.373          22.000                  
G28  21547407.438   113232282.477       -1117.586          52.000    21547410.512    88233069.175        -870.846          41.000                  
R15  19267790.180   102961161.501         858.410          52.000    19267789.148    19267793.762    80080983.509         668.891          49.000  
G18  22814295.500   119889891.574        1049.895          47.000    22814297.711    93420738.617         818.100          31.000                  
G27  22152148.844   116410473.725        2218.699          48.000    22152153.270    90709372.484        1728.857          38.000                  
R14  20717302.430   110434882.618       -2923.023          53.000    20717302.105    20717308.199    85893829.217       -2277.681          47.000  
> 2010 01 02 00 03 26.0000000  0 10                     
G15  20624633.492   108383156.775        -531.809          50.000    20624636.820    84454445.132        -414.396          43.000    20624636.977  
G09  22362785.047   117517207.670        3567.395          47.000    22362788.676    91571892.610        2779.788          36.000                  
G17  24294605.234   127669297.683        3327.508          44.000    24294610.102    99482367.154        2592.863          26.000    24294610.113  
G22  24565478.094   129092421.464        2655.281          47.000    24565478.895   100591526.880        2069.050          29.000                  
G08  23339531.023   122649940.011       -3348.887          41.000    23339535.664    95571510.124       -2609.522          22.000                  
G28  21547620.156   113233400.496       -1118.352          52.000    21547623.156    88233940.355        -871.443          41.000                  
R15  19267629.508   102960303.458         857.648          52.000    19267628.828    19267633.164    80080316.145         668.297          49.000  
G18  22814095.688   119888842.163        1048.996          47.000    22814098.090    93419920.896         817.400          30.000                  
G27  22151726.820   116408255.197        2218.273          48.000    22151731.164    90707643.759        1728.525          38.000                  
R14  20717850.266   110437805.886       -2923.590          53.000    20717850.059    20717856.352    85896102.874       -2278.122          47.000  
> 2010 01 02 00 03 27.0000000  0 10                     
G15  20624734.797   108383688.624        -532.191          50.000    20624737.734    84454859.556        -414.695          43.000    20624738.098  
G09  22362106.227   117513640.148        3567.371          46.000    22362109.902    91569112.724        2779.770          36.000                  
G17  24293971.969   127665969.984        3327.574          44.000    24293977.262    99479774.152        2592.915          26.000    24293976.871  
G22  24564972.742   129089766.181        2655.047          47.000    24564973.723   100589457.829        2068.868          29.000                  
G08  23340167.852   122653288.961       -3349.004          41.000    23340173.238    95574119.704       -2609.614          22.000                  
G28  21547833.281   113234518.920       -1118.707          52.000    21547836.078    88234811.857        -871.720          41.000                  
R15  19267468.758   102959445.900         857.254          52.000    19267468.434    19267472.961    80079649.154         667.990          49.000  
G18  22813895.992   119887793.239        1048.516          47.000    22813898.301    93419103.557         817.025          31.000                  
G27  22151304.414   116406036.832        2218.164          48.000    22151309.027    90705915.169        1728.440          38.000                  
R14  20718399.492   110440729.409       -2923.773          53.000    20718398.109    20718404.539    85898376.725       -2278.265          47.000  
