     3.04           OBSERVATION DATA    M: Mixed            RINEX VERSION / TYPE
CONVBIN 2.4.3                           20220228 174849 UTC PGM / RUN BY / DATE 
format: RINEX                                               COMMENT             
log: opec0010.10o                                           COMMENT             
                                                            MARKER NAME         
                                                            MARKER NUMBER       
                                                            MARKER TYPE         
                                                            OBSERVER / AGENCY   
4813K54762          TRIMBLE_NETR5                           REC # / TYPE / VERS 
Unknown             TRM55971.00                             ANT # / TYPE        
  3149785.9652   598260.8822  5495348.4927                  APPROX POSITION XYZ 
        0.0000        0.0000        0.0000                  ANTENNA: DELTA H/E/N
G    5 C1C L1C C2W L2W C2X                                  SYS / # / OBS TYPES 
R    5 C1C L1C C1P C2P L2P                                  SYS / # / OBS TYPES 
    30.000                                                  INTERVAL            
  2010    01    01    00    00   00.0000000     GPS         TIME OF FIRST OBS   
  2010    01    01    23    59   30.0000000     GPS         TIME OF LAST OBS    
G L1C                                                       SYS / PHASE SHIFT   
G L2W  0.00000                                              SYS / PHASE SHIFT   
R L1C                                                       SYS / PHASE SHIFT   
R L2P  0.00000                                              SYS / PHASE SHIFT   
 24 R01  1 R02 -4 R03  5 R04  6 R05  1 R06 -4 R07  5 R08  6 GLONASS SLOT / FRQ # 
    R09 -2 R10 -7 R11  0 R12 -1 R13 -2 R14 -7 R15  0 R16 -1 GLONASS SLOT / FRQ # 
    R17  4 R18 -3 R19  3 R20  2 R21  4 R22 -3 R23  3 R24  2 GLONASS SLOT / FRQ # 
 C1C    0.000 C1P    0.000 C2C    0.000 C2P    0.000        GLONASS COD/PHS/BIS 
                                                            END OF HEADER       
> 2010 01 01 00 00 00.0000000  0 14                     
G09  22676737.734   119167046.7011   22676742.023    92857489.7781                 
G17  24581801.992   129178631.4511   24581806.633   100658382.7301   24581806.055  
G18  22916308.484   120425981.6591   22916311.188    93838461.7921                 
G05  25163691.305   132236272.9281   25163696.129   103041108.3091   25163695.742  
R15  22748390.133   121560514.4361   22748389.219    22748394.023    94547098.9751 
G19  25040546.781   131588922.7121                                                 
R13  20441137.211   109154492.2071   20441136.063    20441140.660    84898011.3881 
G22  24801398.266   130332226.7141   24801399.629   101557588.2621                 
G08  23058615.047   121173816.0211   23058619.754    94421203.4421                 
G15  20590913.625   108205946.8611   20590916.984    84316369.0481   20590916.992  
G27  22347464.906   117436712.0981   22347469.367    91509185.0991                 
G28  21461705.930   112781951.8081   21461709.371    87882138.8091                 
R14  19365456.047   103228776.5571   19365455.250    19365461.559    80289100.1741 
R03  23697342.805   126853630.6741   23697342.242    23697346.965    98664014.7911 
> 2010 01 01 00 00 30.0000000  0 14                     
G09  22655718.469   119056590.779    22655722.422    92771420.227                  
G17  24562378.984   129076566.096    24562383.965   100578851.286    24562383.754  
G18  22908786.320   120386451.445    22908788.883    93807659.037                  
G05  25185634.242   132351585.136    25185639.867   103130961.939    25185639.500  
R15  22726985.805   121446133.226    22726984.539    22726989.605    94458135.831  
G19  25054876.984   131664234.957                                                  
R13  20456152.195   109234670.420    20456151.281    20456155.012    84960372.211  
G22  24785274.813   130247499.063    24785276.809   101491566.712                  
G08  23077211.164   121271537.082    23077213.852    94497349.723                  
G15  20592427.508   108213901.106    20592430.402    84322567.150    20592430.395  
G27  22334115.734   117366559.338    22334119.375    91454520.611                  
G28  21466732.570   112808366.432    21466735.613    87902721.622                  
R14  19359334.430   103196145.141    19359333.750    19359340.027    80263720.187  
R03  23723637.742   126994384.669    23723635.773    23723640.566    98773490.085  
> 2010 01 01 00 01 00.0000000  0 14                     
G09  22634741.563   118946355.513    22634746.004    92685522.647                  
G17  24542983.430   128974637.224    24542987.949   100499426.214    24542987.348  
G18  22901367.656   120347465.193    22901370.059    93777280.135                  
G05  25207577.688   132466898.344    25207582.676   103220816.378    25207582.496  
R15  22705613.586   121331929.433    22705612.672    22705618.359    94369310.695  
G19  25069283.945   131739954.215                                                  
R13  20471238.984   109315233.969    20471238.070    20471242.031    85023032.751  
G22  24769214.617   130163102.675    24769216.547   101425803.263                  
G08  23095844.594   121369459.063    23095848.473    94573652.538                  
G15  20594045.602   108222406.792    20594048.902    84329194.951    20594048.813  
G27  22320812.039   117296648.936    22320815.891    91400044.978                  
G28  21471854.094   112835279.017    21471856.957    87923692.478                  
R14  19353315.258   103164060.567    19353315.168    19353321.270    80238765.516  
R03  23749947.195   127135217.998    23749946.516    23749950.590    98883027.074  
> 2010 01 01 00 02 00.0000000  0 14                     
G09  22592914.383   118726554.227    22592918.883    92514249.030                  
G17  24504269.992   128771199.931    24504274.449   100340903.637    24504274.219  
G18  22886841.430   120271129.564    22886843.750    93717797.835                  
G05  25251462.641   132697516.995    25251468.004   103400519.150    25251468.301  
R15  22662970.359   121104058.460    22662969.680    22662975.098    94192077.830  
G19  25098336.484   131892602.9701                                                 
R13  20501628.148   109477509.425    20501627.586    20501631.547    85149247.010  
G22  24737285.086   129995312.391    24737287.852   101295057.626                  
G08  23133225.102   121565899.474    23133229.941    94726722.965                  
G15  20597598.141   108241073.253    20597601.332    84343740.217    20597601.363  
G27  22294343.805   117157557.442    22294347.895    91291662.023                  
G28  21482380.078   112890592.940    21482382.707    87966794.250                  
R14  19341585.344   103101534.944    19341584.781    19341591.145    80190134.474  
R03  23802606.867   127417106.803    23802604.898    23802609.840    99102273.838  
> 2010 01 01 00 02 30.0000000  0 14                     
G09  22572065.586   118616992.226    22572069.375    92428876.087                  
G17  24484955.672   128669697.316    24484959.805   100261810.695    24484959.195  
G18  22879734.078   120233783.012    22879736.930    93688696.621                  
G05  25273403.328   132812817.358    25273408.559   103490363.588    25273409.102  
R15  22641699.133   120990394.786    22641699.043    22641704.172    94103672.812  
G19  25112974.117   131969527.1631                                                 
R13  20516929.211   109559217.104    20516928.180    20516932.750    85212797.421  
G22  24721417.539   129911923.707    24721419.113   101230079.435                  
G08  23151972.055   121664414.495    23151976.672    94803487.899                  
G15  20599531.508   108251234.089    20599534.645    84351657.747    20599534.867  
G27  22281179.313   117088378.064    22281183.258    91237756.037                  
G28  21487784.188   112918992.143    21487786.594    87988923.503                  
R14  19335874.867   103071094.887    19335874.188    19335880.871    80166458.874  
R03  23828955.148   127558154.996    23828953.297    23828958.414    99211977.944  
> 2010 01 01 00 03 00.0000000  0 12                     
G09  22551260.094   118507659.271    22551263.199    92343681.595                  
G17  24465668.594   128568343.380    24465672.824   100182833.636    24465672.309  
G18  22872732.203   120196986.761    22872735.207    93660024.215                  
R15  22620463.648   120876914.865    22620461.797    22620466.570    94015410.687  
R13  20532300.867   109641302.627    20532299.836    20532304.613    85276641.700  
G22  24705613.797   129828876.902    24705615.594   101165367.634                  
G08  23170757.016   121763124.786    23170760.047    94880404.976                  
G15  20601570.320   108261947.779    20601573.188    84360006.070    20601573.598  
G27  22268061.492   117019444.931    22268065.969    91184041.913                  
G28  21493282.648   112947885.383    21493284.934    88011437.719                  
R14  19330267.945   103041204.747    19330267.973    19330274.734    80143210.986  
R03  23855316.391   127699268.460    23855315.828    23855320.516    99321732.837  
> 2010 01 01 00 03 30.0000000  0 12                     
G09  22530498.531   118398556.141    22530501.750    92258666.167                  
G17  24446409.922   128467139.744    24446413.754   100103973.667    24446414.238  
G18  22865834.617   120160740.489    22865837.496    93631780.369                  
R15  22599261.633   120763619.783    22599260.602    22599264.398    93927292.351  
R13  20547743.836   109723762.957    20547743.039    20547747.008    85340777.486  
G22  24689876.063   129746172.654    24689877.441   101100922.757                  
G08  23189577.688   121862028.115    23189581.719    94957472.441                  
G15  20603714.031   108273212.958    20603717.129    84368784.122    20603717.531  
G27  22254991.023   116950757.400    22254995.711    91130519.177                  
G28  21498874.430   112977270.181    21498876.516    88034334.974                  
R14  19324763.594   103011863.871    19324762.680    19324769.211    80120390.310  
R03  23881687.758   127840442.300    23881688.488    23881692.898    99431534.703  
> 2010 01 01 00 04 00.0000000  0 12                     
G09  22509781.352   118289685.147    22509784.215    92173831.644                  
G17  24427181.070   128366090.243    24427184.645   100025233.797    24427184.750  
G18  22859042.406   120125046.266    22859045.184    93603966.697                  
R15  22578094.180   120650511.023    22578094.441    22578098.574    93839318.936  
R13  20563255.516   109806596.412    20563254.133    20563258.289    85405203.509  
G22  24674203.516   129663814.047    24674204.871   101036747.219                  
G08  23208434.219   121961122.804    23208438.324    95034689.042                  
G15  20605962.867   108285030.471    20605965.984    84377992.565    20605965.773  
G27  22241967.156   116882316.905    22241971.668    91077188.936                  
G28  21504559.258   113007145.883    21504562.344    88057614.748                  
R14  19319362.234   102983072.317    19319361.438    19319367.855    80097996.884  
R03  23908072.477   127981673.173    23908071.211    23908074.727    99541380.926  
> 2010 01 01 00 04 30.0000000  0 12                     
G09  22489108.227   118181048.507    22489111.691    92089179.725                  
G17  24407981.641   128265197.238    24407985.508    99946615.894    24407985.445  
G18  22852355.531   120089905.169    22852358.465    93576584.024                  
R15  22556963.875   120537590.815    22556962.609    22556967.535    93751492.148  
R13  20578837.195   109889800.783    20578836.047    20578840.020    85469918.015  
G22  24658597.477   129581803.544    24658598.738   100972842.913                  
G08  23227326.695   122060407.189    23227331.539    95112053.519                  
G15  20608316.641   108297399.771    20608319.797    84387630.973    20608319.801  
G27  22228990.414   116814124.039    22228995.129    91024051.658                  
G28  21510337.953   113037511.480    21510340.793    88081276.260                  
R14  19314064.844   102954832.151    19314063.813    19314070.578    80076032.314  
R03  23934464.352   128122957.417    23934465.434    23934468.246    99651268.639  
> 2010 01 01 00 05 00.0000000  0 12                     
G09  22468480.594   118072647.935    22468483.922    92004711.751                  
G17  24388812.188   128164463.705    24388816.609    99868122.236    24388816.305  
G18  22845773.555   120055318.311    22845776.488    93549633.226                  
R15  22535867.313   120424859.836    22535866.633    22535871.430    93663812.536  
R13  20594487.508   109973373.991    20594486.594    20594490.348    85534919.402  
G22  24643057.836   129500143.609    24643058.656   100909211.814                  
G08  23246255.875   122159880.008    23246261.848    95189564.764                  
G15  20610775.273   108310321.203    20610778.750    84397699.613    20610779.059  
G27  22216061.242   116746179.660    22216065.656    90971107.999                  
G28  21516209.023   113068365.692    21516212.047    88105318.509                  
R14  19308869.953   102927143.396    19308869.629    19308876.277    80054496.621  
R03  23960868.125   128264291.489    23960866.273    23960870.145    99761195.079  
> 2010 01 01 00 05 30.0000000  0 12                     
G09  22447897.875   117964485.396    22447901.813    91920429.250                  
G17  24369674.406   128063892.545    24369678.418    99789755.091    24369678.156  
G18  22839297.477   120021287.042    22839300.480    93523115.336                  
R15  22514807.391   120312320.820    22514806.477    22514810.199    93576282.253  
R13  20610206.258   110057314.088    20610205.461    20610209.648    85600206.148  
G22  24627586.555   129418836.486    24627586.105   100845855.635                  
G08  23265220.938   122259539.602    23265225.668    95267221.606                  
G15  20613339.398   108323794.683    20613342.715    84408198.422    20613342.715  
G27  22203179.094   116678484.721    22203183.574    90918358.698                  
G28  21522173.133   113099707.102    21522176.695    88129740.390                  
R14  19303779.531   102900005.933    19303778.969    19303785.180    80033389.708  
R03  23987278.773   128405671.666    23987276.688    23987280.625    99871157.421  
> 2010 01 01 00 06 00.0000000  0 12                     
G09  22427360.914   117856562.680    22427365.078    91836333.641                  
G17  24350567.602   127963486.709    24350572.430    99711516.771    24350571.781  
G18  22832927.344   119987812.748    22832930.383    93497031.469                  
R15  22493783.758   120199974.419    22493782.375    22493786.133    93488901.775  
R13  20625994.000   110141619.097    20625992.969    20625997.746    85665776.708  
G22  24612181.555   129337884.887    24612181.703   100782776.492                  
G08  23284221.422   122359384.748    23284225.480    95345022.981                  
G15  20616008.031   108337820.373    20616011.613    84419127.520    20616011.645  
G27  22190345.133   116611040.134    22190349.367    90865804.487                  
G28  21528229.422   113131534.636    21528233.141    88154541.070                  
R14  19298792.000   102873419.276    19298790.617    19298797.336    80012711.200  
R03  24013697.586   128547094.317    24013695.266    24013700.176    99981152.804  
> 2010 01 01 00 06 30.0000000  0 12                     
G09  22406869.930   117748881.480    22406873.855    91752426.219                  
G17  24331493.250   127863248.769    24331497.012    99633409.292    24331496.977  
G18  22826663.289   119954896.248    22826666.352    93471382.240                  
R15  22472795.711   120087822.442    22472794.914    22472799.023    93401672.509  
R13  20641849.109   110226286.169    20641847.961    20641852.617    85731628.868  
G22  24596844.813   129257290.601    24596845.316   100719975.749                  
G08  23303255.633   122459413.024    23303260.102    95422967.016                  
G15  20618782.453   108352397.486    20618785.953    84430486.297    20618785.570  
G27  22177558.414   116543846.180    22177562.980    90813445.565                  
G28  21534378.484   113163846.984    21534381.801    88179719.520                  
R14  19293907.789   102847384.872    19293907.344    19293913.418    79992462.223  
R03  24040122.445   128688555.432    24040122.121    24040126.457   100091178.119  
> 2010 01 01 00 07 00.0000000  0 12                     
G09  22386425.219   117641444.350    22386429.422    91668709.006                  
G17  24312450.633   127763182.412    24312455.434    99555435.534    24312455.313  
G18  22820506.719   119922539.147    22820509.020    93446168.905                  
R15  22451845.500   119975867.342    22451843.648    22451848.258    93314596.361  
R13  20657772.773   110311314.280    20657771.742    20657776.289    85797761.831  
G22  24581577.398   129177057.004    24581578.250   100657456.053                  
G08  23322325.445   122559623.934    23322329.477    95501053.426                  
G15  20621661.266   108367527.116    20621664.980    84442275.610    20621665.066  
G27  22164819.805   116476904.425    22164825.094    90761283.179                  
G28  21540619.672   113196643.051    21540622.652    88205274.900                  
R14  19289127.859   102821903.574    19289127.063    19289133.320    79972643.443  
R03  24066555.547   128830052.460    24066556.746    24066559.348   100201231.327  
> 2010 01 01 00 07 30.0000000  0 12                     
G09  22366027.469   117534253.200    22366031.223    91585183.436                  
G17  24293442.227   127663290.016    24293446.539    99477597.314    24293446.629  
G18  22814455.664   119890742.332    22814458.570    93421392.166                  
R15  22430931.531   119864109.709    22430930.383    22430934.680    93227673.808  
R13  20673764.336   110396701.454    20673762.133    20673766.520    85864174.067  
G22  24566378.078   129097185.834    24566379.566   100595218.755                  
G08  23341428.328   122660015.334    23341433.746    95579280.472                  
G15  20624645.469   108383208.542    20624649.031    84454494.896    20624649.402  
G27  22152129.414   116410215.296    22152133.594    90709317.645                  
G28  21546952.109   113229921.473    21546955.234    88231206.137                  
R14  19284451.672   102796975.120    19284450.875    19284457.105    79953254.655  
R03  24092994.125   128971581.070    24092993.680    24092997.875   100311309.127  
> 2010 01 01 00 08 00.0000000  0 12                     
G09  22345676.492   117427310.032    22345680.516    91501851.112                  
G17  24274466.539   127563574.749    24274471.422    99399897.090    24274471.234  
G18  22808512.039   119859506.928    22808514.270    93397052.888                  
R15  22410054.227   119752551.511    22410053.430    22410057.945    93140906.370  
R13  20689820.922   110482445.022    20689819.188    20689823.188    85930863.522  
G22  24551248.359   129017679.920    24551249.770   100533266.089                  
G08  23360566.977   122760586.038    23360572.082    95657647.245                  
G15  20627734.688   108399441.831    20627737.813    84467144.201    20627737.824  
G27  22139487.000   116343779.682    22139491.109    90657549.621                  
G28  21553376.031   113263680.828    21553379.605    88257512.132                  
R14  19279878.805   102772600.447    19279878.008    19279884.516    79934296.589  
R03  24119438.602   129113137.828    24119438.629    24119441.684   100421408.834  
> 2010 01 01 00 08 30.0000000  0 11                     
G09  22325373.883   117320616.326    22325377.375    91418713.169                  
G17  24255525.773   127464039.105    24255530.195    99322336.836    24255530.148  
G18  22802675.453   119828833.924    22802677.734    93373151.845                  
R15  22389215.156   119641194.248    22389214.594    22389219.094    93054295.211  
R13  20705943.609   110568542.888    20705941.992    20705946.547    85997828.533  
G22  24536188.211   128938540.944    24536189.883   100471599.354                  
G08  23379738.219   122861334.294    23379743.328    95736152.389                  
G15  20630929.031   108416226.536    20630931.988    84480223.183    20630932.109  
G27  22126892.758   116277598.203    22126896.918    90605979.635                  
G28  21559891.813   113297919.651    21559894.930    88284191.740                  
R14  19275410.078   102748779.736    19275409.398    19275415.387    79915769.367  
> 2010 01 01 00 09 00.0000000  0 11                     
G09  22305118.375   117214174.512    22305122.422    91335771.523                  
G17  24236620.070   127364686.390    24236623.840    99244919.141    24236623.148  
G18  22796945.469   119798724.717    22796947.918    93349690.110                  
R15  22368414.094   119530040.490    22368413.063    22368418.070    92967842.327  
R13  20722132.617   110654993.263    20722131.820    20722136.242    86065067.707  
G22  24521199.219   128859771.810    24521200.789   100410220.837                  
G08  23398943.031   122962258.303    23398948.586    95814794.409                  
G15  20634227.633   108433562.854    20634230.922    84493731.997    20634231.223  
G27  22114347.625   116211671.933    22114351.699    90554608.515                  
G28  21566497.977   113332637.107    21566501.332    88311244.308                  
R14  19271045.031   102725513.121    19271044.941    19271050.746    79897673.122  
> 2010 01 01 00 09 30.0000000  0 11                     
G09  22284911.414   117107986.834    22284915.617    91253027.895                  
G17  24217749.594   127265519.959    24217753.332    99167646.601    24217752.660  
G18  22791323.688   119769180.957    22791325.922    93326668.991                  
R15  22347652.164   119419091.286    22347650.898    22347655.563    92881548.564  
R13  20738387.617   110741794.835    20738386.586    20738391.375    86132580.034  
G22  24506280.555   128781375.216    24506282.352   100349132.629                  
G08  23418182.461   123063357.447    23418188.328    95893572.889                  
G15  20637631.500   108451451.221    20637635.020    84507670.969    20637635.125  
G27  22101851.156   116146002.340    22101855.113    90503437.402                  
G28  21573195.547   113367832.450    21573198.168    88338669.249                  
R14  19266784.602   102702801.445    19266783.805    19266790.191    79880008.487  
> 2010 01 01 00 10 00.0000000  0 11                     
G09  22264752.922   117002054.979    22264757.160    91170483.624                  
G17  24198914.008   127166542.291    24198918.613    99090521.150    24198918.762  
G18  22785809.234   119740203.239    22785811.285    93304088.939                  
R15  22326927.805   119308347.804    22326926.656    22326930.836    92795414.792  
R13  20754708.023   110828944.703    20754707.344    20754711.355    86200363.247  
G22  24491433.852   128703353.356    24491435.426   100288336.373                  
G08  23437454.008   123164629.907    23437459.953    95972486.478                  
G15  20641140.656   108469891.252    20641144.059    84522039.811    20641144.098  
G27  22089403.453   116080589.556    22089406.957    90452466.402                  
G28  21579983.742   113403503.834    21579986.180    88366465.142                  
R14  19262627.047   102680645.039    19262627.191    19262632.992    79862775.730  
> 2010 01 01 00 10 30.0000000  0 11                     
G09  22244643.625   116896380.260    22244647.883    91088139.709                  
G17  24180115.273   127067755.733    24180119.605    99013544.600    24180119.617  
G18  22780402.836   119711791.768    22780404.953    93281950.138                  
R15  22306241.578   119197811.642    22306240.898    22306245.641    92709442.249  
R13  20771093.719   110916440.270    20771092.453    20771096.367    86268415.338  
G22  24476658.297   128625707.775    24476659.758   100227833.316                  
G08  23456757.891   123266073.164    23456762.219    96051533.166                  
G15  20644754.531   108488881.665    20644758.004    84536837.528    20644757.879  
G27  22077004.914   116015433.644    22077008.699    90401695.553                  
G28  21586861.875   113439649.088    21586864.539    88394630.292                  
R14  19258575.328   102659043.281    19258574.883    19258580.922    79845974.364  
> 2010 01 01 00 11 00.0000000  0 11                     
G09  22224584.242   116790965.624    22224588.219    91005998.452                  
G17  24161354.070   126969164.136    24161357.875    98936719.978    24161357.730  
G18  22775104.453   119683948.379    22775106.359    93260253.992                  
R15  22285596.727   119087485.325    22285595.227    22285599.512    92623632.911  
R13  20787544.086   111004280.813    20787542.820    20787546.750    86336735.757  
G22  24461955.484   128548441.923    24461957.410   100167626.157                  
G08  23476093.398   123367686.613    23476100.063    96130712.410                  
G15  20648473.422   108508423.555    20648476.664    84552064.966    20648476.715  
G27  22064655.375   115950536.770    22064659.035    90351126.562                  
G28  21593830.570   113476268.088    21593833.012    88423164.581                  
R14  19254627.438   102637997.248    19254626.641    19254632.891    79829605.233  
> 2010 01 01 00 11 30.0000000  0 11                     
G09  22204574.180   116685812.676    22204578.230    90924061.104                  
G17  24142630.547   126870770.121    24142634.145    98860049.301    24142633.688  
G18  22769914.156   119656673.782    22769917.074    93239001.061                  
R15  22264989.648   118977369.632    22264988.383    22264992.715    92537987.397  
R13  20804057.578   111092463.761    20804056.430    20804060.586    86405322.503  
G22  24447324.945   128471558.103    24447326.160   100107716.669                  
G08  23495462.898   123469469.249    23495467.953    96210023.577                  
G15  20652296.930   108528516.303    20652300.113    84567721.631    20652300.195  
G27  22052355.648   115885899.351    22052358.945    90300759.748                  
G28  21600888.664   113513359.247    21600891.207    88452066.786                  
R14  19250783.477   102617507.367    19250783.031    19250789.348    79813668.665  
> 2010 01 01 00 12 00.0000000  0 11                     
G09  22184614.602   116580923.083    22184618.238    90842328.981                  
G17  24123944.734   126772575.950    24123948.137    98783534.370    24123947.961  
G18  22764832.023   119629968.529    22764834.715    93218191.773                  
R15  22244421.445   118867466.280    22244421.355    22244425.551    92452507.033  
R13  20820634.453   111180986.441    20820634.008    20820638.551    86474173.475  
G22  24432767.195   128395057.683    24432768.457   100048105.923                  
G08  23514864.828   123571418.099    23514867.848    96289464.152                  
G15  20656224.992   108549159.134    20656228.301    84583806.952    20656228.230  
G27  22040104.398   115821521.406    22040108.012    90250595.114                  
G28  21608036.477   113550920.325    21608039.148    88481335.163                  
R14  19247043.773   102597572.694    19247042.859    19247049.383    79798163.939  
> 2010 01 01 00 12 30.0000000  0 11                     
G09  22164705.289   116476300.165    22164709.285    90760804.657                  
G17  24105298.195   126674585.949    24105301.672    98707178.527    24105301.480  
G18  22759859.789   119603835.195    22759861.777    93197828.134                  
R15  22223894.977   118757777.444    22223893.828    22223898.773    92367193.505  
R13  20837275.805   111269848.222    20837274.773    20837278.773    86543288.188  
G22  24418283.219   128318944.490    24418284.762    99988796.955                  
G08  23534296.523   123673533.621    23534300.707    96369034.599                  
G15  20660258.117   108570353.132    20660261.723    84600321.745    20660261.586  
G27  22027903.820   115757405.121    22027907.422    90200634.378                  
G28  21615273.586   113588951.441    21615276.434    88510969.802                  
R14  19243408.172   102578195.143    19243408.434    19243414.469    79783092.505  
> 2010 01 01 00 13 00.0000000  0 11                     
G09  22144847.258   116371944.315    22144850.633    90679488.415                  
G17  24086689.836   126576801.449    24086693.820    98630982.838    24086693.305  
G18  22754995.281   119578273.061    22754997.766    93177909.568                  
R15  22203408.461   118648304.196    22203407.195    22203412.469    92282047.685  
R13  20853979.211   111359045.376    20853978.414    20853983.039    86612663.725  
G22  24403872.672   128243218.828    24403874.941    99929789.964                  
G08  23553759.195   123775812.215    23553762.684    96448732.242                  
G15  20664395.727   108592096.575    20664399.133    84617264.672    20664399.086  
G27  22015752.617   115693549.823    22015756.316    90150877.000                  
G28  21622599.563   113627449.467    21622602.805    88540968.263                  
R14  19239877.422   102559373.899    19239876.742    19239883.043    79768453.760  
> 2010 01 01 00 13 30.0000000  0 11                     
G09  22125040.180   116267858.111    22125044.238    90598382.289                  
G17  24068122.539   126479226.351    24068125.848    98554950.296    24068125.734  
G18  22750239.930   119553283.820    22750242.125    93158437.430                  
R15  22182962.523   118539048.300    22182961.258    22182966.656    92197070.929  
R13  20870746.063   111448577.081    20870745.266    20870749.922    86682299.494  
G22  24389536.680   128167884.338    24389538.785    99871087.801                  
G08  23573251.313   123878253.241    23573257.324    96528556.380                  
G15  20668638.070   108614389.906    20668641.414    84634636.093    20668641.699  
G27  22003651.148   115629957.200    22003654.742    90101324.320                  
G28  21630014.148   113666414.121    21630017.504    88571330.330                  
R14  19236451.414   102541109.800    19236450.852    19236457.344    79754248.352  
> 2010 01 01 00 14 00.0000000  0 11                     
G09  22105285.086   116164044.244    22105288.496    90517488.374                  
G17  24049594.578   126381863.794    24049598.152    98479083.368    24049598.617  
G18  22745593.711   119528868.338    22745596.301    93139412.376                  
R15  22162557.234   118430012.051    22162556.910    22162562.023    92112265.008  
R13  20887574.508   111538441.363    20887573.594    20887577.383    86752193.947  
G22  24375276.086   128092943.667    24375277.930    99812692.484                  
G08  23592775.625   123980855.518    23592781.121    96608506.224                  
G15  20672984.875   108637233.137    20672988.750    84652436.002    20672988.758  
G27  21991600.336   115566628.465    21991603.859    90051977.245                  
G28  21637517.547   113705844.153    21637521.039    88602055.029                  
R14  19233129.727   102523403.465    19233128.813    19233135.367    79740476.765  
> 2010 01 01 00 14 30.0000000  0 11                     
G09  22085582.211   116060503.940    22085585.754    90436807.633                  
G17  24031108.484   126284716.229    24031111.941    98403383.988    24031111.438  
G18  22741056.828   119505027.541    22741059.512    93120835.133                  
R15  22142195.203   118321197.007    22142194.172    22142197.988    92027631.111  
R13  20904464.953   111628635.822    20904463.805    20904468.117    86822345.180  
G22  24361091.445   128018398.627    24361092.879    99754605.430                  
G08  23612332.977   124083617.622    23612336.234    96688580.543                  
G15  20677436.203   108660625.566    20677440.125    84670663.853    20677439.871  
G27  21979599.508   115503564.066    21979603.285    90002836.155                  
G28  21645108.859   113745737.797    21645112.461    88633140.980                  
R14  19229912.609   102506254.386    19229911.695    19229918.219    79727138.592  
> 2010 01 01 00 15 00.0000000  0 11                     
G09  22065931.617   115957239.446    22065935.176    90356341.813                  
G17  24012663.625   126187786.635    24012666.551    98327854.418    24012666.586  
G18  22736629.445   119481761.861    22736632.535    93102706.023                  
R15  22121873.234   118212604.620    22121872.672    22121876.883    91943170.395  
R13  20921416.922   111719158.584    20921415.773    20921421.797    86892751.783  
G22  24346981.977   127944251.410    24346983.367    99696828.353                  
G08  23631917.461   124186537.714    23631923.223    96768777.929                  
G15  20681992.461   108684566.942    20681996.434    84689319.453    20681996.211  
G27  21967649.211   115440764.566    21967652.879    89953901.487                  
G28  21652788.273   113786093.704    21652791.641    88664587.148                  
R14  19226799.719   102489662.797    19226798.922    19226805.836    79714234.022  
> 2010 01 01 00 15 30.0000000  0 11                     
G09  22046333.539   115854252.449    22046337.797    90276092.206                  
G17  23994260.250   126091077.669    23994263.852    98252496.778    23994264.016  
G18  22732311.883   119459072.260    22732314.891    93085025.802                  
R15  22101594.172   118104236.046    22101592.438    22101597.367    91858883.749  
R13  20938429.734   111810007.189    20938428.117    20938433.012    86963411.809  
G22  24332948.219   127870504.213    24332949.395    99639362.971                  
G08  23651531.633   124289614.376    23651536.027    96849097.439                  
G15  20686652.773   108709056.834    20686655.703    84708402.472    20686655.426  
G27  21955748.656   115378230.465    21955752.824    89905173.630                  
G28  21660555.602   113826910.411    21660558.609    88696392.363                  
R14  19223791.711   102473628.919    19223791.621    19223798.375    79701763.226  
> 2010 01 01 00 16 00.0000000  0 11                     
G09  22026789.000   115751544.942    22026792.758    90196060.403                  
G17  23975899.688   125994592.598    23975903.266    98177313.614    23975903.523  
G18  22728103.859   119436959.517    22728106.918    93067795.077                  
R15  22081355.617   117996093.098    22081355.527    22081360.000    91774772.624  
R13  20955503.781   111901179.928    20955501.813    20955506.469    87034323.913  
G22  24318990.313   127797159.853    24318992.301    99582211.510                  
G08  23671175.305   124392846.136    23671181.566    96929537.718                  
G15  20691417.469   108734094.949    20691420.563    84727912.673    20691420.516  
G27  21943899.867   115315962.907    21943903.867    89856653.464                  
G28  21668409.688   113868186.201    21668412.918    88728555.318                  
R14  19220888.555   102458152.798    19220888.230    19220894.707    79689726.253  
> 2010 01 01 00 16 30.0000000  0 11                     
G09  22007297.820   115649118.492    22007301.859    90116247.597                  
G17  23957582.094   125898333.847    23957586.195    98102306.796    23957585.867  
G18  22724005.906   119415424.144    22724009.070    93051014.254                  
R15  22061161.555   117888176.682    22061160.875    22061164.965    91690837.670  
R13  20972637.516   111992674.401    20972636.953    20972641.445    87105486.278  
G22  24305109.586   127724220.312    24305112.801    99525375.519                  
G08  23690850.297   124496230.823    23690855.434    97010097.198                  
G15  20696285.828   108759680.531    20696289.246    84747849.478    20696289.445  
G27  21932102.023   115253962.365    21932106.285    89808341.334                  
G28  21676351.633   113909919.516    21676354.375    88761074.784                  
R14  19218089.695   102443234.533    19218089.371    19218095.957    79678123.160  
> 2010 01 01 00 17 00.0000000  0 11                     
G09  21987860.766   115546976.627    21987864.867    90036656.551                  
G17  23939307.992   125802305.349    23939311.984    98027479.380    23939312.133  
G18  22720018.000   119394468.198    22720020.719    93034684.930                  
R15  22041009.531   117780490.345    22041009.207    22041012.957    91607081.645  
R13  20989832.180   112084489.751    20989830.914    20989835.656    87176898.222  
G22  24291307.305   127651688.325    24291310.855    99468857.092                  
G08  23710553.813   124599768.609    23710556.113    97090775.972                  
G15  20701259.477   108785814.450    20701262.480    84768213.556    20701262.602  
G27  21920354.516   115192230.759    21920359.059    89760238.792                  
G28  21684380.055   113952110.201    21684382.746    88793950.643                  
R14  19215396.125   102428875.134    19215395.328    19215401.816    79666954.745  
> 2010 01 01 00 17 30.0000000  0 11                     
G09  21968478.383   115445120.283    21968482.297    89957287.973                  
G17  23921078.984   125706509.235    23921083.250    97952833.063    23921083.070  
G18  22716140.109   119374091.352    22716143.371    93018806.852                  
R15  22020900.820   117673034.711    22020899.672    22020903.926    91523505.049  
R13  21007085.305   112176623.228    21007084.508    21007089.000    87248557.599  
G22  24277583.523   127579565.364    24277586.082    99412657.397                  
G08  23730283.727   124703456.635    23730288.957    97171571.732                  
G15  20706336.422   108812495.293    20706339.859    84789003.814    20706340.184  
G27  21908658.523   115130767.846    21908662.480    89712345.619                  
G28  21692495.203   113994755.416    21692498.016    88827180.695                  
R14  19212807.422   102415074.164    19212806.156    19212812.918    79656220.651  
> 2010 01 01 00 18 00.0000000  0 11                     
G09  21949149.828   115343551.917    21949154.699    89878143.813                  
G17  23902894.445   125610948.801    23902898.820    97878370.400    23902898.652  
G18  22712373.313   119354294.480    22712375.969    93003380.706                  
R15  22000835.664   117565811.651    22000834.867    22000839.484    91440109.376  
R13  21024398.688   112269072.862    21024397.773    21024400.699    87320462.855  
G22  24263937.477   127507854.048    24263939.719    99356778.457                  
G08  23750041.500   124807293.888    23750047.738    97252483.919                  
G15  20711517.508   108839722.729    20711521.281    84810219.982    20711521.402  
G27  21897013.742   115069574.757    21897018.008    89664662.701                  
G28  21700696.914   114037854.068    21700699.383    88860764.058                  
R14  19210322.258   102401832.363    19210322.168    19210329.406    79645921.490  
> 2010 01 01 00 18 30.0000000  0 11                     
G09  21929877.734   115242274.432    21929881.992    89799226.315                  
G17  23884755.836   125515627.603    23884759.547    97804094.161    23884758.930  
G18  22708717.023   119335079.079    22708719.906    92988407.639                  
R15  21980814.063   117458823.226    21980812.914    21980817.242    91356896.202  
R13  21041769.828   112361837.393    21041769.266    21041773.949    87392613.033  
G22  24250370.727   127436557.657    24250372.230    99301222.825                  
G08  23769831.391   124911280.288    23769836.176    97333512.213                  
G15  20716802.914   108867497.362    20716806.617    84831862.540    20716806.680  
G27  21885420.828   115008653.113    21885424.867    89617191.296                  
G28  21708984.516   114081405.656    21708987.191    88894700.372                  
R14  19207943.836   102389149.892    19207943.629    19207950.055    79636057.332  
> 2010 01 01 00 19 00.0000000  0 11                     
G09  21910661.047   115141288.902    21910665.387    89720536.301                  
G17  23866662.234   125420547.750    23866666.504    97730005.964    23866666.164  
G18  22705170.953   119316445.228    22705174.102    92973887.750                  
R15  21960836.297   117352070.207    21960835.500    21960840.129    91273866.135  
R13  21059200.750   112454914.308    21059199.484    21059203.801    87465006.193  
G22  24236882.930   127365677.486    24236884.359    99245991.534                  
G08  23789649.320   125015412.615    23789652.441    97414654.262                  
G15  20722192.352   108895817.864    20722195.969    84853930.454    20722196.012  
G27  21873878.945   114948002.970    21873884.008    89569931.460                  
G28  21717357.797   114125408.169    21717360.434    88928988.044                  
R14  19205669.852   102377026.597    19205668.938    19205675.980    79626628.108  
> 2010 01 01 00 19 30.0000000  0 11                     
G09  21891500.172   115040596.581    21891504.078    89642074.758                  
G17  23848615.125   125325711.354    23848619.832    97656107.506    23848619.676  
G18  22701735.680   119298392.986    22701738.438    92959821.051                  
R15  21940902.469   117245554.255    21940902.379    21940906.711    91191020.449  
R13  21076689.289   112548300.886    21076688.023    21076690.516    87537640.154  
G22  24223474.750   127295215.376    24223475.461    99191085.992                  
G08  23809491.406   125119689.052    23809493.918    97495908.587                  
G15  20727684.828   108924682.945    20727688.926    84876422.702    20727688.609  
G27  21862389.180   114887624.441    21862393.945    89522883.277                  
G28  21725816.258   114169858.833    21725819.758    88963624.930                  
R14  19203500.578   102365461.497    19203499.313    19203506.195    79617633.029  
> 2010 01 01 00 20 00.0000000  0 11                     
G09  21872395.219   114940200.203    21872398.836    89563843.820                  
G17  23830615.602   125231122.259    23830619.605    97582401.708    23830619.340  
G18  22698411.172   119280923.519    22698414.309    92946208.464                  
R15  21921014.953   117139277.379    21921013.453    21921017.781    91108360.683  
R13  21094234.516   112641995.862    21094233.719    21094238.781    87610513.994  
G22  24210145.891   127225173.841    24210146.777    99136508.179                  
G08  23829359.883   125224109.153    23829365.680    97577274.894                  
G15  20733281.531   108954093.189    20733285.199    84899339.766    20733285.129  
G27  21850951.922   114827519.367    21850956.836    89476048.162                  
G28  21734360.297   114214757.180    21734363.445    88998610.654                  
R14  19201436.148   102354455.705    19201435.000    19201441.500    79609072.964  
> 2010 01 01 00 20 30.0000000  0 11                     
G09  21853346.984   114840101.844    21853350.578    89485845.107                  
G17  23812663.141   125136783.014    23812667.895    97508890.603    23812667.711  
G18  22695198.086   119264037.488    22695201.023    92933050.511                  
R15  21901171.000   117033241.212    21901170.438    21901174.828    91025888.115  
R13  21111838.797   112735996.925    21111836.828    21111842.348    87683625.933  
G22  24196897.430   127155555.007    24196898.750    99082259.738                  
G08  23849257.336   125328671.121    23849261.824    97658751.815                  
G15  20738981.648   108984047.625    20738985.324    84922680.870    20738985.172  
G27  21839566.555   114767688.170    21839570.980    89429426.461                  
G28  21742988.609   114260101.491    21742992.340    89033943.879                  
R14  19199475.961   102344009.416    19199475.047    19199481.980    79600948.075  
> 2010 01 01 00 21 00.0000000  0 11                     
G09  21834356.047   114740302.910    21834359.402    89408079.703                  
G17  23794759.578   125042696.335    23794764.102    97435576.298    23794764.176  
G18  22692095.828   119247735.065    22692098.797    92920347.305                  
R15  21881373.789   116927447.347    21881372.992    21881376.563    90943603.997  
R13  21129498.484   112830301.572    21129497.688    21129501.246    87756973.993  
G22  24183730.531   127086360.525    24183731.656    99028341.948                  
G08  23869182.727   125433373.057    23869187.105    97740337.631                  
G15  20744784.789   109014545.311    20744789.086    84946445.286    20744789.031  
G27  21828232.961   114708130.940    21828237.355    89383018.235                  
G28  21751701.563   114305889.682    21751705.676    89069622.994                  
R14  19197620.570   102334122.063    19197620.246    19197626.938    79593257.900  
> 2010 01 01 00 21 30.0000000  0 11                     
G09  21815421.781   114640805.892    21815425.504    89330549.570                  
G17  23776904.227   124948865.762    23776907.891    97362461.555    23776908.281  
G18  22689104.555   119232016.695    22689107.656    92908099.221                  
R15  21861620.375   116821896.309    21861620.754    21861623.719    90861508.747  
R13  21147215.602   112924908.320    21147214.570    21147218.293    87830556.983  
G22  24170643.977   127017593.422    24170645.828    98974757.197                  
G08  23889133.117   125538213.284    23889137.031    97822031.311                  
G15  20750692.109   109045586.226    20750696.203    84970632.982    20750696.133  
G27  21816952.172   114648849.072    21816956.695    89336824.590                  
G28  21760498.969   114352120.512    21760502.914    89105647.012                  
R14  19195871.000   102324793.855    19195869.969    19195876.758    79586002.628  
> 2010 01 01 00 22 00.0000000  0 11                     
G09  21796546.125   114541612.589    21796550.219    89253256.101                  
G17  23759098.195   124855294.200    23759102.598    97289548.683    23759102.547  
G18  22686225.031   119216883.465    22686227.563    92896307.082                  
R15  21841914.352   116716591.189    21841914.262    21841917.574    90779604.778  
R13  21164988.344   113019815.491    21164986.961    21164991.832    87904373.666  
G22  24157639.789   126949255.792    24157641.297    98921507.104                  
G08  23909108.234   125643191.238    23909113.672    97903832.241                  
G15  20756702.180   109077169.943    20756706.527    84995243.653    20756706.293  
G27  21805723.875   114589843.524    21805728.082    89290846.249                  
G28  21769380.523   114398792.644    21769383.789    89142014.905                  
R14  19194225.164   102316024.860    19194224.840    19194231.496    79579182.295  
> 2010 01 01 00 22 30.0000000  0 11                     
G09  21777728.547   114442725.184    21777732.273    89176200.985                  
G17  23741341.773   124761983.687    23741345.902    97216839.212    23741345.734  
G18  22683456.727   119202335.868    22683459.211    92884971.289                  
R15  21822254.391   116611533.315    21822254.184    21822258.438    90697893.137  
R13  21182817.109   113115021.273    21182816.785    21182819.996    87978422.600  
G22  24144717.922   126881349.696    24144719.219    98868593.261                  
G08  23929111.508   125748305.277    23929116.898    97985739.297                  
G15  20762815.453   109109295.346    20762819.676    85020276.412    20762819.613  
G27  21794547.898   114531115.010    21794552.336    89245083.788                  
G28  21778345.633   114445904.697    21778348.840    89178725.593                  
R14  19192685.703   102307815.558    19192685.141    19192692.230    79572797.282  
> 2010 01 01 00 23 00.0000000  0 11                     
G09  21758969.852   114344145.812    21758973.188    89099385.890                  
G17  23723635.547   124668938.151    23723639.953    97144336.215    23723639.719  
G18  22680800.383   119188374.219    22680803.168    92874092.077                  
R15  21802641.945   116506724.264    21802640.797    21802644.941    90616375.004  
R13  21200701.539   113210523.258    21200700.977    21200704.109    88052701.889  
G22  24131878.273   126813877.232    24131879.652    98816017.311                  
G08  23949140.336   125853554.107    23949144.023    98067751.302                  
G15  20769031.734   109141962.478    20769035.914    85045731.309    20769035.879  
G27  21783425.141   114472664.199    21783429.230    89199537.710                  
G28  21787394.617   114493454.720    21787397.270    89215777.558                  
R14  19191249.836   102300165.402    19191249.512    19191256.141    79566847.147  
> 2010 01 01 00 23 30.0000000  0 11                     
G09  21740269.789   114245876.314    21740273.762    89022812.258                  
G17  23705980.406   124576160.073    23705984.949    97072041.631    23705984.750  
G18  22678254.664   119174999.126    22678257.402    92863669.923                  
R15  21783074.891   116402166.006    21783073.859    21783077.539    90535051.949  
R13  21218641.922   113306319.570    21218640.422    21218644.629    88127210.106  
G22  24119122.555   126746840.568    24119123.184    98763780.942                  
G08  23969194.383   125958936.035    23969198.617    98149866.979                  
G15  20775351.219   109175170.443    20775355.164    85071607.627    20775354.902  
G27  21772355.344   114414491.724    21772359.453    89154208.521                  
G28  21796526.484   114541441.580    21796528.844    89253169.925                  
R14  19189920.016   102293074.352    19189919.691    19189926.063    79561331.881  
> 2010 01 01 00 24 00.0000000  0 11                     
G09  21721628.727   114147918.867    21721632.777    88946481.780                  
G17  23688376.547   124483652.279    23688380.969    96999957.652    23688381.051  
G18  22675820.695   119162211.274    22675824.195    92853705.341                  
R15  21763555.078   116297859.868    21763554.754    21763558.355    90453924.961  
R13  21236635.484   113402408.401    21236635.277    21236640.141    88201945.870  
G22  24106448.539   126680241.874    24106450.270    98711885.847                  
G08  23989272.547   126064450.008    23989276.758    98232085.643                  
G15  20781772.836   109208918.801    20781777.145    85097905.040    20781777.531  
G27  21761338.297   114356598.611    21761342.883    89109097.011                  
G28  21805740.859   114589863.557    21805743.223    89290901.349                  
R14  19188694.406   102286543.162    19188695.020    19188701.688    79556252.058  
> 2010 01 01 00 24 30.0000000  0 11                     
G09  21703047.938   114050275.508    21703052.242    88870396.048                  
G17  23670825.078   124391417.244    23670829.504    96928086.205    23670829.355  
G18  22673499.438   119150010.330    22673502.160    92844198.107                  
R15  21744083.313   116193807.315    21744082.164    21744085.914    90372995.208  
R13  21254684.516   113498787.250    21254683.016    21254685.848    88276907.190  
G22  24093859.625   126614082.975    24093860.719    98660333.455                  
G08  24009375.227   126170093.896    24009379.996    98314405.506                  
G15  20788297.867   109243206.249    20788302.152    85124622.514    20788302.098  
G27  21750375.367   114298985.388    21750379.691    89064203.605                  
G28  21815037.422   114638718.537    21815040.398    89328970.171                  
R14  19187574.875   102280570.734    19187574.551    19187581.176    79551606.840  
> 2010 01 01 00 25 00.0000000  0 11                     
G09  21684527.523   113952948.255    21684531.672    88794556.628                  
G17  23653326.586   124299458.464    23653330.344    96856429.992    23653329.879  
G18  22671289.438   119138397.360    22671292.156    92835149.039                  
R15  21724658.492   116090010.239    21724656.992    21724661.281    90292264.169  
R13  21272787.469   113595454.775    21272786.203    21272789.879    88352092.994  
G22  24081353.539   126548366.705    24081355.102    98609125.957                  
G08  24029503.320   126275866.943    24029508.754    98396825.981                  
G15  20794925.344   109278032.865    20794929.418    85151760.118    20794929.207  
G27  21739465.281   114241653.233    21739469.773    89019529.205                  
G28  21824416.500   114688005.343    21824418.805    89367375.484                  
R14  19186558.906   102275157.854    19186558.582    19186565.246    79547396.828  
> 2010 01 01 00 25 30.0000000  0 11                     
G09  21666067.406   113855939.593    21666071.398    88718965.467                  
G17  23635879.953   124207778.604    23635883.949    96784991.137    23635884.227  
G18  22669191.828   119127372.964    22669194.172    92826558.590                  
R15  21705282.930   115986470.797    21705281.898    21705286.152    90211733.515  
R13  21290943.188   113692409.131    21290942.391    21290948.766    88427501.942  
G22  24068932.313   126483094.853    24068934.301    98558264.827                  
G08  24049655.453   126381767.247    24049659.957    98479345.722                  
G15  20801655.039   109313398.056    20801658.813    85179317.398    20801658.805  
G27  21728609.039   114184602.972    21728613.223    88975074.475                  
G28  21833877.102   114737722.668    21833880.039    89406116.255                  
R14  19185649.133   102270304.797    19185648.453    19185654.555    79543622.219  
> 2010 01 01 00 26 00.0000000  0 11                     
G09  21647667.891   113759250.817    21647672.348    88643623.577                  
G17  23618487.641   124116380.626    23618491.879    96713771.950    23618491.555  
G18  22667206.313   119116936.796    22667208.504    92818426.497                  
R15  21685954.953   115883189.269    21685954.156    21685959.125    90131403.459  
R13  21309153.313   113789647.752    21309151.813    21309156.453    88503131.977  
G22  24056596.078   126418269.467    24056598.395    98507751.559                  
G08  24069831.859   126487793.398    24069836.594    98561963.435                  
G15  20808486.836   109349300.228    20808491.023    85207293.099    20808490.918  
G27  21717806.703   114127835.189    21717810.375    88930839.840                  
G28  21843419.656   114787868.241    21843422.590    89445190.729                  
R14  19184843.727   102266010.376    19184843.164    19184849.461    79540282.113  
> 2010 01 01 00 26 30.0000000  0 11                     
G09  21629330.109   113662884.654    21629334.555    88568533.069                  
G17  23601149.109   124025267.796    23601153.625    96642774.946    23601153.063  
G18  22665332.195   119107089.924    22665334.891    92810753.615                  
R15  21666676.344   115780169.807    21666674.961    21666679.922    90051277.220  
R13  21327415.531   113887169.521    21327415.441    21327419.164    88578982.219  
G22  24044346.094   126353892.824    24044348.234    98457587.953                  
G08  24090032.188   126593944.339    24090037.121    98644678.382                  
G15  20815421.359   109385739.954    20815425.688    85235687.679    20815425.594  
G27  21707057.766   114071351.119    21707061.918    88886826.286                  
G28  21853042.648   114838441.339    21853046.293    89484598.348                  
R14  19184142.766   102262275.790    19184141.852    19184148.512    79537377.429  
> 2010 01 01 00 27 00.0000000  0 11                     
G09  21611053.859   113566842.873    21611058.055    88493695.325                  
G17  23583865.578   123934442.664    23583870.016    96572002.110    23583870.234  
G18  22663570.867   119097832.620    22663573.309    92803540.121                  
R15  21647446.492   115677412.152    21647445.578    21647450.527    89971354.614  
R13  21345730.938   113984972.058    21345729.906    21345734.504    88655050.868  
G22  24032181.852   126289966.958    24032183.145    98407775.588                  
G08  24110254.906   126700218.520    24110259.520    98727489.443                  
G15  20822457.414   109422716.143    20822461.676    85264500.284    20822461.664  
G27  21696363.172   114015151.265    21696367.578    88843034.202                  
G28  21862747.977   114889440.100    21862751.070    89524337.630                  
R14  19183547.055   102259100.292    19183546.730    19183552.746    79534907.607  
> 2010 01 01 00 27 30.0000000  0 11                     
G09  21592839.664   113471126.974    21592844.480    88419111.516                  
G17  23566637.445   123843907.475    23566641.754    96501455.215    23566641.758  
G18  22661921.219   119089164.501    22661923.762    92796785.745                  
R15  21628265.680   115574917.814    21628265.355    21628270.020    89891636.808  
R13  21364098.648   114083053.165    21364097.734    21364101.324    88731336.164  
G22  24020103.648   126226493.504    24020104.660    98358315.732                  
G08  24130500.625   126806613.968    24130506.602    98810394.961                  
G15  20829595.945   109460227.240    20829600.145    85293729.691    20829600.063  
G27  21685723.273   113959235.920    21685727.543    88799463.815                  
G28  21872533.531   114940861.789    21872536.234    89564406.478                  
R14  19183056.141   102256483.080    19183055.578    19183061.641    79532871.999  
> 2010 01 01 00 28 00.0000000  0 11                     
G09  21574688.352   113375739.421    21574692.613    88344783.550                  
G17  23549464.656   123753665.541    23549469.512    96431136.828    23549469.227  
G18  22660383.906   119081086.197    22660386.102    92790490.961                  
R15  21609134.578   115472688.520    21609134.723    21609138.871    89812125.156  
R13  21382518.219   114181410.897    21382517.188    21382521.016    88807836.609  
G22  24008110.727   126163474.932    24008112.074    98309210.334                  
G08  24150771.789   126913130.257    24150775.465    98893394.646                  
G15  20836835.258   109498272.786    20836839.891    85323375.556    20836839.539  
G27  21675136.867   113903606.206    21675141.371    88756115.999                  
G28  21882398.789   114992705.474    21882402.031    89604804.148                  
R14  19182670.172   102254424.845    19182669.965    19182676.082    79531271.149  
> 2010 01 01 00 28 30.0000000  0 11                     
G09  21556599.719   113280682.152    21556603.684    88270712.957                  
G17  23532349.242   123663719.862    23532353.141    96361049.275    23532353.176  
G18  22658958.719   119073597.773    22658961.016    92784655.817                  
R15  21590054.438   115370726.666    21590053.523    21590057.324    89732821.513  
R13  21400988.406   114280043.657    21400987.375    21400991.379    88884550.972  
G22  23996205.859   126100913.055    23996206.605    98260460.791                  
G08  24171062.555   127019765.268    24171067.863    98976486.813                  
G15  20844176.641   109536852.239    20844180.914    85353437.449    20844180.723  
G27  21664605.578   113848262.801    21664610.051    88712991.269                  
G28  21892344.414   115044969.535    21892347.492    89645529.396                  
R14  19182389.141   102252925.306    19182388.695    19182394.711    79530104.845  
> 2010 01 01 00 29 00.0000000  0 11                     
G09  21538573.844   113185957.639    21538578.016    88196901.661                  
G17  23515289.617   123574073.561    23515294.070    96291195.031    23515293.961  
G18  22657646.648   119066699.984    22657648.855    92779280.918                  
R15  21571024.227   115269034.073    21571023.664    21571027.801    89653727.289  
R13  21419510.734   114378949.712    21419509.469    21419513.988    88961477.889  
G22  23984388.117   126038810.273    23984389.316    98212069.000                  
G08  24191376.961   127126517.775    24191382.285    99059670.544                  
G15  20851619.602   109575965.012    20851623.820    85383914.925    20851623.949  
G27  21654128.938   113793206.869    21654133.297    88670090.556                  
G28  21902369.844   115097652.735    21902372.543    89686581.243                  
R14  19182212.664   102251984.756    19182211.984    19182218.121    79529373.307  
> 2010 01 01 00 29 30.0000000  0 11                     
G09  21520612.016   113091567.182    21520615.625    88123350.671                  
G17  23498287.984   123484728.638    23498291.750    96221575.606    23498292.254  
G18  22656446.094   119060392.235    22656448.301    92774365.784                  
R15  21552044.164   115167611.627    21552043.719    21552047.125    89574843.181  
R13  21438083.063   114478126.384    21438081.563    21438084.969    89038615.290  
G22  23972657.898   125977167.974    23972659.668    98164036.048                  
G08  24211714.516   127233385.793    24211719.164    99142944.279                  
G15  20859164.023   109615609.629    20859168.414    85414806.821    20859168.398  
G27  21643707.141   113738438.390    21643711.063    88627413.824                  
G28  21912474.188   115150752.388    21912477.020    89727957.604                  
R14  19182140.891   102251602.529    19182140.328    19182146.688    79529076.020  
> 2010 01 01 00 30 00.0000000  0 11                     
G09  21502714.008   112997513.365    21502718.316    88050061.994                  
G17  23481344.555   123395688.737    23481348.563    96152193.863    23481347.746  
G18  22655358.172   119054675.553    22655360.840    92769911.223                  
R15  21533115.242   115066461.937    21533115.035    21533118.301    89496171.213  
R13  21456705.898   114577572.473    21456705.102    21456709.664    89115962.212  
G22  23961015.648   125915988.746    23961018.031    98116363.916                  
G08  24232072.563   127340368.983    24232076.965    99226307.810                  
G15  20866809.305   109655785.860    20866813.605    85446112.962    20866813.555  
G27  21633339.586   113683958.732    21633344.457    88584962.154                  
G28  21922657.945   115204267.639    21922660.656    89769657.800                  
R14  19182173.500   102251778.532    19182173.293    19182179.809    79529212.913  
> 2010 01 01 00 30 30.0000000  0 11                     
G09  21484880.695   112903797.912    21484884.488    87977036.981                  
G17  23464459.594   123306956.214    23464463.309    96083051.600    23464463.383  
G18  22654382.688   119049549.397    22654385.090    92765916.823                  
R15  21514237.883   114965585.403    21514237.793    21514241.324    89417711.694  
R13  21475379.531   114677285.716    21475378.852    21475383.121    89193516.957  
G22  23949462.016   125855274.304    23949464.285    98069053.976                  
G08  24252451.516   127447465.490    24252456.832    99309759.625                  
G15  20874555.289   109696492.277    20874559.574    85477832.239    20874559.684  
G27  21623027.820   113629768.524    21623031.883    88542736.029                  
G28  21932919.977   115258196.496    21932923.109    89811680.290                  
R14  19182311.086   102252512.578    19182311.113    19182317.434    79529783.841  
> 2010 01 01 00 31 00.0000000  0 11                     
G09  21467111.727   112810423.529    21467115.684    87904277.737                  
G17  23447632.992   123218534.906    23447636.777    96014151.857    23447637.035  
G18  22653519.750   119045014.846    22653522.059    92762383.400                  
R15  21495412.469   114864985.042    21495410.852    21495414.871    89339466.996  
R13  21494102.867   114777264.930    21494101.367    21494105.648    89271278.573  
G22  23937997.719   125795027.305    23937999.688    98022108.285                  
G08  24272852.789   127554674.419    24272858.145    99393299.004                  
G15  20882402.695   109737729.201    20882406.535    85509964.894    20882406.488  
G27  21612771.086   113575869.138    21612775.172    88500736.511                  
G28  21943260.781   115312538.082    21943264.039    89854024.376                  
R14  19182553.758   102253805.498    19182552.844    19182559.422    79530789.443  
> 2010 01 01 00 31 30.0000000  0 11                     
G09  21449408.297   112717391.172    21449412.043    87831784.990                  
G17  23430866.523   123130426.322    23430870.656    95945495.806    23430870.527  
G18  22652769.273   119041071.340    22652772.020    92759310.539                  
R15  21476638.055   114764661.314    21476637.375    21476641.109    89261437.445  
R13  21512875.164   114877507.230    21512873.313    21512877.258    89349244.780  
G22  23926622.422   125735248.729    23926624.547    97975527.571                  
G08  24293274.227   127661993.054    24293279.609    99476923.929                  
G15  20890350.070   109779494.193    20890354.004    85542509.028    20890353.988  
G27  21602569.609   113522260.364    21602573.699    88458963.454                  
G28  21953679.789   115367289.629    21953683.328    89896687.928                  
R14  19182900.500   102255655.668    19182900.527    19182906.918    79532228.467  
> 2010 01 01 00 32 00.0000000  0 11                     
G09  21431770.188   112624703.548    21431774.383    87759560.871                  
G17  23414159.836   123042633.778    23414163.977    95877086.013    23414163.902  
G18  22652131.125   119037719.000    22652134.293    92756698.331                  
R15  21457915.773   114664617.267    21457914.859    21457918.414    89183625.415  
R13  21531695.820   114978011.045    21531694.672    21531698.148    89427414.397  
G22  23915336.273   125675940.879    23915338.250    97929313.662                  
G08  24313718.820   127769420.887    24313722.488    99560633.870                  
G15  20898398.305   109821787.012    20898401.941    85575464.459    20898402.262  
G27  21592423.766   113468943.464    21592428.129    88417417.819                  
G28  21964176.102   115422449.775    21964179.375    89939669.861                  
R14  19183352.602   102258063.472    19183352.512    19183358.719    79534101.204  
> 2010 01 01 00 32 30.0000000  0 12                     
G09  21414198.703   112532362.378    21414203.129    87687606.739                  
G17  23397514.586   122955159.884    23397518.156    95808924.535    23397518.254  
G18  22651605.180   119034957.793    22651608.246    92754546.729                  
R15  21439246.273   114564852.800    21439245.594    21439249.566    89106030.847  
G26  24681554.781   129702409.6401   24681558.867   101066852.989                  
R13  21550565.688   115078774.538    21550564.188    21550568.941    89505785.989  
G22  23904140.047   125617105.629    23904141.945    97883468.002                  
G08  24334181.141   127876956.437    24334185.836    99644427.796                  
G15  20906546.734   109864607.187    20906550.555    85608830.814    20906550.613  
G27  21582333.617   113415919.147    21582338.070    88376100.184                  
G28  21974750.281   115478016.487    21974753.363    89982968.601                  
R14  19183908.570   102261028.107    19183908.832    19183915.273    79536407.026  
> 2010 01 01 00 33 00.0000000  0 12                     
G09  21396692.750   112440370.379    21396697.172    87615924.695                  
G17  23380930.422   122868008.438    23380934.035    95741014.313    23380934.137  
G18  22651192.813   119032788.314    22651195.746    92752856.212                  
R15  21420629.648   114465371.272    21420628.617    21420633.051    89028656.344  
G26  24658420.289   129580837.730    24658424.188   100972121.580                  
R13  21569483.602   115179795.906    21569482.219    21569486.730    89584358.136  
G22  23893034.328   125558745.461    23893036.016    97837992.543                  
G08  24354665.227   127984598.626    24354670.133    99728304.827                  
G15  20914795.289   109907953.960    20914798.738    85642607.509    20914798.750  
G27  21572299.109   113363188.539    21572303.117    88335011.400                  
G28  21985401.805   115533988.915    21985404.523    90026583.482                  
R14  19184569.797   102264550.553    19184568.766    19184575.449    79539146.706  
> 2010 01 01 00 33 30.0000000  0 12                     
G09  21379254.086   112348729.589    21379258.113    87544516.305                  
G17  23364407.852   122781182.141    23364411.414    95673357.448    23364411.520  
G18  22650892.414   119031210.728    22650895.609    92751626.919                  
R15  21402065.938   114366174.043    21402064.906    21402069.754    88951502.945  
G26  24635309.305   129459387.265    24635312.961   100877484.861                  
R13  21588449.695   115281073.689    21588448.313    21588452.066    89663129.723  
G22  23882020.086   125500862.562    23882021.230    97792888.996                  
G08  24375168.133   128092346.165    24375173.164    99812263.923                  
G15  20923143.773   109951826.402    20923147.426    85676793.822    20923147.555  
G27  21562320.828   113310752.705    21562325.055    88294152.309                  
G28  21996129.641   115590365.393    21996132.742    90070513.219                  
R14  19185334.750   102268630.694    19185334.660    19185341.168    79542320.146  
> 2010 01 01 00 34 00.0000000  0 12                     
G09  21361882.602   112257441.853    21361887.117    87473383.007                  
G17  23347947.391   122694683.085    23347951.250    95605955.623    23347951.500  
G18  22650705.109   119030224.533    22650708.148    92750858.449                  
R15  21383556.258   114267262.601    21383555.227    21383559.273    88874571.822  
G26  24612221.570   129338060.203    24612225.105   100782944.294                  
R13  21607463.555   115382605.600    21607462.758    21607467.125    89742098.953  
G22  23871096.992   125443458.086    23871097.660    97748158.247                  
G08  24395692.422   128200197.895    24395697.469    99896304.173                  
G15  20931592.563   109996222.876    20931596.039    85711388.457    20931595.961  
G27  21552398.797   113258611.874    21552402.527    88253523.101                  
G28  22006934.648   115647143.645    22006937.383    90114756.015                  
R14  19186205.203   102273267.409    19186203.820    19186210.453    79545926.480  
> 2010 01 01 00 34 30.0000000  0 12                     
G09  21344579.313   112166509.044    21344583.047    87402526.281                  
G17  23331550.297   122608513.990    23331553.902    95538810.857    23331553.797  
G18  22650629.945   119029829.430    22650632.563    92750550.569                  
R15  21365099.398   114168638.146    21365099.074    21365103.199    88797863.909  
G26  24589157.164   129216859.120    24589161.504   100688501.935                  
R13  21626525.273   115484389.409    21626523.070    21626527.555    89821264.127  
G22  23860264.000   125386533.786    23860265.551    97703801.657                  
G08  24416235.781   128308151.439    24416239.672    99980423.797                  
G15  20940140.250   110041142.410    20940143.840    85746390.682    20940143.777  
G27  21542533.094   113206766.562    21542536.684    88213124.152                  
G28  22017815.203   115704321.650    22017818.066    90159310.304                  
R14  19187179.906   102278460.564    19187178.758    19187185.098    79549965.603  
> 2010 01 01 00 35 00.0000000  0 12                     
G09  21327342.609   112075932.699    21327346.859    87331947.315                  
G17  23315216.438   122522677.917    23315219.836    95471925.635    23315219.516  
G18  22650667.516   119030025.562    22650669.621    92750703.392                  
R15  21346696.883   114070302.423    21346696.793    21346701.285    88721380.579  
G26  24566117.602   129095786.278    24566121.770   100594159.482                  
R13  21645632.234   115586423.510    21645630.852    21645635.207    89900623.975  
G22  23849523.867   125330091.595    23849525.246    97659820.728                  
G08  24436796.648   128416205.663    24436802.469   100064621.905                  
G15  20948787.430   110086583.989    20948791.285    85781799.688    20948791.031  
G27  21532723.773   113155217.663    21532727.375    88172956.179                  
G28  22028771.109   115761897.722    22028773.777    90204174.783                  
R14  19188258.109   102284209.956    19188257.195    19188263.773    79554437.352  
> 2010 01 01 00 35 30.0000000  0 12                     
G09  21310174.938   111985714.729    21310178.805    87261647.605                  
G17  23298945.234   122437177.316    23298949.156    95405301.801    23298949.055  
G18  22650816.781   119030812.525    22650819.016    92751316.604                  
R15  21328349.297   113972256.969    21328348.617    21328353.543    88645123.042  
G26  24543103.211   128974844.153    24543107.496   100499918.830                  
R13  21664786.867   115688705.434    21664785.719    21664789.961    89980176.559  
G22  23838875.570   125274133.646    23838876.203    97616217.119                  
G08  24457377.766   128524358.788    24457382.676   100148897.023                  
G15  20957534.148   110132546.674    20957537.535    85817614.750    20957537.375  
G27  21522970.602   113103965.510    21522974.125    88133019.444                  
G28  22039802.828   115819870.030    22039806.020    90249348.008                  
R14  19189440.258   102290514.767    19189439.934    19189445.941    79559341.092  
> 2010 01 01 00 36 00.0000000  0 12                     
G09  21293075.484   111895857.516    21293079.703    87191629.002                  
G17  23282740.148   122352015.019    23282743.344    95338941.605    23282743.113  
G18  22651079.289   119032190.511    22651082.164    92752390.357                  
R15  21310056.703   113874503.785    21310055.672    21310060.223    88569092.816  
G26  24520113.969   128854035.266    24520118.328   100405782.020                  
R13  21683986.500   115791233.755    21683985.586    21683989.105    90059920.794  
G22  23828319.375   125218661.359    23828320.855    97572991.928                  
G08  24477977.945   128632610.181    24477982.168   100233248.719                  
G15  20966379.188   110179029.329    20966382.863    85853834.989    20966383.008  
G27  21513274.750   113053011.138    21513277.910    88093314.739                  
G28  22050909.719   115878236.692    22050913.016    90294828.522                  
R14  19190727.578   102297374.664    19190727.133    19190733.039    79564676.568  
> 2010 01 01 00 36 30.0000000  0 12                     
G09  21276045.664   111806364.203    21276049.801    87121893.961                  
G17  23266598.758   122267194.919    23266602.766    95272848.021    23266603.309  
G18  22651454.516   119034160.235    22651456.789    92753925.195                  
R15  21291818.969   113777045.418    21291818.172    21291822.508    88493291.881  
G26  24497151.094   128733363.343    24497155.262   100311751.967                  
R13  21703233.086   115894007.722    21703232.172    21703235.617    90139856.064  
G22  23817855.773   125163677.653    23817857.270    97530147.476                  
G08  24498595.875   128740958.980    24498600.758   100317676.340                  
G15  20975323.633   110226031.962    20975327.215    85890460.395    20975327.242  
G27  21503635.070   113002356.296    21503638.492    88053843.440                  
G28  22062091.086   115936997.715    22062094.664    90340616.329                  
R14  19192118.148   102304790.702    19192118.176    19192124.539    79570444.592  
> 2010 01 01 00 37 00.0000000  0 13                     
G09  21259085.164   111717236.318    21259089.375    87052443.674                  
G17  23250523.938   122182719.439    23250527.969    95207023.001    23250527.395  
G18  22651941.492   119036721.332    22651944.344    92755920.851                  
G11  24745928.008   130040670.4991                                                 
R15  21273636.250   113679882.796    21273635.453    21273639.211    88417720.967  
G26  24474214.078   128612830.409    24474218.855   100217830.198                  
R13  21722525.766   115997024.925    21722524.969    21722530.152    90219980.518  
G22  23807486.102   125109183.881    23807487.449    97487684.787                  
G08  24519232.906   128849403.404    24519236.891   100402178.428                  
G15  20984366.188   110273552.982    20984370.035    85927489.755    20984370.289  
G27  21494052.859   112952001.517    21494056.813    88014605.957                  
G28  22073348.117   115996150.342    22073351.199    90386709.277                  
R14  19193614.563   102312762.093    19193613.648    19193619.625    79576644.572  
> 2010 01 01 00 37 30.0000000  0 13                     
G09  21242194.797   111628475.031    21242198.801    86983279.040                  
G17  23234514.656   122098590.648    23234519.074    95141468.103    23234519.070  
G18  22652541.047   119039872.731    22652543.898    92758376.483                  
G11  24737109.531   129994616.4781                                                 
R15  21255509.688   113583017.014    21255508.539    21255512.254    88342380.911  
G26  24451304.289   128492438.408    24451309.203   100124018.276                  
R13  21741861.383   116100282.560    21741860.586    21741864.754    90300292.027  
G22  23797209.016   125055181.295    23797211.156    97445604.889                  
G08  24539886.500   128957941.640    24539891.039   100486753.684                  
G15  20993507.555   110321590.934    20993511.297    85964921.921    20993511.309  
G27  21484527.781   112901946.660    21484532.066    87975602.181                  
G28  22084678.414   116055692.152    22084681.211    90433105.501                  
R14  19195213.172   102321287.462    19195213.199    19195219.207    79583275.419  
> 2010 01 01 00 38 00.0000000  0 13                     
G09  21225374.148   111540082.554    21225377.961    86914401.788                  
G17  23218571.625   122014810.934    23218575.707    95076185.243    23218575.762  
G18  22653253.313   119043614.181    22653255.801    92761291.889                  
G11  24728380.727   129948759.6661                                                 
R15  21237437.648   113486450.241    21237436.969    21237440.527    88267273.428  
G26  24428422.469   128372189.562    24428426.676   100030317.867                  
R13  21761243.891   116203778.774    21761241.922    21761245.258    90380789.057  
G22  23787026.852   125001671.677    23787028.965    97403909.098                  
G08  24560557.523   129066572.103    24560562.480   100571400.771                  
G15  21002747.016   110370144.438    21002750.883    86002755.814    21002750.926  
G27  21475059.852   112852192.321    21475063.223    87936832.572                  
G28  22096082.758   116115621.167    22096085.219    90479803.443                  
R14  19196916.938   102330367.275    19196915.672    19196922.000    79590337.490  
> 2010 01 01 00 38 30.0000000  0 13                     
G09  21208624.109   111452061.741    21208628.359    86845814.157                  
G17  23202696.125   121931384.238    23202700.461    95011177.426    23202699.930  
G18  22654077.766   119047946.794    22654080.230    92764667.938                  
G11  24719747.555   129903382.414                                                  
R15  21219422.922   113390184.502    21219421.773    21219425.832    88192400.085  
G26  24405568.297   128252087.607    24405572.160    99936731.925                  
R13  21780669.094   116307513.146    21780667.828    21780671.633    90461471.326  
G22  23776938.828   124948657.688    23776940.559    97362599.475                  
G08  24581247.383   129175294.633    24581251.543   100656119.659                  
G15  21012084.563   110419213.719    21012088.492    86040991.615    21012088.406  
G27  21465649.406   112802740.404    21465652.664    87898298.617                  
G28  22107560.781   116175936.893    22107563.199    90526802.712                  
R14  19198723.844   102340000.917    19198723.047    19198729.406    79597830.328  
> 2010 01 01 00 39 00.0000000  0 13                     
G09  21191944.805   111364413.328    21191948.836    86777516.707                  
G17  23186887.844   121848312.207    23186891.848    94946446.014    23186892.477  
G18  22655014.500   119052868.664    22655017.281    92768503.159                  
G11  24711205.234   129858485.214                                                  
R15  21201463.641   113294220.385    21201463.785    21201467.500    88117761.349  
G26  24382741.555   128132133.772    24382745.180    99843261.405                  
R13  21800139.164   116411482.168    21800137.313    21800142.242    90542336.097  
G22  23766944.984   124896139.951    23766946.531    97321676.546                  
G08  24601952.641   129284106.363    24601957.961   100740907.933                  
G15  21021519.914   110468795.993    21021523.715    86079627.139    21021523.898  
G27  21456296.336   112753590.402    21456300.109    87859999.910                  
G28  22119111.180   116236636.390    22119113.840    90574101.031                  
R14  19200634.688   102350187.799    19200634.715    19200640.578    79605753.463  
> 2010 01 01 00 39 30.0000000  0 13                     
G09  21175337.563   111277139.916    21175341.684    86709511.458                  
G17  23171148.156   121765598.103    23171152.934    94881993.485    23171152.113  
G18  22656063.039   119058380.174    22656065.910    92772797.842                  
G11  24702752.430   129814070.621    24702756.703   101153657.8111                 
R15  21183562.039   113198560.093    21183562.066    21183566.043    88043358.905  
G26  24359943.625   128012331.311    24359947.102    99749908.825                  
R13  21819652.281   116515684.576    21819651.016    21819656.809    90623382.437  
G22  23757046.508   124844120.550    23757047.449    97281141.935                  
G08  24622674.672   129393006.507    24622680.887   100825765.190                  
G15  21031052.766   110518890.356    21031056.473    86118661.705    21031056.813  
G27  21447000.844   112704743.610    21447004.617    87821937.480                  
G28  22130734.742   116297718.066    22130737.629    90621697.144                  
R14  19202649.477   102360927.566    19202649.152    19202655.457    79614106.608  
> 2010 01 01 00 40 00.0000000  0 13                     
G09  21158801.906   111190244.652    21158805.477    86641800.872                  
G17  23155476.992   121683245.375    23155480.828    94817822.555    23155481.355  
G18  22657224.281   119064481.961    22657226.762    92777552.471                  
G11  24694393.734   129770141.528    24694397.285   101119427.348                  
R15  21165719.461   113103206.457    21165717.492    21165721.570    87969194.966  
G26  24337176.023   127892683.693    24337179.207    99656676.882                  
R13  21839209.391   116620119.708    21839208.477    21839213.000    90704609.740  
G22  23747242.063   124792602.411    23747244.531    97240997.922                  
G08  24643416.508   129501994.860    24643421.332   100910691.123                  
G15  21040682.586   110569497.402    21040686.684    86158095.750    21040686.750  
G27  21437763.656   112656201.817    21437768.047    87784112.710                  
G28  22142430.516   116359181.269    22142433.340    90669590.554                  
R14  19204768.500   102372221.428    19204768.176    19204774.367    79622890.725  
> 2010 01 01 00 40 30.0000000  0 13                     
G09  21142338.547   111103728.336    21142342.375    86574385.566                  
G17  23139874.891   121601255.760    23139879.484    94753934.582    23139878.977  
G18  22658497.617   119071172.733    22658500.449    92782766.055                  
G11  24686126.469   129726698.640    24686130.277   101085575.793                  
R15  21147932.219   113008160.148    21147930.953    21147935.133    87895270.067  
G26  24314436.664   127773192.289    24314440.730    99563566.721                  
R13  21858810.023   116724784.384    21858808.875    21858813.254    90786015.528  
G22  23737534.313   124741585.810    23737536.496    97201244.746                  
G08  24664172.164   129611068.532    24664176.711   100995683.675                  
G15  21050410.320   110620614.369    21050413.941    86197927.146    21050413.988  
G27  21428585.031   112607964.466    21428588.672    87746525.163                  
G28  22154198.219   116421022.963    22154201.793    90717778.876                  
R14  19206990.836   102384067.331    19206989.805    19206996.156    79632104.208  
> 2010 01 01 00 41 00.0000000  0 13                     
G09  21125947.070   111017591.682    21125950.672    86507266.113                  
G17  23124342.367   121519630.933    23124346.020    94690330.822    23124346.363  
G18  22659882.836   119078450.843    22659885.109    92788437.298                  
G11  24677949.500   129683742.818    24677956.734   101052103.754                  
R15  21130202.719   112913421.296    21130202.039    21130206.129    87821584.299  
G26  24291728.375   127653858.813    24291732.125    99470579.604                  
R13  21878453.031   116829675.703    21878451.297    21878457.266    90867597.655  
G22  23727922.359   124691071.536    23727924.266    97161882.985                  
G08  24684942.977   129720225.357    24684948.574   101080740.850                  
G15  21060234.070   110672239.184    21060237.980    86238154.263    21060237.930  
G27  21419463.539   112560031.072    21419466.969    87709174.461                  
G28  22166037.625   116483240.048    22166041.203    90766259.718                  
R14  19209316.234   102396463.386    19209315.555    19209321.895    79641745.580  
> 2010 01 01 00 41 30.0000000  0 13                     
G09  21109629.594   110931839.241    21109632.703    86440446.024                  
G17  23108879.211   121438375.654    23108883.914    94627015.072    23108883.898  
G18  22661379.813   119086318.495    22661382.438    92794567.926                  
G11  24669871.289   129641278.137    24669876.117   101019014.302                  
R15  21112531.781   112818993.908    21112531.336    21112535.715    87748140.783  
G26  24269050.844   127534687.920    24269054.699    99377719.159                  
R13  21898138.852   116934794.234    21898137.234    21898142.609    90949356.513  
G22  23718405.547   124641063.669    23718407.941    97122915.813                  
G08  24705731.109   129829466.041    24705736.242   101165863.435                  
G15  21070154.727   110724372.852    21070158.961    86278777.884    21070158.715  
G27  21410400.336   112512404.814    21410404.344    87672063.093                  
G28  22177948.828   116545833.353    22177952.215    90815033.706                  
R14  19211745.891   102409411.870    19211744.625    19211751.105    79651816.619  
> 2010 01 01 00 42 00.0000000  0 13                     
G09  21093384.070   110846472.428    21093387.793    86373926.436                  
G17  23093488.516   121357491.933    23093492.637    94563988.806    23093492.012  
G18  22662988.750   119094774.471    22662991.797    92801156.977                  
G11  24661884.938   129599305.730                                                  
R15  21094920.031   112724879.465    21094919.234    21094923.430    87674940.673  
G26  24246404.773   127415681.667    24246408.465    99284987.024                  
R13  21917865.836   117040137.442    21917864.219    21917869.980    91031290.125  
G22  23708985.633   124591563.026    23708988.125    97084343.876                  
G08  24726534.359   129938789.125    24726540.422   101251050.226                  
G15  21080171.969   110777013.195    21080176.078    86319796.321    21080176.301  
G27  21401395.852   112465085.863    21401399.777    87635191.184                  
G28  22189931.781   116608800.531    22189934.016    90864099.032                  
R14  19214278.445   102422911.866    19214277.297    19214283.699    79662316.613  
> 2010 01 01 00 42 30.0000000  0 13                     
G09  21077213.211   110761492.822    21077216.711    86307708.568                  
G17  23078167.586   121276982.363    23078171.316    94501254.103    23078171.273  
G18  22664709.727   119103818.143    22664712.867    92808203.982                  
G11  24653991.336   129557827.535                                                  
R15  21077366.602   112631078.892    21077365.688    21077369.918    87601984.668  
G26  24223790.656   127296842.627    24223794.391    99192385.202                  
R13  21937634.703   117145702.818    21937633.672    21937638.063    91113396.475  
G22  23699663.000   124542570.972    23699664.039    97046168.270                  
G08  24747352.969   130048192.858    24747358.348   101336299.915                  
G15  21090285.484   110830159.285    21090289.277    86361208.842    21090289.305  
G27  21392449.898   112418074.733    21392454.000    87598559.131                  
G28  22201983.883   116672139.081    22201986.719    90913453.759                  
R14  19216913.969   102436962.561    19216913.289    19216919.488    79673244.925  
> 2010 01 01 00 43 00.0000000  0 12                     
G09  21061116.133   110676901.834    21061119.480    86241793.514                  
G17  23062919.320   121196849.242    23062923.004    94438812.728    23062922.695  
G18  22666541.773   119113448.692    22666545.258    92815708.284                  
R15  21059871.164   112537593.535    21059871.309    21059875.648    87529273.846  
G26  24201208.391   127178172.830    24201211.637    99099915.231                  
R13  21957445.469   117251488.822    21957443.969    21957449.148    91195674.447  
G22  23690437.539   124494088.830    23690438.121    97008389.960                  
G08  24768188.109   130157675.253    24768192.953   101421610.823                  
G15  21100494.492   110883809.191    21100499.063    86403013.949    21100499.027  
G27  21383562.703   112371371.731    21383566.664    87562167.190                  
G28  22214107.766   116735846.977    22214110.109    90963096.278                  
R14  19219652.414   102451562.971    19219652.090    19219658.453    79684600.798  
> 2010 01 01 00 43 30.0000000  0 12                     
G09  21045093.305   110592702.078    21045096.879    86176183.320                  
G17  23047742.523   121117095.854    23047746.328    94376667.261    23047746.332  
G18  22668486.688   119123666.047    22668489.121    92823669.842                  
R15  21042436.945   112444425.416    21042435.445    21042440.227    87456809.751  
G26  24178659.094   127059675.229    24178663.195    99007579.446                  
R13  21977297.078   117357493.888    21977294.992    21977301.039    91278122.835  
G22  23681309.094   124446118.816    23681309.328    96971010.722                  
G08  24789036.203   130267235.200    24789041.453   101506982.204                  
G15  21110799.461   110937961.813    21110803.875    86445210.773    21110803.730  
G27  21374734.016   112324977.936    21374738.645    87526016.186                  
G28  22226301.000   116799922.955    22226303.598    91013025.630                  
R14  19222494.766   102466712.537    19222494.320    19222500.168    79696383.784  
> 2010 01 01 00 44 00.0000000  0 12                     
G09  21029145.609   110508896.248    21029149.301    86110880.091                  
G17  23032638.180   121037725.029    23032642.504    94314819.893    23032642.656  
G18  22670543.070   119134470.142    22670545.000    92832088.609                  
R15  21025061.297   112351577.193    21025060.973    21025065.711    87384594.489  
G26  24156142.594   126941353.052    24156146.727    98915380.336                  
R13  21997189.148   117463716.593    21997188.117    21997192.293    91360740.507  
G22  23672278.594   124398662.629    23672279.703    96934031.875                  
G08  24809899.305   130376872.629    24809905.148   101592413.935                  
G15  21121199.727   110992616.563    21121204.008    86487798.873    21121203.965  
G27  21365964.922   112278894.556    21365969.109    87490107.061                  
G28  22238563.781   116864365.413    22238566.543    91063240.537                  
R14  19225439.906   102482411.915    19225439.461    19225445.656    79708594.407  
> 2010 01 01 00 44 30.0000000  0 13                     
G09  21013273.164   110425485.447    21013277.238    86045884.670                  
G17  23017608.445   120958739.168    23017611.820    94253272.501    23017612.016  
G18  22672709.945   119145860.211    22672712.828    92840963.980                  
G11  24623366.453   129396773.3311                                                 
R15  21007746.297   112259049.274    21007745.266    21007749.922    87312628.351  
G26  24133660.906   126823208.538    24133664.953    98823319.676                  
R13  22017121.281   117570154.550    22017120.367    22017122.793    91443525.531  
G22  23663345.883   124351721.499    23663347.406    96897454.371                  
G08  24830776.898   130486585.247    24830782.926   101677904.299                  
G15  21131695.828   111047771.991    21131699.734    86530777.101    21131699.805  
G27  21357254.500   112233121.707    21357258.867    87454439.911                  
G28  22250895.453   116929172.299    22250899.227    91113739.416                  
R14  19228487.570   102498659.845    19228487.008    19228493.250    79721231.684  
> 2010 01 01 00 45 00.0000000  0 13                     
G09  20997476.344   110342472.279    20997480.363    85981199.082                  
G17  23002650.938   120880141.175    23002655.566    94192027.323    23002655.258  
G18  22674989.016   119157835.631    22674991.609    92850295.469                  
G11  24615946.797   129357792.1141                                                 
R15  20990491.625   112166844.387    20990491.063    20990495.211    87240913.464  
G26  24111213.414   126705244.492    24111217.828    98731399.639                  
R13  22037093.500   117676806.393    22037092.820    22037097.805    91526476.938  
G22  23654511.609   124305297.186    23654513.637    96861279.580                  
G08  24851667.883   130596371.929    24851674.461   101763452.366                  
G15  21142286.672   111103426.647    21142290.414    86574144.354    21142290.387  
G27  21348603.523   112187660.450    21348608.102    87419015.560                  
G28  22263297.188   116994342.029    22263301.156    91164521.001                  
R14  19231638.664   102515456.846    19231638.457    19231644.543    79734296.021  
> 2010 01 01 00 45 30.0000000  0 13                     
G09  20981755.445   110259857.731    20981759.293    85916824.115                  
G17  22987767.953   120801932.453    22987772.766    94131085.484    22987772.855  
G18  22677378.922   119170395.312    22677381.383    92860082.220                  
G11  24608626.453   129319315.140                                                  
R15  20973297.758   112074962.614    20973296.141    20973300.105    87169449.869  
G26  24088799.906   126587462.834    24088804.430    98639621.737                  
R13  22057106.633   117783669.297    22057105.250    22057110.273    91609592.516  
G22  23645775.844   124259390.869    23645777.375    96825508.410                  
G08  24872573.797   130706230.848    24872579.656   101849056.617                  
G15  21152971.688   111159578.633    21152976.000    86617899.132    21152975.813  
G27  21340011.555   112142510.850    21340016.305    87383834.059                  
G28  22275767.344   117059871.642    22275770.848    91215583.020                  
R14  19234892.305   102532800.810    19234891.625    19234897.723    79747785.768  
> 2010 01 01 00 46 00.0000000  0 13                     
G09  20966110.789   110177645.176    20966115.117    85852762.395                  
G17  22972960.977   120724116.925    22972964.996    94070450.050    22972964.445  
G18  22679880.641   119183539.801    22679883.332    92870324.662                  
G11  24601399.813   129281344.947                                                  
R15  20956163.859   111983407.566    20956163.063    20956166.691    87098240.394  
G26  24066422.148   126469867.428    24066426.820    98547988.969                  
R13  22077157.672   117890742.909    22077157.227    22077161.012    91692871.963  
G22  23637139.156   124214004.728    23637140.715    96790142.606                  
G08  24893494.406   130816161.627    24893499.160   101934717.030                  
G15  21163751.734   111216227.609    21163755.930    86662041.169    21163755.723  
G27  21331479.773   112097674.789    21331484.027    87348896.871                  
G28  22288305.406   117125760.566    22288308.766    91266925.031                  
R14  19238248.578   102550691.589    19238247.898    19238253.645    79761700.818  
> 2010 01 01 00 46 30.0000000  0 13                     
G09  20950542.664   110095836.219    20950547.539    85789015.166                  
G17  22958228.531   120646697.092    22958232.199    94010122.928    22958232.406  
G18  22682492.867   119197267.984    22682495.820    92881021.948                  
G11  24594271.055   129243883.103                                                  
R15  20939091.578   111892180.249    20939090.664    20939095.043    87027285.823  
G26  24044080.602   126352460.473    24044084.770    98456503.051                  
R13  22097248.148   117998024.887    22097247.117    22097251.215    91776313.462  
G22  23628601.820   124169140.222    23628602.996    96755183.251                  
G08  24914426.438   130926162.248    24914431.500   102020431.707                  
G15  21174626.266   111273371.978    21174630.418    86706569.245    21174630.199  
G27  21323007.469   112053152.398    21323011.930    87314204.102                  
G28  22300912.039   117192006.652    22300914.656    91318545.364                  
R14  19241707.625   102569129.855    19241707.418    19241713.098    79776041.688  
> 2010 01 01 00 47 00.0000000  0 12                     
G09  20935052.305   110014432.852    20935056.699    85725583.970                  
G17  22943571.625   120569675.824    22943575.273    93950106.385    22943575.199  
G18  22685215.828   119211579.513    22685218.672    92892173.780                  
R15  20922080.844   111801282.605    20922079.930    20922084.133    86956587.674  
G26  24021774.867   126235244.816    24021779.246    98365166.198                  
R13  22117377.734   118105513.726    22117375.883    22117379.852    91859915.837  
G22  23620163.484   124124798.930    23620165.531    96720631.586                  
G08  24935371.836   131036231.694    24935377.555   102106200.157                  
G15  21185594.664   111331010.181    21185598.348    86751482.108    21185598.344  
G27  21314595.031   112008944.682    21314599.547    87279756.542                  
G28  22313585.703   117258608.219    22313588.129    91370442.699                  
R14  19245269.430   102588114.291    19245268.633    19245273.992    79790807.359  
> 2010 01 01 00 47 30.0000000  0 11                     
G09  20919639.016   109933436.219    20919643.512    85662469.722                  
G17  22928991.172   120493054.718    22928994.988    93890401.657    22928994.844  
G18  22688050.078   119226472.983    22688052.945    92903779.063                  
R15  20905131.930   111710714.835    20905131.367    20905135.453    86886146.079  
G26  23999506.641   126118222.367    23999510.250    98273979.878                  
R13  22137545.063   118213206.683    22137543.328    22137547.707    91943676.978  
G22  23611826.297   124080981.539    23611827.695    96686488.155                  
G15  21196656.070   111389140.553    21196660.301    86796778.495    21196660.035  
G27  21306242.656   111965051.516    21306246.754    87245554.075                  
G28  22326326.266   117325562.408    22326328.801    91422614.814                  
R14  19248932.711   102607643.759    19248932.031    19248937.672    79805996.943  
> 2010 01 01 00 48 00.0000000  0 12                     
G09  20904304.273   109852850.241    20904308.340    85599675.463                  
G17  22914488.234   120416838.240    22914491.512    93831012.223    22914491.574  
G18  22690995.594   119241949.418    22690998.438    92915838.605                  
R15  20888246.797   111620480.969    20888246.000    20888249.223    86815964.191  
G26  23977275.828   126001397.902    23977279.617    98182947.794                  
R13  22157750.328   118321103.995    22157748.828    22157753.797    92027597.078  
G22  23603588.266   124037691.315    23603589.734    96652755.520                  
G15  21207811.492   111447763.490    21207815.660    86842458.700    21207815.734  
G12  25146207.211   132144197.7031   25146212.996   102969535.8561   25146212.672  
G27  21297950.453   111921475.565    21297954.609    87211598.795                  
G28  22339134.555   117392869.630    22339137.297    91475062.016                  
R14  19252699.242   102627719.203    19252698.445    19252704.020    79821611.180  
> 2010 01 01 00 48 30.0000000  0 13                     
G09  20889047.422   109772675.702    20889051.910    85537201.801                  
G17  22900061.258   120341027.632    22900065.148    93771939.037    22900065.258  
G18  22694051.117   119258007.049    22694054.242    92928351.039                  
G11  24566730.438                                                                  
R15  20871422.625   111530581.796    20871421.828    20871426.043    86746042.626  
G26  23955083.031   125884772.811    23955086.984    98092071.072                  
R13  22177993.180   118429202.414    22177991.328    22177997.070    92111673.624  
G22  23595450.477   123994928.347    23595452.766    96619433.734                  
G15  21219060.492   111506875.957    21219064.578    86888520.342    21219064.383  
G12  25123957.086   132027274.560    25123962.902   102878426.922    25123963.266  
G27  21289718.148   111878216.335    21289722.637    87177890.307                  
G28  22352008.820   117460526.517    22352012.387    91527781.673                  
R14  19256567.500   102648339.506    19256567.410    19256572.742    79837649.198  
> 2010 01 01 00 49 00.0000000  0 12                     
G09  20873869.234   109692914.224    20873873.313    85475050.002                  
G17  22885713.102   120265625.185    22885716.871    93713183.928    22885716.734  
G18  22697217.391   119274644.757    22697220.234    92941315.463                  
R15  20854661.625   111441017.785    20854661.535    20854665.727    86676381.740  
G26  23932928.430   125768349.246    23932932.109    98001351.387                  
R13  22198274.250   118537499.993    22198272.633    22198276.457    92195905.050  
G22  23587414.008   123952693.933    23587415.824    96586523.793                  
G15  21230402.109   111566476.500    21230405.852    86934962.312    21230405.867  
G12  25101718.719   131910410.144    25101723.961   102787363.752    25101724.738  
G27  21281546.672   111835274.001    21281550.848    87144428.753                  
G28  22364949.570   117528530.743    22364953.613    91580771.972                  
R14  19260537.789   102669503.492    19260537.465    19260543.551    79854110.075  
> 2010 01 01 00 49 30.0000000  0 13                     
G09  20858770.133   109613567.856    20858774.383    85413221.672                  
G17  22871442.656   120190633.702    22871446.465    93654749.022    22871446.496  
G18  22700493.164   119291861.943    22700495.801    92954731.451                  
G11  24553552.906   129029738.0121                                                 
R15  20837965.000   111351791.229    20837964.438    20837968.023    86606983.321  
G26  23910811.977   125652130.174    23910816.637    97910791.086                  
R13  22218591.977   118645995.265    22218590.594    22218595.492    92280290.222  
G22  23579476.758   123910989.443    23579479.422    96554026.780                  
G15  21241836.125   111626564.030    21241839.914    86981783.754    21241840.066  
G12  25079492.438   131793606.435    25079497.039   102696347.913    25079497.211  
G27  21273435.477   111792649.515    21273439.559    87111214.865                  
G28  22377956.484   117596880.827    22377960.160    91634031.762                  
R14  19264610.422   102691210.277    19264609.391    19264616.020    79870993.133  
> 2010 01 01 00 50 00.0000000  0 13                     
G09  20843750.711   109534639.370    20843754.605    85351718.964                  
G17  22857250.641   120116056.322    22857254.477    93596636.806    22857254.754  
G18  22703880.117   119309658.448    22703882.480    92968598.848                  
G11  24547107.750                                                                  
R15  20821331.266   111262904.310    20821330.000    20821333.926    86537849.055  
G26  23888735.633   125536118.829    23888739.801    97820392.732                  
R13  22238946.000   118754686.931    22238944.734    22238949.371    92364828.200  
G22  23571642.063   123869817.086    23571643.902    96521944.433                  
G15  21253362.766   111687137.374    21253366.781    87028983.739    21253366.723  
G12  25057277.172   131676865.943    25057282.219   102605381.366    25057282.336  
G27  21265385.070   111750344.205    21265388.969    87078249.700                  
G28  22391029.156   117665575.230    22391032.266    91687559.861                  
R14  19268783.789   102713460.144    19268783.344    19268790.207    79888298.591  
> 2010 01 01 00 50 30.0000000  0 12                     
G09  20828810.547   109456129.386    20828814.551    85290542.365                  
G17  22843138.031   120041894.530    22843142.074    93538848.418    22843141.805  
G18  22707376.250   119328032.344    22707379.453    92982916.168                  
R15  20804760.320   111174357.918    20804760.230    20804764.504    86468979.670  
G26  23866699.563   125420317.184    23866703.617    97730157.712                  
R13  22259337.406   118863572.091    22259335.555    22259340.945    92449516.614  
G22  23563909.148   123829177.188    23563910.246    96490276.967                  
G15  21264981.531   111748193.972    21264985.379    87076560.289    21264985.617  
G12  25035074.297   131560189.304    25035079.500   102514464.551    25035079.680  
G27  21257395.391   111708357.702    21257399.434    87045532.941                  
G28  22404166.391   117734611.251    22404169.504    91741354.172                  
R14  19273059.852   102736251.125    19273058.352    19273065.477    79906024.902  
> 2010 01 01 00 51 00.0000000  0 12                     
G09  20813950.867   109378040.690    20813954.711    85229694.040                  
G17  22829105.484   119968151.611    22829108.691    93481386.450    22829108.797  
G18  22710982.766   119346983.736    22710985.961    92997683.485                  
R15  20788254.391   111086154.447    20788253.945    20788258.715    86400376.966  
G26  23844703.883   125304728.504    23844707.410    97640088.567                  
R13  22279764.156   118972649.921    22279762.070    22279767.777    92534354.932  
G22  23556276.734   123789071.535    23556279.129    96459025.825                  
G15  21276692.242   111809733.161    21276696.305    87124512.884    21276696.402  
G12  25012884.297   131443579.110    25012888.859   102423599.520    25012888.207  
G27  21249466.078   111666691.389    21249470.434    87013065.690                  
G28  22417368.180   117803987.752    22417371.285    91795413.793                  
R14  19277435.961   102759583.653    19277435.754    19277442.496    79924172.421  
> 2010 01 01 00 51 30.0000000  0 13                     
G09  20799171.094   109300374.511    20799175.371    85169174.946                  
G17  22815152.523   119894829.322    22815156.176    93424252.225    22815155.949  
G18  22714698.703   119366511.242    22714701.641    93012899.706                  
G11  24528369.570                                                                  
R15  20771812.930   110998294.649    20771812.016    20771816.230    86332041.561  
G26  23822748.914   125189355.025    23822751.223    97550187.098                  
R13  22300225.797   119081918.010    22300224.766    22300230.066    92619341.193  
G22  23548746.781   123749501.123    23548749.141    96428191.733                  
G15  21288494.297   111871752.698    21288497.555    87172839.772    21288497.555  
G12  24990706.844   131327036.583    24990711.473   102332787.203    24990711.492  
G27  21241598.492   111625345.393    21241602.402    86980848.037                  
G28  22430634.133   117873702.092    22430636.891    91849736.660                  
R14  19281914.078   102783455.846    19281913.871    19281920.672    79942739.668  
> 2010 01 01 00 52 00.0000000  0 12                     
G09  20784472.672   109223133.984    20784476.629    85108987.529                  
G17  22801280.414   119821931.112    22801283.918    93367448.443    22801283.844  
G18  22718524.125   119386614.847    22718527.016    93028564.842                  
R15  20755435.609   110910781.170    20755434.930    20755439.508    86263975.531  
G26  23800835.367   125074200.353    23800838.363    97460456.162                  
R13  22320724.039   119191375.187    22320722.773    22320727.180    92704474.549  
G22  23541319.320   123710467.966    23541321.953    96397776.283                  
G15  21300387.422   111934252.079    21300390.957    87221540.578    21300391.043  
G12  24968543.500   131210564.585    24968547.824   102242029.861    24968547.336  
G27  21233792.055   111584321.231    21233796.020    86948881.169                  
G28  22443964.422   117943753.483    22443967.469    91904322.163                  
R14  19286494.492   102807868.800    19286493.813    19286500.500    79961727.509  
> 2010 01 01 00 52 30.0000000  0 12                     
G09  20769855.586   109146320.559    20769859.738    85049132.914                  
G17  22787489.438   119749459.066    22787493.449    93310976.738    22787493.309  
G18  22722458.797   119407293.321    22722461.945    93044677.940                  
R15  20739123.992   110823615.320    20739123.078    20739127.508    86196179.863  
G26  23778964.438   124959266.828    23778968.465    97370897.569                  
R13  22341256.289   119301019.714    22341255.375    22341261.270    92789753.596  
G22  23533994.133   123671973.277    23533996.133    96367780.417                  
G15  21312371.398   111997229.689    21312375.027    87270614.034    21312375.008  
G12  24946393.305   131094164.501    24946397.625   102151328.562    24946397.438  
G27  21226046.477   111543619.424    21226049.996    86917165.475                  
G28  22457358.359   118014140.034    22457361.637    91959168.833                  
R14  19291175.922   102832820.706    19291175.125    19291181.660    79981134.550  
> 2010 01 01 00 53 00.0000000  0 12                     
G09  20755320.406   109069936.183    20755324.215    84989612.634                  
G17  22773779.906   119677415.806    22773783.781    93254839.170    22773784.027  
G18  22726503.266   119428545.405    22726506.063    93061237.986                  
R15  20722877.242   110736798.847    20722876.918    20722881.355    86128655.955  
G26  23757136.039   124844557.237    23757139.934    97281513.510                  
R13  22361824.531   119410849.959    22361824.207    22361828.359    92875177.099  
G22  23526771.539   123634018.189    23526773.070    96338205.021                  
G15  21324446.539   112060683.836    21324450.246    87320058.807    21324450.258  
G12  24924256.617   130977837.978    24924261.324   102060684.577    24924261.527  
G27  21218362.695   111503240.487    21218366.172    86885701.369                  
G28  22470815.609   118084859.062    22470819.285    92014274.557                  
R14  19295957.805   102858311.690    19295957.008    19295963.301    80000960.869  
> 2010 01 01 00 53 30.0000000  0 12                     
G09  20740866.883   108993982.661    20740870.848    84930428.073                  
G17  22760151.992   119605803.567    22760156.766    93199037.432    22760156.789  
G18  22730656.398   119450370.121    22730659.238    93078244.244                  
R15  20706696.992   110650333.105    20706696.195    20706700.734    86061404.831  
G26  23735351.461   124730074.153    23735354.969    97192305.939                  
R13  22382427.563   119520863.370    22382425.945    22382429.242    92960743.041  
G22  23519651.555   123596603.677    23519653.211    96309050.841                  
G15  21336611.594   112124612.645    21336614.895    87369873.452    21336615.316  
G12  24902134.828   130861587.097    24902139.078   101970099.516    24902139.270  
G27  21210740.508   111463184.810    21210743.699    86854489.155                  
G28  22484336.430   118155908.783    22484339.770    92069637.971                  
R14  19300840.148   102884340.328    19300840.059    19300845.457    80021205.366  
> 2010 01 01 00 54 00.0000000  0 12                     
G09  20726495.992   108918462.521    20726499.883    84871581.217                  
G17  22746606.977   119534625.214    22746611.324    93143573.807    22746611.258  
G18  22734918.773   119472767.176    22734921.535    93095696.491                  
R15  20690581.055   110564220.373    20690580.609    20690585.590    85994428.278  
G26  23713609.406   124615820.844    23713612.832    97103277.391                  
R13  22403063.648   119631059.389    22403062.266    22403065.887    93046451.029  
G22  23512635.609   123559731.614    23512637.230    96280319.352                  
G15  21348867.016   112189015.283    21348870.977    87420057.317    21348871.078  
G12  24880027.563   130745413.761    24880032.160   101879574.898    24880032.508  
G27  21203179.508   111423453.809    21203183.152    86823529.925                  
G28  22497919.422   118227287.968    22497922.746    92125258.101                  
R14  19305824.438   102910906.254    19305823.641    19305828.980    80041867.749  
> 2010 01 01 00 54 30.0000000  0 12                     
G09  20712208.125   108843377.425    20712212.133    84813073.353                  
G17  22733146.438   119463883.293    22733150.418    93088450.244    22733149.859  
G18  22739288.859   119495735.365    22739292.043    93113593.758                  
R15  20674532.758   110478461.955    20674532.902    20674537.559    85927727.282  
G26  23691912.547   124501799.928    23691915.215    97014429.913                  
R13  22423733.250   119741435.951    22423731.984    22423735.625    93132299.426  
G22  23505722.078   123523402.891    23505724.078    96252011.249                  
G15  21361212.516   112253889.683    21361216.125    87470608.790    21361216.230  
G12  24857935.781   130629319.933    24857940.160   101789112.234    24857940.461  
G27  21195681.258   111384048.159    21195684.727    86792824.228                  
G28  22511564.688   118298994.576    22511568.176    92181133.373                  
R14  19310908.398   102938009.043    19310908.660    19310914.156    80062947.694  
> 2010 01 01 00 55 00.0000000  0 13                     
G09  20698002.375   108768728.803    20698006.863    84754905.602                  
G17  22719767.359   119393579.926    22719771.563    93033668.391    22719771.703  
G18  22743768.383   119519273.283    22743770.926    93131934.980                  
G11  24488175.258   128686258.7671                                                 
R15  20658551.094   110393059.294    20658550.297    20658554.809    85861302.998  
G26  23670259.500   124388013.965    23670261.590    96925765.482                  
R13  22444437.445   119851991.014    22444435.242    22444438.418    93218286.661  
G22  23498913.438   123487618.722    23498914.504    96224127.465                  
G15  21373647.453   112319233.901    21373650.617    87521526.363    21373650.770  
G12  24835858.797   130513306.962    24835863.652   101698712.604    24835864.137  
G27  21188244.453   111344967.938    21188248.277    86762372.114                  
G28  22525272.180   118371026.152    22525274.707    92237261.871                  
R14  19316093.961   102965647.001    19316093.281    19316099.273    80084443.885  
> 2010 01 01 00 55 30.0000000  0 13                     
G09  20683881.047   108694519.199    20683885.039    84697079.945                  
G17  22706473.547   119323717.808    22706477.895    92979230.395    22706477.258  
G18  22748355.281   119543380.675    22748358.492    93150719.935                  
G11  24482836.906   128658213.1361                                                 
R15  20642635.227   110308014.645    20642635.957    20642640.340    85795157.169  
G26  23648651.828   124274466.268    23648654.953    96837286.738                  
R13  22465172.773   119962723.439    22465171.391    22465176.613    93304411.825  
G22  23492207.055   123452380.304    23492209.320    96196668.959                  
G15  21386170.945   112385047.477    21386174.703    87572809.656    21386174.891  
G12  24813798.063   130397377.399    24813803.133   101608377.913    24813803.402  
G27  21180869.820   111306214.639    21180873.492    86732174.743                  
G28  22539040.922   118443381.876    22539043.430    92293642.949                  
R14  19321379.039   102993820.368    19321378.594    19321384.246    80106356.507  
> 2010 01 01 00 56 00.0000000  0 13                     
G09  20669843.398   108620750.656    20669847.797    84639597.969                  
G17  22693263.281   119254299.699    22693267.195    92925138.366    22693267.055  
G18  22753050.859   119568056.801    22753054.277    93169948.061                  
G11  24477601.844   128630704.378                                                  
R15  20626788.711   110223329.718    20626787.914    20626791.844    85729291.117  
G26  23627090.328   124161159.531    23627093.727    96748995.764                  
R13  22485941.664   120073631.482    22485941.340    22485946.184    93390673.603  
G22  23485605.828   123417689.543    23485607.340    96169637.193                  
G15  21398783.734   112451328.183    21398787.387    87624456.962    21398787.414  
G12  24791753.391   130281532.793    24791758.352   101518109.422    24791758.566  
G27  21173557.742   111267788.915    21173560.906    86702232.621                  
G28  22552870.773   118516059.494    22552873.629    92350274.862                  
R14  19326764.516   103022528.299    19326764.309    19326769.832    80128684.897  
> 2010 01 01 00 56 30.0000000  0 13                     
G09  20655889.992   108547425.010    20655894.098    84582461.112                  
G17  22680138.719   119185327.671    22680142.188    92871393.946    22680141.891  
G18  22757854.898   119593300.185    22757857.852    93189618.205                  
G11  24472471.422   128603733.832                                                  
R15  20611009.023   110139005.849    20611007.758    20611011.891    85663705.897  
G26  23605575.016   124048096.612    23605579.000    96660894.793                  
R13  22506744.578   120184713.372    22506743.195    22506746.848    93477070.594  
G22  23479108.398   123383547.001    23479109.965    96143032.597                  
G15  21411485.219   112518074.836    21411489.223    87676467.338    21411489.180  
G12  24769725.516   130165775.178    24769730.406   101427908.705    24769730.535  
G27  21166307.844   111229691.214    21166311.434    86672546.090                  
G28  22566761.094   118589056.830    22566764.086    92407155.908                  
R14  19332249.836   103051770.252    19332249.273    19332255.016    80151428.638  
> 2010 01 01 00 57 00.0000000  0 13                     
G09  20642020.992   108474544.147    20642025.664    84525670.830                  
G17  22667098.953   119116804.234    22667102.625    92817999.073    22667102.508  
G18  22762766.813   119619109.796    22762769.117    93209729.569                  
G11  24467441.477   128577303.098                                                  
R15  20595295.664   110055045.300    20595295.219    20595299.316    85598403.251  
G26  23584106.867   123935280.380    23584110.371    96572986.049                  
R13  22527579.063   120295967.390    22527577.094    22527581.898    93563601.472  
G22  23472715.539   123349953.914    23472717.430    96116856.159                  
G15  21424275.086   112585285.723    21424278.938    87728839.446    21424278.996  
G12  24747714.492   130050106.468    24747719.574   101337777.260    24747719.234  
G27  21159121.055   111191922.201    21159124.527    86643115.693                  
G28  22580712.602   118662372.305    22580715.824    92464284.846                  
R14  19337835.938   103081545.289    19337835.258    19337840.688    80174587.001  
> 2010 01 01 00 57 30.0000000  0 13                     
G09  20628237.063   108402109.419    20628240.934    84469228.187                  
G17  22654145.063   119048731.370    22654149.117    92764955.285    22654148.984  
G18  22767785.461   119645483.811    22767787.914    93230280.734                  
G11  24462515.461   128551412.971                                                  
R15  20579652.789   109971448.559    20579651.523    20579655.426    85533383.579  
G26  23562685.805   123822713.128    23562689.480    96485271.291                  
R13  22548445.453   120407391.583    22548443.719    22548448.395    93650264.687  
G22  23466427.758   123316910.879    23466429.906    96091108.343                  
G15  21437152.914   112652958.570    21437156.637    87781571.529    21437156.809  
G12  24725720.727   129934527.894    24725725.289   101247716.020    24725725.469  
G27  21151996.289   111154482.241    21151999.859    86613941.701                  
G28  22594724.328   118736003.392    22594727.449    92521659.714                  
R14  19343520.906   103111852.506    19343520.816    19343526.594    80198159.270  
> 2010 01 01 00 58 00.0000000  0 13                     
G09  20614539.016   108330123.418    20614543.285    84413135.198                  
G17  22641277.430   118981111.535    22641281.078    92712264.505    22641281.434  
G18  22772911.719   119672421.897    22772914.367    93251271.445                  
G11  24457691.141   128526064.776                                                  
R15  20564077.523   109888218.321    20564076.727    20564080.266    85468648.943  
G26  23541312.836   123710398.191    23541316.836    96397753.174                  
R13  22569343.320   120518984.578    22569342.289    22569346.438    93737059.211  
G22  23460245.125   123284419.616    23460247.613    96065790.479                  
G15  21450118.523   112721092.182    21450122.445    87834662.638    21450122.340  
G12  24703744.539   129819042.248    24703748.680   101157727.239    24703749.297  
G27  21144934.586   111117372.493    21144938.223    86585025.012                  
G28  22608796.383   118809948.977    22608799.105    92579279.632                  
R14  19349306.391   103142690.740    19349305.711    19349311.371    80222144.572  
> 2010 01 01 00 58 30.0000000  0 13                     
G09  20600926.281   108258587.464    20600930.520    84357392.916                  
G17  22628496.625   118913946.969    22628500.363    92659928.482    22628499.898  
G18  22778144.906   119699922.317    22778147.543    93272700.340                  
G11  24452970.031   128501259.199                                                  
R15  20548570.820   109805355.141    20548569.789    20548573.395    85404199.811  
G26  23519988.375   123598337.720    23519991.820    96310433.328                  
R13  22590272.211   120630744.073    22590270.594    22590273.910    93823983.230  
G22  23454167.086   123252480.554    23454169.785    96040902.894                  
G15  21463170.805   112789684.252    21463175.672    87888110.980    21463175.270  
G12  24681786.094   129703649.915    24681790.641   101067811.154    24681790.773  
G27  21137935.625   111080592.817    21137939.383    86556365.527                  
G28  22622927.008   118884206.259    22622930.066    92637142.447                  
R14  19355191.383   103174059.337    19355190.703    19355196.188    80246542.364  
> 2010 01 01 00 59 00.0000000  0 13                     
G09  20587399.438   108187504.492    20587403.465    84302003.594                  
G17  22615803.172   118847241.623    22615806.449    92607950.284    22615806.461  
G18  22783484.633   119727984.546    22783487.230    93294566.995                  
G11  24448354.914   128476998.688                                                  
R15  20533132.789   109722862.083    20533132.109    20533135.836    85340038.554  
G26  23498713.492   123486535.603    23498716.477    96223314.741                  
R13  22611233.344   120742669.389    22611232.078    22611235.773    93911036.232  
G22  23448194.875   123221095.743    23448197.617    96016447.179                  
G15  21476310.625   112858733.849    21476314.449    87941915.844    21476314.395  
G12  24659845.836   129588354.133    24659850.594   100977970.323    24659850.828  
G27  21130999.898   111044144.944    21131003.211    86527964.579                  
G28  22637116.469   118958774.470    22637119.859    92695247.548                  
R14  19361175.664   103205958.268    19361174.633    19361180.176    80271352.640  
> 2010 01 01 00 59 30.0000000  0 13                     
G09  20573959.109   108116874.984    20573962.965    84246967.618                  
G17  22603196.539   118780995.417    22603200.340    92556329.884    22603200.445  
G18  22788931.453   119756606.762    22788934.004    93316870.011                  
G11  24443840.375   128453283.130    24443843.219   100093448.5951                 
R15  20517765.258   109640739.842    20517764.344    20517768.207    85276165.698  
G26  23477487.633   123374993.525    23477491.402    96136398.824                  
R13  22632223.180   120854757.608    22632221.680    22632224.477    93998215.953  
G22  23442328.438   123190264.863    23442330.770    95992423.089                  
G15  21489537.086   112928238.881    21489541.051    87996075.601    21489541.043  
G12  24637923.922   129473155.861    24637928.738   100888205.454    24637928.941  
G27  21124126.766   111008028.575    21124130.906    86499821.952                  
G28  22651364.953   119033650.687    22651368.359    92753592.649                  
R14  19367258.578   103238385.139    19367258.133    19367263.766    80296573.541  
> 2010 01 01 01 00 00.0000000  0 13                     
G09  20560605.578   108046702.265    20560609.418    84192287.576                  
G17  22590678.828   118715212.112    22590682.453    92505070.183    22590682.500  
G18  22794484.180   119785788.803    22794487.219    93339609.246                  
G11  24439431.688   128430114.831    24439435.250   100075395.462                  
R15  20502466.680   109558990.636    20502466.000    20502469.547    85212582.994  
G26  23456312.414   123263715.597    23456316.094    96049688.751                  
R13  22653244.195   120967008.496    22653242.578    22653246.352    94085522.143  
G22  23436567.313   123159990.486    23436569.121    95968832.668                  
G15  21502849.719   112998198.564    21502853.637    88050589.629    21502853.730  
G12  24616021.820   129358057.958    24616026.484   100798518.787    24616026.613  
G27  21117317.797   110972245.659    21117321.520    86471939.160                  
G28  22665671.992   119108834.245    22665675.141    92812177.239                  
R14  19373440.945   103271341.197    19373440.621    19373446.621    80322206.032  
> 2010 01 01 01 00 30.0000000  0 13                     
G09  20547339.234   107976987.035    20547343.633    84137964.026                  
G17  22578248.797   118649893.747    22578252.609    92454172.761    22578252.496  
G18  22800143.383   119815528.338    22800146.348    93362782.898                  
G11  24435127.844   128407494.142    24435130.777   100057768.902                  
R15  20487238.984   109477615.590    20487237.953    20487241.672    85149291.293  
G26  23435187.086   123152703.719    23435191.426    95963186.036                  
R13  22674295.141   121079419.456    22674294.816    22674299.461    94172952.898  
G22  23430912.891   123130272.577    23430914.012    95945675.848                  
G15  21516248.508   113068610.164    21516252.711    88105455.806    21516252.672  
G12  24594138.492   129243061.274    24594142.953   100708910.984    24594143.023  
G27  21110571.875   110936795.740    21110575.852    86444315.847                  
G28  22680036.969   119184322.081    22680039.516    92870998.920                  
R14  19379721.891   103304824.231    19379721.566    19379727.574    80348248.378  
> 2010 01 01 01 01 00.0000000  0 13                     
G09  20534160.516   107907731.952    20534165.039    84083999.047                  
G17  22565908.039   118585042.783    22565912.594    92403639.549    22565912.246  
G18  22805908.789   119845824.854    22805911.629    93386390.547                  
G11  24430928.039   128385422.604    24430930.809   100040570.344                  
R15  20472081.117   109396617.114    20472080.086    20472083.270    85086292.486  
G26  23414113.406   123041961.186    23414117.945    95876893.174                  
R13  22695374.789   121191989.470    22695374.109    22695378.359    94260507.358  
G22  23425363.359   123101112.761    23425365.105    95922953.919                  
G15  21529733.016   113139472.583    21529737.406    88160673.264    21529737.453  
G12  24572275.289   129128168.526    24572279.742   100619384.196    24572279.949  
G27  21103889.672   110901680.028    21103893.578    86416952.951                  
G28  22694458.992   119260112.995    22694461.934    92930056.785                  
R14  19386102.789   103338834.022    19386101.758    19386107.594    80374700.434  
> 2010 01 01 01 01 30.0000000  0 13                     
G09  20521069.797   107838938.290    20521073.551    84030393.595                  
G17  22553656.672   118520660.993    22553660.348    92353471.924    22553660.305  
G18  22811779.617   119876676.421    22811782.379    93410430.713                  
G11  24426832.063   128363900.805    24426834.859   100023800.129                  
R15  20456993.469   109315995.720    20456993.496    20456996.988    85023586.952  
G26  23393092.047   122931490.614    23393095.891    95790812.203                  
R13  22716485.758   121304716.091    22716484.609    22716488.199    94348183.569  
G22  23419920.922   123072511.329    23419922.660    95900667.082                  
G15  21543303.430   113210783.580    21543307.535    88216240.259    21543307.574  
G12  24550432.266   129013381.035    24550436.793   100529939.432    24550436.883  
G27  21097270.945   110866898.744    21097275.184    86389850.659                  
G28  22708939.492   119336204.576    22708941.879    92989348.926                  
R14  19392580.930   103373369.141    19392580.367    19392586.586    80401561.085  
> 2010 01 01 01 02 00.0000000  0 13                     
G09  20508066.844   107770608.639    20508071.000    83977149.714                  
G17  22541495.102   118456751.334    22541499.172    92303672.202    22541498.664  
G18  22817755.914   119908082.588    22817759.203    93434903.041                  
G11  24422842.008   128342930.585    24422845.430   100007459.640                  
R15  20441977.672   109235754.757    20441976.992    20441980.824    84961177.321  
G26  23372122.516   122821295.388    23372126.004    95704945.754                  
R13  22737626.625   121417598.599    22737624.891    22737629.125    94435981.013  
G22  23414584.336   123044469.983    23414586.301    95878816.670                  
G15  21556958.602   113282541.659    21556962.527    88272155.635    21556962.684  
G12  24528609.070   128898700.936    24528613.785   100440578.345    24528613.324  
G27  21090715.813   110832453.236    21090720.324    86363010.009                  
G28  22723476.266   119412595.555    22723478.750    93048874.357                  
R14  19399158.438   103408429.055    19399157.758    19399164.273    80428829.903  
> 2010 01 01 01 02 30.0000000  0 13                     
G09  20495152.945   107702745.406    20495156.613    83924269.277                  
G17  22529423.664   118393316.469    22529427.637    92254242.434    22529427.984  
G18  22823838.031   119940042.528    22823840.824    93459806.869                  
G11  24418956.148   128322513.136    24418960.227    99991550.054                  
R15  20427032.930   109155894.884    20427032.367    20427036.613    84899064.089  
G26  23351205.516   122711378.715    23351209.035    95619296.416                  
R13  22758793.891   121530635.570    22758792.156    22758797.324    94523898.642  
G22  23409355.156   123016990.143    23409356.977    95857403.800                  
G15  21570698.391   113354745.981    21570702.730    88328418.722    21570702.684  
G12  24506807.742   128784130.886    24506811.871   100351303.001    24506811.738  
G27  21084225.328   110798344.590    21084229.625    86336431.844                  
G28  22738069.336   119489284.013    22738072.414    93108631.604                  
R14  19405834.156   103444013.665    19405833.594    19405839.910    80456506.822  
> 2010 01 01 01 03 00.0000000  0 13                     
G09  20482327.648   107635348.563    20482331.281    83871752.263                  
G17  22517443.047   118330357.029    22517447.512    92205183.132    22517447.422  
G18  22830024.430   119972553.338    22830027.578    93485139.939                  
G11  24415175.563   128302648.059    24415179.961    99976070.809                  
R15  20412159.609   109076417.505    20412158.578    20412162.984    84837248.359  
G26  23330342.570   122601741.904    23330346.234    95533865.107                  
R13  22779988.414   121643823.728    22779987.969    22779992.414    94611933.835  
G22  23404232.891   122990070.788    23404233.848    95836427.683                  
G15  21584522.773   113427392.987    21584526.465    88385026.750    21584526.754  
G12  24485026.211   128669670.865    24485030.719   100262113.388    24485030.566  
G27  21077798.156   110764571.887    21077802.898    86310115.449                  
G28  22752718.664   119566267.269    22752721.621    93168618.558                  
R14  19412606.898   103480120.186    19412607.043    19412613.406    80484589.674  
> 2010 01 01 01 03 30.0000000  0 13                     
G09  20469592.109   107568421.845    20469595.520    83819601.571                  
G17  22505553.461   118267877.017    22505557.457    92156497.429    22505557.313  
G18  22836315.867   120005614.866    22836319.109    93510902.139                  
G11  24411501.977   128283338.095    24411505.324    99961024.049                  
R15  20397358.961   108997324.920    20397358.164    20397362.672    84775731.913  
G26  23309533.852   122492389.462    23309537.480    95448655.418                  
R13  22801213.453   121757163.152    22801211.953    22801218.871    94700086.690  
G22  23399217.688   122963714.695    23399218.574    95815890.469                  
G15  21598431.414   113500482.874    21598435.078    88441979.897    21598435.059  
G12  24463266.867   128555324.160    24463271.992   100173012.089    24463271.875  
G27  21071436.539   110731137.523    21071440.613    86284062.701                  
G28  22767424.352   119643544.637    22767427.480    93228834.678                  
R14  19419478.766   103516750.249    19419478.441    19419485.281    80513079.714  
> 2010 01 01 01 04 00.0000000  0 13                     
G09  20456945.836   107501965.544    20456949.199    83767817.448                  
G17  22493755.383   118205877.270    22493758.961    92108185.923    22493759.219  
G18  22842711.617   120039224.595    22842714.727    93537091.529                  
G11  24407932.328   128264582.845    24407936.457    99946409.600                  
R15  20382630.078   108918618.507    20382629.164    20382633.086    84714515.821  
G26  23288779.203   122383323.012    23288783.355    95363668.568                  
R13  22822466.461   121870650.881    22822465.430    22822470.980    94788354.943  
G22  23394308.898   122937921.115    23394310.254    95795791.567                  
G15  21612423.852   113574012.232    21612427.477    88499275.485    21612427.387  
G12  24441529.094   128441091.608    24441534.121   100083999.733    24441534.070  
G27  21065138.313   110698040.701    21065142.367    86258272.973                  
G28  22782185.055   119721113.367    22782188.383    93289277.852                  
R14  19426448.906   103553900.803    19426448.227    19426454.457    80541974.580  
> 2010 01 01 01 04 30.0000000  0 13                     
G09  20444389.523   107435981.706    20444392.684    83716401.464                  
G17  22482049.445   118144360.399    22482053.145    92060250.725    22482052.641  
G18  22849211.594   120073381.925    22849214.926    93563707.605                  
G11  24404469.406   128246383.494    24404472.609    99932228.232                  
R15  20367973.289   108840300.052    20367972.727    20367977.230    84653601.450  
G26  23268079.469   122274545.756    23268082.988    95278907.057                  
R13  22843747.195   121984285.597    22843745.930    22843750.949    94876737.428  
G22  23389507.672   122912691.749    23389509.680    95776132.324                  
G15  21626498.945   113647979.261    21626502.859    88556912.128    21626502.965  
G12  24419813.195   128326975.536    24419818.203    99995078.136    24419818.762  
G27  21058904.836   110665282.374    21058908.379    86232747.002                  
G28  22797000.742   119798971.440    22797003.426    93349946.473                  
R14  19433515.531   103591571.563    19433515.559    19433521.297    80571274.052  
> 2010 01 01 01 05 00.0000000  0 13                     
G09  20431923.516   107370472.474    20431926.551    83665355.305                  
G17  22470434.875   118083328.391    22470438.707    92012693.308    22470438.996  
G18  22855815.188   120108085.181    22855818.590    93590749.064                  
G11  24401112.430   128228741.085    24401115.145    99918480.927                  
R15  20353389.195   108762370.289    20353389.223    20353394.512    84592989.428  
G26  23247434.625   122166060.720    23247439.141    95194373.242                  
R13  22865054.500   122098065.913    22865053.938    22865058.727    94965233.229  
G22  23384814.242   122888026.868    23384816.176    95756912.955                  
G15  21640657.844   113722382.618    21640661.137    88614888.757    21640661.180  
G12  24398119.570   128212977.605    24398125.297    99906248.594    24398125.398  
G27  21052735.320   110632863.268    21052739.613    86207485.361                  
G28  22811871.391   119877116.885    22811874.477    93410839.020                  
R14  19440679.555   103629761.438    19440679.348    19440685.176    80600977.286  
> 2010 01 01 01 05 30.0000000  0 13                     
G09  20419548.023   107305440.137    20419551.648    83614680.760                  
G17  22458913.281   118022784.354    22458918.238    91965516.158    22458917.777  
G18  22862523.016   120143333.388    22862526.477    93618215.183                  
G11  24397860.742   128211657.296    24397864.492    99905168.838                  
R15  20338879.531   108684832.295    20338879.086    20338883.375    84532682.130  
G26  23226847.289   122057871.508    23226851.840    95110069.981                  
R13  22886389.039   122211990.908    22886387.305    22886390.125    95053841.516  
G22  23380228.148   122863928.271    23380229.926    95738134.849                  
G15  21654898.844   113797221.130    21654902.977    88673204.470    21654902.910  
G12  24376450.547   128099100.579    24376455.762    99817513.276    24376455.457  
G27  21046630.859   110600784.873    21046635.262    86182489.209                  
G28  22826796.539   119955548.547    22826799.473    93471954.601                  
R14  19447940.969   103668470.003    19447941.113    19447946.707    80631083.942  
> 2010 01 01 01 06 00.0000000  0 13                     
G09  20407263.828   107240885.963    20407267.531    83564378.813                  
G17  22447485.898   117962729.635    22447489.734    91918720.282    22447489.402  
G18  22869333.852   120179124.534    22869337.156    93646104.373                  
G11  24394715.836   128195132.031    24394719.789    99892292.076                  
R15  20324443.148   108607686.464    20324442.352    20324446.293    84472679.822  
G26  23206316.094   121949980.057    23206320.262    95025998.732                  
R13  22907749.266   122326057.955    22907746.945    22907754.324    95142560.261  
G22  23375749.563   122840396.161    23375751.488    95719798.134                  
G15  21669222.664   113872492.342    21669226.512    88731857.352    21669226.648  
G12  24354803.344   127985345.272    24354808.555    99728872.797    24354808.348  
G27  21040591.609   110569047.013    21040595.887    86157758.417                  
G28  22841775.680   120034263.894    22841778.719    93533291.230                  
R14  19455299.727   103707696.132    19455300.105    19455306.074    80661593.159  
> 2010 01 01 01 06 30.0000000  0 13                     
G09  20395070.797   107176812.138    20395074.461    83514451.159                  
G17  22436151.609   117903166.803    22436155.617    91872307.697    22436155.629  
G18  22876248.086   120215457.574    22876250.652    93674415.796                  
G11  24391678.328   128179166.800    24391681.809    99879851.627                  
R15  20310080.414   108530935.573    20310079.031    20310083.094    84412984.707  
G26  23185842.984   121842390.056    23185846.168    94942162.305                  
R13  22929136.383   122440266.094    22929135.234    22929142.844    95231388.896  
G22  23371380.258   122817431.443    23371381.465    95701903.539                  
G15  21683628.344   113948194.637    21683632.133    88790846.145    21683631.945  
G12  24333180.320   127871714.334    24333184.883    99640329.231    24333185.039  
G27  21034617.023   110537650.796    21034621.512    86133293.840                  
G28  22856808.133   120113261.812    22856811.750    93594848.050                  
R14  19462755.531   103747439.273    19462755.086    19462761.137    80692504.486  
> 2010 01 01 01 07 00.0000000  0 13                     
G09  20382970.188   107113220.473    20382973.066    83464899.213                  
G17  22424910.586   117844097.480    22424914.938    91826279.669    22424914.730  
G18  22883264.711   120252330.648    22883267.570    93703148.040                  
G11  24388746.672   128163762.074    24388750.680    99867847.975                  
R15  20295790.961   108454580.150    20295790.164    20295794.133    84353597.167  
G26  23165427.164   121735103.650    23165430.477    94858562.459                  
R13  22950552.109   122554613.258    22950551.078    22950553.660    95320325.489  
G22  23367117.719   122795034.406    23367119.715    95684451.281                  
G15  21698115.320   114024325.598    21698119.770    88850168.962    21698119.555  
G12  24311581.180   127758209.032    24311585.664    99551883.577    24311586.023  
G27  21028707.992   110506596.397    21028712.043    86109095.603                  
G28  22871894.625   120192539.800    22871897.152    93656623.118                  
R14  19470308.094   103787698.120    19470307.414    19470313.605    80723816.919  
> 2010 01 01 01 07 30.0000000  0 13                     
G09  20370961.039   107050113.019    20370964.316    83415724.573                  
G17  22413764.547   117785524.496    22413768.375    91780638.391    22413768.773  
G18  22890383.945   120289742.593    22890386.941    93732300.175                  
G11  24385922.094   128148919.289    24385926.109    99856282.105                  
R15  20281576.672   108378622.336    20281575.992    20281579.297    84294518.869  
G26  23145069.016   121628124.422    23145073.352    94775202.036                  
R13  22971991.617   122669098.248    22971990.820    22971997.156    95409369.284  
G22  23362964.742   122773206.719    23362966.508    95667442.708                  
G15  21712684.141   114100883.964    21712688.465    88909824.821    21712688.273  
G12  24290005.836   127644831.596    24290010.430    99463537.552    24290010.320  
G27  21022863.352   110475885.006    21022868.020    86085164.650                  
G28  22887033.383   120272096.210    22887036.320    93718615.120                  
R14  19477957.523   103828471.719    19477957.078    19477963.406    80755529.706  
> 2010 01 01 01 08 00.0000000  0 13                     
G09  20359044.414   106987490.729    20359048.227    83366927.985                  
G17  22402713.344   117727449.537    22402717.652    91735385.185    22402717.305  
G18  22897605.305   120327691.796    22897608.348    93761870.968                  
G11  24383205.195   128134638.597    24383209.379    99845154.346                  
R15  20267436.922   108303063.723    20267436.477    20267439.648    84235751.062  
G26  23124771.141   121521454.796    23124774.656    94692082.850                  
R13  22993455.047   122783719.195    22993454.367    22993460.746    95498518.991  
G22  23358919.219   122751947.894    23358920.613    95650877.405                  
G15  21727333.477   114177867.710    21727337.875    88969812.142    21727337.582  
G12  24268455.148   127531583.465    24268459.887    99375292.299    24268460.059  
G27  21017084.531   110445516.675    21017088.984    86061501.018                  
G28  22902225.484   120351928.822    22902228.512    93780822.334                  
R14  19485702.758   103869758.736    19485702.668    19485708.922    80787641.826  
> 2010 01 01 01 08 30.0000000  0 13                     
G09  20347220.477   106925356.451    20347224.227    83318511.677                  
G17  22391757.000   117669875.186    22391761.180    91690522.076    22391761.383  
G18  22904929.391   120366177.269    22904932.137    93791859.635                  
G11  24380594.656   128120921.267    24380596.730    99834463.6081                 
R15  20253372.305   108227906.995    20253371.859    20253375.488    84177295.835  
G26  23104531.984   121415098.567    23104535.703    94609207.857                  
R13  23014945.133   122898475.148    23014942.930    23014948.809    95587773.462  
G22  23354982.367   122731259.663    23354983.941    95634756.683                  
G15  21742063.828   114255275.533    21742068.199    89030129.913    21742068.301  
G12  24246929.867   127418467.316    24246934.719    99287149.889    24246934.590  
G27  21011371.023   110415492.788    21011375.270    86038105.786                  
G28  22917469.156   120432036.722    22917471.902    93843244.079                  
R14  19493544.484   103911559.483    19493543.805    19493550.141    80820153.514  
> 2010 01 01 01 09 00.0000000  0 13                     
G09  20335489.766   106863710.875    20335493.590    83270476.164                  
G17  22380896.898   117612802.510    22380900.715    91646049.873    22380900.707  
G18  22912354.484   120405196.338    22912357.035    93822264.083                  
G11  24378090.281   128107767.555    24378094.891    99824213.971                  
R15  20239383.781   108153152.377    20239382.867    20239386.242    84119153.357  
G26  23084352.930   121309057.452    23084357.348    94526578.407                  
R13  23036460.680   123013363.661    23036458.828    23036465.508    95677131.242  
G22  23351154.180   122711141.790    23351155.160    95619080.416                  
G15  21756874.164   114333104.508    21756878.660    89090775.858    21756878.602  
G12  24225429.688   127305483.963    24225434.398    99199110.945    24225434.246  
G27  21005722.914   110385812.882    21005727.691    86014978.590                  
G28  22932765.414   120512417.075    22932768.613    93905878.110                  
R14  19501482.703   103953871.584    19501481.555    19501487.332    80853062.923  
> 2010 01 01 01 09 30.0000000  0 13                     
G09  20323852.516   106802556.821    20323856.531    83222823.663                  
G17  22370132.359   117556234.192    22370136.176    91601970.696    22370135.906  
G18  22919880.570   120444747.799    22919883.820    93853083.382                  
G11  24375696.477   128095178.531    24375699.480    99814404.287                  
R15  20225469.367   108078801.935    20225468.570    20225471.953    84061325.236  
G26  23064234.602   121203334.982    23064238.484    94444197.271                  
R13  23057998.930   123128383.429    23057998.723    23058002.586    95766591.120  
G22  23347434.750   122691595.516    23347435.797    95603849.536                  
G15  21771764.000   114411353.303    21771768.781    89151748.940    21771768.469  
G12  24203955.391   127192635.807    24203960.395    99111177.357    24203960.066  
G27  21000140.977   110356478.201    21000145.180    85992120.401                  
G28  22948112.195   120593068.431    22948115.461    93968723.346                  
R14  19509515.570   103996694.732    19509515.008    19509521.109    80886369.816  
> 2010 01 01 01 10 00.0000000  0 13                     
G09  20312308.977   106741895.202    20312312.813    83175554.871                  
G17  22359464.484   117500171.737    22359467.938    91558285.668    22359467.910  
G18  22927507.703   120484829.683    22927511.246    93884316.006                  
G11  24373407.891   128083154.473    24373410.953    99805034.891                  
R15  20211632.047   108004857.100    20211631.133    20211634.801    84003812.595  
G26  23044177.758   121097933.493    23044181.125    94362066.224                  
R13  23079564.398   123243532.782    23079563.602    23079568.406    95856151.539  
G22  23343824.297   122672620.924    23343825.484    95589064.134                  
G15  21786733.516   114490019.444    21786738.570    89213047.226    21786738.391  
G12  24182507.586   127079924.317    24182512.012    99023350.261    24182511.906  
G27  20994624.734   110327489.041    20994628.695    85969531.440                  
G28  22963510.789   120673988.174    22963514.004    94031777.668                  
R14  19517644.555   104040026.897    19517643.406    19517649.383    80920072.598  
> 2010 01 01 01 10 30.0000000  0 13                     
G09  20300859.805   106681728.280    20300863.492    83128671.560                  
G17  22348892.406   117444617.818    22348896.152    91514996.912    22348895.645  
G18  22935236.086   120525440.760    22935238.762    93915960.976                  
G11  24371227.703   128071696.557    24371230.887    99796106.694                  
R15  20197870.398   107931319.808    20197869.367    20197872.813    83946616.918  
G26  23024182.016   120992856.538    23024185.898    94280188.086                  
R13  23101152.719   123358810.369    23101151.570    23101156.512    95945811.966  
G22  23340322.305   122654218.730    23340323.574    95574724.761                  
G15  21801782.672   114569101.520    21801787.484    89274669.614    21801787.539  
G12  24161085.516   126967351.799    24161090.145    98935631.434    24161089.859  
G27  20989174.219   110298846.633    20989178.516    85947212.685                  
G28  22978960.289   120755174.971    22978963.559    94095040.120                  
R14  19525869.047   104083868.153    19525868.133    19525874.242    80954171.355  
> 2010 01 01 01 11 00.0000000  0 13                     
G09  20289504.547   106622057.125    20289508.754    83082174.565                  
G17  22338417.992   117389573.934    22338421.344    91472105.582    22338421.660  
G18  22943064.922   120566579.368    22943067.414    93948017.025                  
G11  24369154.453   128060805.021    24369158.648    99787619.738                  
R15  20184185.266   107858191.081    20184184.234    20184188.051    83889739.030  
G26  23004248.867   120888106.839    23004252.387    94198564.949                  
R13  23122762.563   123474214.316    23122761.648    23122764.809    96035570.515  
G22  23336929.656   122636389.453    23336931.340    95560831.819                  
G15  21816910.469   114648597.404    21816915.227    89336614.451    21816915.160  
G12  24139690.188   126854919.719    24139695.270    98848022.053    24139695.211  
G27  20983789.797   110270551.320    20983794.211    85925164.388                  
G28  22994460.070   120836626.985    22994462.605    94158509.221                  
R14  19534189.047   104128217.246    19534188.367    19534194.250    80988665.098  
> 2010 01 01 01 11 30.0000000  0 13                     
G09  20278244.375   106562883.971    20278248.078    83036065.620                  
G17  22328040.992   117335042.638    22328044.684    91429613.679    22328044.410  
G18  22950993.547   120608244.270    22950996.734    93980483.172                  
G11  24367190.117   128050480.857    24367193.648    99779575.014                  
R15  20170577.094   107785473.392    20170575.945    20170579.910    83833180.827  
G26  22984378.203   120783687.455    22984382.301    94117199.181                  
R13  23144398.102   123589743.266    23144397.305    23144403.762    96125426.351  
G22  23333645.703   122619134.035    23333647.246    95547386.049                  
G15  21832116.234   114728505.375    21832121.066    89398880.400    21832120.668  
G12  24118322.000   126742630.256    24118326.852    98760523.816    24118326.867  
G27  20978471.242   110242603.871    20978475.668    85903387.152                  
G28  23010009.953   120918342.242    23010012.973    94222183.440                  
R14  19542603.656   104173072.587    19542603.332    19542608.938    81023552.577  
> 2010 01 01 01 12 00.0000000  0 13                     
G09  20267079.344   106504210.935    20267083.484    82990346.379                  
G17  22317762.141   117281026.014    22317765.758    91387522.812    22317765.742  
G18  22959021.695   120650433.574    22959024.672    94013357.948                  
G11  24365333.383   128040724.838    24365337.434    99771972.902                  
R15  20157046.188   107713168.321    20157045.391    20157049.516    83776943.561  
G26  22964571.281   120679601.580    22964575.152    94036093.296                  
R13  23166056.820   123705396.086    23166056.375    23166058.605    96215378.489  
G22  23330471.625   122602453.074    23330472.805    95534387.888                  
G15  21847400.406   114808823.693    21847404.902    89461466.094    21847404.746  
G12  24096981.438   126630485.082    24096986.723    98673138.008    24096987.000  
G27  20973219.297   110215005.109    20973223.863    85881881.618                  
G28  23025609.531   121000319.181    23025612.676    94286061.570                  
R14  19551113.641   104218434.642    19551112.961    19551118.934    81058834.173  
> 2010 01 01 01 12 30.0000000  0 13                     
G09  20256009.500   106446038.984    20256013.797    82945017.586                  
G17  22307581.258   117227525.370    22307584.695    91345834.006    22307584.793  
G18  22967149.352   120693145.104    22967152.191    94046639.638                  
G11  24363586.633   128031537.097    24363589.328    99764813.612                  
R15  20143592.602   107641277.228    20143591.453    20143595.551    83721028.278  
G26  22944829.336   120575851.619    22944832.488    93955249.180                  
R13  23187736.617   123821170.566    23187736.055    23187742.477    96305425.254  
G22  23327406.594   122586346.483    23327407.543    95521837.304                  
G15  21862761.648   114889549.842    21862766.680    89524369.573    21862766.590  
G12  24075668.734   126518486.170    24075673.945    98585866.190    24075673.676  
G27  20968034.234   110187754.983    20968038.422    85860647.753                  
G28  23041258.531   121082555.443    23041261.551    94350141.778                  
R14  19559717.805   104264300.714    19559717.480    19559724.066    81094507.774  
> 2010 01 01 01 13 00.0000000  0 13                     
G09  20245035.805   106388370.392    20245039.484    82900081.025                  
G17  22297498.898   117174543.242    22297502.359    91304549.229    22297502.352  
G18  22975376.094   120736377.743    22975379.441    94080327.390                  
G11  24361944.242   128022918.776    24361949.410    99758098.025                  
R15  20130216.852   107569802.119    20130216.172    20130220.469    83665436.536  
G26  22925150.547   120472441.275    22925154.469    93874669.706                  
R13  23209439.711   123937065.701    23209439.148    23209443.793    96395565.914  
G22  23324451.000   122570815.467    23324452.027    95509735.210                  
G15  21878200.883   114970682.177    21878205.324    89587589.551    21878205.293  
G12  24054383.914   126406635.670    24054389.430    98498710.001    24054389.348  
G27  20962915.359   110160854.846    20962918.852    85839686.613                  
G28  23056957.117   121165049.824    23056960.141    94414423.112                  
R14  19568416.609   104310671.122    19568415.813    19568422.934    81130573.641  
> 2010 01 01 01 13 30.0000000  0 13                     
G09  20234157.516   106331206.548    20234161.820    82855537.779                  
G17  22287515.484   117122081.033    22287518.980    91263669.606    22287519.156  
G18  22983702.086   120780129.118    22983704.879    94114419.343                  
G11  24360413.234   128014869.740    24360417.836    99751826.098                  
R15  20116919.617   107498743.632    20116918.703    20116922.910    83610168.833  
G26  22905536.602   120369372.377    22905540.602    93794356.290                  
R13  23231166.031   124053079.207    23231164.531    23231170.379    96485798.582  
G22  23321605.039   122555859.699    23321606.082    95498081.354                  
G15  21893717.156   115052218.485    21893721.125    89651124.327    21893720.930  
G12  24033128.078   126294934.677    24033133.859    98411670.317    24033133.574  
G27  20957862.953   110134304.461    20957867.145    85818997.991                  
G28  23072703.750   121247799.688    23072706.332    94478903.535                  
R14  19577209.602   104357543.470    19577208.922    19577215.930    81167029.902  
> 2010 01 01 01 14 00.0000000  0 13                     
G09  20223376.250   106274549.185    20223379.688    82811389.191                  
G17  22277631.594   117070140.749    22277635.469    91223196.642    22277635.254  
G18  22992125.805   120824397.730    22992129.551    94148914.335                  
G11  24358990.578   128007390.616    24358994.699    99745998.148                  
R15  20103700.695   107428104.460    20103699.078    20103703.500    83555227.255  
G26  22885989.453   120266648.431    22885992.695    93714311.626                  
R13  23252914.070   124169209.917    23252911.750    23252918.457    96576122.459  
G22  23318868.656   122541479.509    23318870.418    95486875.990                  
G15  21909309.016   115134156.414    21909313.273    89714972.058    21909313.148  
G12  24011900.516   126183385.350    24011906.305    98324748.799    24011906.520  
G27  20952877.492   110108104.655    20952880.957    85798582.560                  
G28  23088498.680   121330803.366    23088501.563    94543581.723                  
R14  19586096.383   104404917.125    19586096.410    19586102.855    81203876.073  
> 2010 01 01 01 14 30.0000000  0 13                     
G09  20212691.219   106218399.631    20212695.570    82767636.299                  
G17  22267847.281   117018724.054    22267851.340    91183131.727    22267851.348  
G18  23000647.875   120869181.666    23000650.504    94183810.880                  
G11  24357676.438   128000482.080    24357679.813    99740614.985                  
R15  20090559.789   107357885.426    20090559.109    20090563.469    83500612.462  
G26  22866507.234   120164272.308    22866511.309    93634538.048                  
R13  23274682.844   124285456.256    23274681.344    23274686.211    96666536.218  
G22  23316241.883   122527675.711    23316243.227    95476119.771                  
G15  21924977.883   115216494.718    21924981.930    89779131.778    21924981.914  
G12  23990703.219   126071989.504    23990708.293    98237946.891    23990708.539  
G27  20947958.477   110082256.246    20947962.492    85778440.928                  
G28  23104341.891   121414058.797    23104345.117    94608456.080                  
R14  19595078.383   104452791.284    19595077.820    19595084.613    81241111.529  
> 2010 01 01 01 15 00.0000000  0 13                     
G09  20202103.336   106162760.189    20202107.148    82724280.905                  
G17  22258163.367   116967833.249    22258167.246    91143476.550    22258167.043  
G18  23009268.039   120914479.616    23009270.750    94219107.959                  
G11  24356470.516   127994144.957    24356474.219    99735676.928                  
R15  20077498.336   107288088.957    20077497.305    20077501.832    83446326.329  
G26  22847092.984   120062247.276    22847096.547    93555037.998                  
R13  23296473.680   124401817.099    23296472.414    23296477.379    96757039.091  
G22  23313724.711   122514448.958    23313725.668    95465813.205                  
G15  21940722.531   115299231.419    21940725.871    89843601.940    21940726.156  
G12  23969534.953   125960749.367    23969539.426    98151266.314    23969539.461  
G27  20943106.672   110056760.174    20943110.816    85758573.854                  
G28  23120232.461   121497564.854    23120235.336    94673525.720                  
R14  19604153.688   104501165.291    19604152.656    19604158.496    81278735.750  
> 2010 01 01 01 15 30.0000000  0 13                     
G09  20191612.750   106107632.386    20191617.137    82681324.183                  
G17  22248579.414   116917470.356    22248583.375    91104232.770    22248583.215  
G18  23017985.195   120960289.363    23017988.223    94254803.844                  
G11  24355372.281   127988379.663    24355377.117    99731184.443                  
R15  20064516.016   107218716.360    20064515.691    20064519.902    83392369.875  
G26  22827746.039   119960576.155    22827749.125    93475813.728                  
R13  23318284.797   124518290.561    23318284.473    23318289.215    96847629.506  
G22  23311317.539   122501799.324    23311318.695    95455956.320                  
G15  21956541.836   115382364.291    21956545.547    89908380.806    21956545.453  
G12  23948396.016   125849665.997    23948400.984    98064707.878    23948401.266  
G27  20938322.070   110031616.754    20938326.172    85738981.580                  
G28  23136170.148   121581319.204    23136173.676    94738788.834                  
R14  19613321.203   104550036.921    19613320.641    19613326.656    81316747.015  
> 2010 01 01 01 16 00.0000000  0 13                     
G09  20181220.305   106053018.081    20181224.004    82638767.583                  
G17  22239096.758   116867637.203    22239100.016    91065401.728    22239100.020  
G18  23026799.469   121006609.235    23026803.086    94290897.243                  
G11  24354384.813   127983186.381    24354388.680    99727137.776                  
R15  20051613.898   107149768.909    20051612.984    20051617.121    83338744.085  
G26  22808465.930   119859261.989    22808469.949    93396867.640                  
R13  23340117.086   124634875.610    23340115.117    23340122.195    96938306.735  
G22  23309020.852   122489727.467    23309021.574    95446549.655                  
G15  21972436.664   115465891.339    21972440.426    89973466.824    21972440.418  
G12  23927288.563   125738742.055    23927292.895    97978273.670    23927293.027  
G27  20933604.789   110006826.651    20933608.410    85719664.615                  
G28  23152155.547   121665320.249    23152158.695    94804244.183                  
R14  19622582.742   104599406.047    19622582.180    19622588.477    81355145.227  
> 2010 01 01 01 16 30.0000000  0 13                     
G09  20170925.211   105998918.604    20170928.973    82596612.150                  
G17  22229714.805   116818335.000    22229718.637    91026984.475    22229718.113  
G18  23035710.625   121053437.021    23035713.500    94327386.412                  
G11  24353505.883   127978565.295    24353509.754    99723536.875                  
R15  20038790.844   107081247.951    20038789.813    20038794.047    83285450.019  
G26  22789255.289   119758307.156    22789258.641    93318201.547                  
R13  23361971.500   124751569.872    23361970.117    23361973.668    97029068.951  
G22  23306833.047   122478233.087    23306834.500    95437592.998                  
G15  21988406.008   115549810.202    21988409.387    90038858.151    21988409.348  
G12  23906211.047   125627978.941    23906214.820    97891964.779    23906214.801  
G27  20928954.594   109982389.891    20928958.410    85700622.979                  
G28  23168186.914   121749565.512    23168189.207    94869889.845                  
R14  19631937.141   104649270.983    19631936.578    19631943.230    81393929.061  
> 2010 01 01 01 17 00.0000000  0 13                     
G09  20160728.703   105945336.063    20160732.520    82554859.529                  
G17  22220434.320   116769566.219    22220438.117    90988982.821    22220437.977  
G18  23044717.563   121100771.521    23044720.445    94364270.419                  
G11  24352735.055   127974517.356    24352738.531    99720382.680                  
R15  20026048.531   107013156.405    20026048.086    20026052.031    83232489.942  
G26  22770113.250   119657715.162    22770116.762    93239818.166                  
R13  23383844.531   124868372.530    23383842.914    23383848.109    97119915.415  
G22  23304755.875   122467317.154    23304757.160    95429087.067                  
G15  22004449.352   115634119.459    22004453.535    90104553.685    22004453.219  
G12  23885164.492   125517379.104    23885168.164    97805783.137    23885168.250  
G27  20924371.516   109958307.814    20924375.531    85681857.722                  
G28  23184264.813   121834053.780    23184266.828    94935724.859                  
R14  19641384.813   104699631.434    19641384.367    19641391.027    81433098.293  
> 2010 01 01 01 17 30.0000000  0 13                     
G09  20150631.125   105892271.601    20150634.957    82513510.600                  
G17  22211255.805   116721332.005    22211259.398    90951397.742    22211259.168  
G18  23053821.563   121148610.495    23053824.684    94401547.521                  
G11  24352074.453   127971042.437    24352077.871    99717675.007                  
R15  20013386.461   106945494.278    20013385.898    20013389.738    83179863.849  
G26  22751041.086   119557488.762    22751044.402    93161719.658                  
R13  23405736.875   124985281.412    23405735.727    23405742.750    97210844.502  
G22  23302788.227   122456979.481    23302789.914    95421031.731                  
G15  22020566.789   115718816.529    22020570.453    90170551.409    22020570.160  
G12  23864149.281   125406943.690    23864153.063    97719729.593    23864153.230  
G27  20919856.617   109934580.649    20919860.414    85663369.029                  
G28  23200387.984   121918782.844    23200390.930    95001747.495                  
R14  19650924.352   104750485.275    19650924.145    19650930.785    81472651.274  
> 2010 01 01 01 18 00.0000000  0 13                     
G09  20140632.133   105839726.464    20140635.859    82472566.338                  
G17  22202179.000   116673634.242    22202182.695    90914230.648    22202182.363  
G18  23063020.766   121196951.477    23063023.449    94439215.826                  
G11  24351521.250   127968140.719    24351525.363    99715413.915                  
R15  20000805.250   106878263.279    20000804.336    20000808.535    83127573.087  
G26  22732038.695   119457630.443    22732042.051    93083907.970                  
R13  23427650.188   125102295.231    23427648.805    23427653.898    97301855.274  
G22  23300931.234   122447219.869    23300932.551    95413426.827                  
G15  22036756.977   115803898.917    22036760.844    90236849.385    22036761.125  
G12  23843166.117   125296674.421    23843169.645    97633805.522    23843170.043  
G27  20915409.094   109911208.747    20915412.887    85645157.143                  
G28  23216556.945   122003750.558    23216559.133    95067956.115                  
R14  19660557.547   104801831.477    19660557.102    19660563.707    81512587.197  
> 2010 01 01 01 18 30.0000000  0 13                     
G09  20130732.102   105787702.386    20130735.707    82432028.100                  
G17  22193204.773   116626474.772    22193208.418    90877483.029    22193208.121  
G18  23072314.594   121245793.007    23072316.945    94477274.150                  
G11  24351077.398   127965812.828    24351082.508    99713599.976                  
R15  19988304.781   106811465.727    19988303.867    19988308.387    83075619.439  
G26  22713106.734   119358143.501    22713110.047    93006385.657                  
R13  23449582.188   125219412.515    23449581.273    23449586.445    97392946.424  
G22  23299184.813   122438038.948    23299185.082    95406272.826                  
G15  22053020.531   115889365.056    22053024.773    90303446.387    22053024.711  
G12  23822214.367   125186573.236    23822218.426    97548012.427    23822218.391  
G27  20911029.477   109888192.783    20911033.352    85627222.624                  
G28  23232770.531   122088955.361    23232773.699    95134349.466                  
R14  19670281.836   104853669.201    19670281.746    19670288.293    81552905.424  
> 2010 01 01 01 19 00.0000000  0 13                     
G09  20120932.000   105736201.532    20120935.188    82391897.565                  
G17  22184333.633   116579855.531    22184337.238    90841156.339    22184337.469  
G18  23081704.164   121295133.268    23081706.844    94515721.070                  
G11  24350745.156   127964059.197    24350749.230    99712233.509                  
R15  19975885.211   106745102.898    19975884.648    19975889.055    83024003.914  
G26  22694246.148   119259031.314    22694250.434    92929155.384                  
R13  23471534.000   125336631.996    23471533.203    23471538.609    97484117.103  
G22  23297547.906   122429437.284    23297548.359    95399570.208                  
G15  22069356.875   115975213.319    22069360.906    90370341.149    22069360.730  
G12  23801295.102   125076642.330    23801299.074    97462352.015    23801299.668  
G27  20906717.430   109865533.812    20906721.527    85609566.285                  
G28  23249028.836   122174395.747    23249032.207    95200926.379                  
R14  19680098.602   104905997.170    19680098.156    19680104.723    81593604.947  
> 2010 01 01 01 19 30.0000000  0 13                     
G09  20111231.570   105685225.548    20111234.648    82352176.027                  
G17  22175565.555   116533778.144    22175569.293    90805251.887    22175568.762  
G18  23091187.641   121344970.263    23091191.066    94554555.071                  
G11  24350520.000   127962880.421    24350524.047    99711314.996                  
R15  19963548.234   106679176.503    19963547.672    19963552.176    82972727.846  
G26  22675457.586   119160296.531    22675461.668    92852219.194                  
R13  23493504.898   125453951.896    23493503.633    23493510.512    97575365.867  
G22  23296021.617   122421415.057    23296021.945    95393319.120                  
G15  22085765.969   116061441.289    22085769.922    90437531.764    22085769.934  
G12  23780408.328   124966883.488    23780413.188    97376825.666    23780412.816  
G27  20902473.594   109843232.295    20902477.512    85592188.485                  
G28  23265332.641   122260069.689    23265335.918    95267685.280                  
R14  19690006.992   104958814.422    19690006.547    19690013.086    81634685.035  
> 2010 01 01 01 20 00.0000000  0 13                     
G09  20101631.367   105634775.367    20101634.320    82312864.195                  
G17  22166900.266   116488244.120    22166903.750    90769770.857    22166903.777  
G18  23100764.961   121395301.728    23100768.965    94593774.346                  
G11  24350404.281   127962275.774    24350409.086    99710843.793                  
R15  19951293.195   106613688.199    19951292.281    19951296.875    82921792.501  
G26  22656741.125   119061941.985    22656745.473    92775579.312                  
R13  23515493.859   125571370.719    23515492.125    23515496.402    97666691.643  
G22  23294605.094   122413971.899    23294605.344    95387519.261                  
G15  22102246.195   116148046.561    22102250.516    90505016.385    22102250.309  
G12  23759554.688   124857298.195    23759559.457    97291434.577    23759559.563  
G27  20898297.828   109821288.529    20898301.586    85575089.448                  
G28  23281679.977   122345974.836    23281682.668    95334624.344                  
R14  19700007.305   105012119.024    19700006.039    19700012.188    81676144.164  
> 2010 01 01 01 20 30.0000000  0 13                     
G09  20092131.445   105584853.185    20092134.926    82273963.793                  
G17  22158339.203   116443255.613    22158343.117    90734714.855    22158343.082  
G18  23110436.734   121446126.264    23110440.703    94633377.839                  
G11  24350400.164   127962246.118    24350403.207    99710820.699                  
R15  19939120.133   106548640.150    19939119.570    19939123.762    82871199.587  
G26  22638098.477   118963970.835    22638101.621    92699238.136                  
R13  23537501.656   125688887.447    23537499.688    23537503.730    97758093.470  
G22  23293298.555   122407108.630    23293299.035    95382171.264                  
G15  22118797.906   116235027.105    22118802.398    90572793.418    22118802.281  
G12  23738734.672   124747888.630    23738739.570    97206180.425    23738739.828  
G27  20894190.281   109799703.496    20894194.105    85558269.933                  
G28  23298071.352   122432110.055    23298073.727    95401742.689                  
R14  19710098.008   105065911.148    19710097.563    19710103.289    81717982.476  
> 2010 01 01 01 21 00.0000000  0 13                     
G09  20082732.156   105535459.995    20082735.301    82235475.589                  
G17  22149882.445   116398813.615    22149886.438    90700084.765    22149886.121  
G18  23120201.609   121497441.335    23120205.469    94673363.572                  
G11  24350504.695   127962791.243    24350506.957    99711245.477                  
R15  19927030.531   106484032.434    19927029.500    19927033.848    82820949.136  
G26  22619528.445   118866385.649    22619531.695    92623197.698                  
R13  23559526.031   125806500.006    23559526.527    23559530.754    97849569.943  
G22  23292102.625   122400824.426    23292103.102    95377274.482                  
G15  22135421.078   116322381.215    22135425.141    90640861.540    22135425.066  
G12  23717948.172   124638656.352    23717953.547    97121064.411    23717953.715  
G27  20890151.109   109778477.126    20890154.852    85541729.913                  
G28  23314504.734   122518472.980    23314507.938    95469038.490                  
R14  19720280.469   105120188.959    19720279.672    19720285.809    81760198.551  
> 2010 01 01 01 21 30.0000000  0 14                     
G09  20073434.133   105486597.535    20073437.219    82197400.938                  
G17  22141529.578   116354920.016    22141533.266    90665881.957    22141533.430  
G18  23130059.875   121549245.015    23130063.402    94713730.042                  
G11  24350716.727   127963911.629    24350720.445    99712118.493                  
R15  19915022.102   106419867.296    19915021.895    19915026.281    82771042.924  
G26  22601032.852   118769189.538    22601036.570    92547460.464                  
R13  23581568.133   125924206.854    23581567.453    23581571.723    97941119.676  
G22  23291017.430   122395119.916    23291017.887    95372829.413                  
R17  24223380.039   129624136.6341   24223379.477                                  
G15  22152114.742   116410106.631    22152118.535    90709219.009    22152118.258  
G12  23697196.219   124529603.252    23697201.117    97036088.037    23697200.973  
G27  20886180.281   109757610.183    20886184.379    85525469.953                  
G28  23330981.898   122605062.004    23330984.543    95536510.461                  
R14  19730553.414   105174951.117    19730553.441    19730559.063    81802791.340  
> 2010 01 01 01 22 00.0000000  0 14                     
G09  20064237.070   105438267.436    20064239.887    82159741.110                  
G17  22133281.578   116311576.202    22133285.477    90632107.565    22133285.543  
G18  23140010.188   121601535.251    23140013.570    94754475.653                  
G11  24351039.508   127965607.380    24351042.965    99713439.890                  
R15  19903098.203   106356146.380    19903097.406    19903101.477    82721482.218  
G26  22582610.875   118672385.526    22582615.285    92472028.767                  
R13  23603628.914   126042006.982    23603627.766    23603633.496    98032741.961  
G22  23290042.133   122389995.328    23290043.105    95368836.213                  
R17  24197202.430   129484048.313    24197199.875    24197203.008   100709878.5221 
G15  22168878.570   116498201.355    22168882.121    90777864.244    22168882.176  
G12  23676478.297   124420731.278    23676483.516    96951252.789    23676483.363  
G27  20882277.813   109737103.328    20882281.707    85509490.588                  
G28  23347501.727   122691875.353    23347505.813    95604157.219                  
R14  19740917.203   105230196.063    19740917.465    19740923.141    81845759.625  
> 2010 01 01 01 22 30.0000000  0 14                     
G09  20055141.820   105390471.522    20055145.180    82122497.534                  
G17  22125138.453   116268784.608    22125142.539    90598763.497    22125141.930  
G18  23150052.664   121654310.250    23150055.813    94795599.016                  
G11  24351472.117   127967878.819    24351475.539    99715209.837                  
R15  19891257.438   106292871.999    19891255.820    19891259.941    82672268.813  
G26  22564265.078   118575976.952    22564269.090    92396905.222                  
R13  23625705.148   126159898.982    23625704.941    23625710.363    98124435.744  
G22  23289177.742   122385450.636    23289178.578    95365294.895                  
R17  24171027.398   129343986.245    24171026.016    24171028.695   100600941.385  
G15  22185712.508   116586663.298    22185715.773    90846795.623    22185715.906  
G12  23655795.969   124312042.505    23655800.570    96866560.291    23655800.813  
G27  20878444.320   109716957.275    20878447.859    85493792.365                  
G28  23364064.180   122778911.147    23364067.547    95671977.317                  
R14  19751371.938   105285923.257    19751371.730    19751377.551    81889103.004  
> 2010 01 01 01 23 00.0000000  0 14                     
G09  20046148.273   105343211.019    20046151.922    82085671.168                  
G17  22117100.703   116226546.263    22117104.410    90565850.511    22117104.891  
G18  23160187.461   121707567.814    23160190.723    94837098.384                  
G11  24352013.172   127970726.167    24352017.629    99717428.583                  
R15  19879499.906   106230044.786    19879498.641    19879503.172    82623403.211  
G26  22545994.805   118479966.299    22545999.543    92322091.728                  
R13  23647799.766   126277881.000    23647798.383    23647803.863    98216199.526  
G22  23288423.125   122381485.937    23288423.883    95362205.501                  
R17  24144859.023   129203953.951    24144857.406    24144860.496   100492027.423  
G15  22202615.297   116675490.037    22202618.977    90916011.265    22202619.066  
G12  23635148.930   124203538.428    23635153.293    96782011.702    23635153.367  
G27  20874679.320   109697172.662    20874683.082    85478375.779                  
G28  23380668.961   122866167.433    23380671.063    95739969.208                  
R14  19761916.211   105342131.905    19761916.121    19761922.559    81932820.834  
> 2010 01 01 01 23 30.0000000  0 14                     
G09  20037257.086   105296487.507    20037260.520    82049263.242                  
G17  22109168.828   116184862.676    22109172.527    90533369.801    22109172.824  
G18  23170413.906   121761305.593    23170417.301    94878971.946                  
G11  24352665.641   127974149.008    24352668.590    99720095.703                  
R15  19867826.328   106167666.052    19867826.004    19867830.215    82574886.415  
G26  22527801.031   118384356.436    22527804.840    92247590.524                  
R13  23669911.828   126395951.534    23669909.742    23669913.969    98308032.100  
G22  23287779.031   122378101.005    23287780.211    95359567.884                  
R17  24118696.016   129063954.943    24118696.160    24118699.238   100383139.304  
G15  22219587.453   116764679.203    22219591.348    90985509.304    22219591.527  
G12  23614536.250   124095220.781    23614541.051    96697608.378    23614541.250  
G27  20870983.414   109677749.599    20870987.254    85463240.923                  
G28  23397314.883   122953642.460    23397318.672    95808131.532                  
R14  19772550.406   105398819.632    19772550.082    19772557.008    81976911.282  
> 2010 01 01 01 24 00.0000000  0 14                     
G09  20028468.609   105250302.647    20028471.980    82013275.032                  
G17  22101342.352   116143735.638    22101346.660    90501322.785    22101346.266  
G18  23180730.836   121815521.911    23180733.746    94921218.397                  
G11  24353426.555   127978147.705    24353428.965    99723211.541                  
R15  19856237.422   106105738.082    19856235.805    19856240.246    82526720.222  
G26  22509684.031   118289150.697    22509687.730    92173404.204                  
R13  23692038.422   126514109.357    23692036.336    23692040.086    98399932.574  
G22  23287245.273   122375295.814    23287246.051    95357382.025                  
R17  24092541.391   128923993.069    24092540.359    24092543.441   100274280.113  
G15  22236628.359   116854229.361    22236631.902    91055288.634    22236632.199  
G12  23593960.125   123987091.614    23593964.156    96613351.921    23593964.250  
G27  20867356.070   109658688.981    20867360.121    85448388.491                  
G28  23414002.125   123041334.717    23414005.297    95876463.168                  
R14  19783275.188   105455986.678    19783274.508    19783281.512    82021374.526  
> 2010 01 01 01 24 30.0000000  0 14                     
G09  20019782.305   105204657.148    20019786.164    81977707.107                  
G17  22093622.094   116103165.970    22093626.230    90469710.076    22093626.051  
G18  23191138.516   121870213.969    23191141.672    94963835.549                  
G11  24354297.523   127982721.971    24354299.328    99726775.902                  
R15  19844732.789   106044262.242    19844732.465    19844736.535    82478905.676  
G26  22491644.375   118194351.314    22491648.594    92099534.548                  
R13  23714180.594   126632352.577    23714179.680    23714185.398    98491899.567  
G22  23286821.328   122373069.903    23286822.734    95355647.533                  
R17  24066393.523   128784071.910    24066392.492    24066395.688   100165452.540  
G15  22253736.867   116944137.467    22253740.594    91125346.892    22253740.961  
G12  23573419.898   123879152.065    23573424.504    96529243.215    23573424.445  
G27  20863797.859   109639990.899    20863802.160    85433818.560                  
G28  23430730.430   123129241.692    23430732.480    95944962.123                  
R14  19794088.750   105513629.673    19794088.777    19794095.395    82066207.968  
> 2010 01 01 01 25 00.0000000  0 14                     
G09  20011199.523   105159553.691    20011203.270    81942561.559                  
G17  22086008.875   116063156.170    22086012.359    90438533.622    22086012.270  
G18  23201636.703   121925380.658    23201639.324    95006822.536                  
G11  24355277.406   127987872.728    24355279.371    99730789.469                  
R15  19833313.547   105983240.042    19833312.633    19833316.805    82431443.966  
G26  22473682.352   118099962.208    22473686.848    92025984.602                  
R13  23736341.547   126750680.767    23736340.516    23736344.191    98583932.537  
G22  23286508.391   122371424.587    23286509.262    95354365.459                  
R17  24040255.539   128644196.035    24040252.516    24040256.395   100056660.212  
G15  22270914.023   117034402.483    22270917.480    91195683.259    22270917.867  
G12  23552916.172   123771405.015    23552920.367    96445284.513    23552920.301  
G27  20860309.172   109621656.999    20860313.355    85419532.401                  
G28  23447499.102   123217362.507    23447502.227    96013627.680                  
R14  19804991.609   105571749.621    19804991.402    19804997.848    82111412.365  
> 2010 01 01 01 25 30.0000000  0 15                     
G09  20002720.250   105114993.757    20002723.582    81907839.522                  
G17  22078501.711   116023707.614    22078505.902    90407794.508    22078505.836  
G18  23212224.438   121981019.702    23212227.121    95050177.577                  
G11  24356366.188   127993599.464    24356369.098    99735251.920                  
R15  19821978.813   105922673.648    19821978.133    19821982.141    82384336.767  
G26  22455799.422   118005986.237    22455803.992    91952756.576                  
R13  23758514.578   126869092.099    23758514.371    23758517.449    98676030.202  
G22  23286305.836   122370359.181    23286306.621    95353535.256                  
R17  24014124.641   128504369.044    24014122.789    24014126.895    99947905.915  
G15  22288158.188   117125022.100    22288162.043    91266295.940    22288162.176  
G12  23532449.234   123663852.290    23532453.824    96361477.221    23532453.746  
G14  25346773.156   133198164.3071   25346775.914   103790807.8071                 
G27  20856889.641   109603687.473    20856893.371    85405530.174                  
G28  23464308.008   123305695.272    23464311.305    96082458.427                  
R14  19815984.789   105630344.963    19815983.992    19815990.414    82156986.515  
> 2010 01 01 01 26 00.0000000  0 15                     
G09  19994344.344   105070977.707    19994347.957    81873541.303                  
G17  22071101.781   115984820.798    22071105.863    90377493.102    22071105.809  
G18  23222901.461   122037128.016    23222904.316    95093898.321                  
G11  24357566.555   127999901.408    24357568.043    99740162.489                  
R15  19810730.086   105862563.222    19810729.055    19810733.418    82337584.208  
G26  22437995.313   117912425.450    22437999.934    91879852.074                  
R13  23780702.961   126987584.265    23780702.281    23780709.027    98768190.834  
G22  23286212.820   122369872.785    23286214.129    95353156.241                  
R17  23988004.563   128364593.607    23988003.648    23988007.012    99839191.710  
G15  22305469.336   117215992.923    22305473.535    91337182.278    22305473.742  
G12  23512019.406   123556494.634    23512023.988    96277821.927    23512023.816  
G14  25325735.148   133087611.884    25325738.043   103704663.072                  
G27  20853539.461   109586081.852    20853543.348    85391811.508                  
G28  23481156.234   123394237.184    23481159.402    96151452.123                  
R14  19827065.141   105689412.883    19827064.934    19827071.316    82202928.218  
> 2010 01 01 01 26 30.0000000  0 15                     
G09  19986071.773   105027507.060    19986076.016    81839668.066                  
G17  22063809.359   115946497.102    22063813.160    90347630.505    22063812.883  
G18  23233667.203   122093703.133    23233670.414    95137982.809                  
G11  24358874.172   128006778.857    24358876.820    99745521.589                  
R15  19799567.609   105802910.971    19799566.813    19799570.914    82291188.013  
G26  22420271.086   117819282.620    22420275.242    91807273.223                  
R13  23802909.531   127106155.892    23802908.617    23802913.148    98860413.103  
G22  23286230.547   122369965.251    23286231.605    95353228.285                  
R17  23961895.773   128224873.987    23961892.984    23961896.211    99730520.928  
G15  22322847.484   117307313.300    22322851.434    91408340.990    22322851.168  
G12  23491627.836   123449334.253    23491632.223    96194320.355    23491631.902  
G14  25304716.320   132977156.598    25304719.309   103618593.990                  
G27  20850258.594   109568840.719    20850262.656    85378376.866                  
G28  23498045.977   123482986.224    23498049.082    96220607.180                  
R14  19838234.641   105748952.820    19838234.316    19838240.648    82249237.063  
> 2010 01 01 01 27 00.0000000  0 15                     
G09  19977903.414   104984583.778    19977907.449    81806221.354                  
G17  22056623.898   115908738.956    22056627.746    90318208.578    22056627.898  
G18  23244521.469   122150743.949    23244524.902    95182430.170                  
G11  24360292.109   128014232.009    24360295.871    99751329.238                  
R15  19788490.141   105743718.342    19788489.227    19788493.391    82245149.300  
G26  22402627.133   117726561.398    22402630.340    91735022.900                  
R13  23825130.258   127224806.098    23825127.938    23825133.527    98952696.585  
G22  23286358.094   122370637.468    23286359.688    95353752.087                  
R17  23935795.508   128085214.280    23935794.242    23935798.188    99621896.726  
G15  22340290.641   117398981.614    22340294.941    91479770.836    22340294.871  
G12  23471273.758   123342373.363    23471278.129    96110974.227    23471278.348  
G14  25283716.203   132866800.988    25283719.781   103532602.656                  
G27  20847047.500   109551965.373    20847051.406    85365227.240                  
G28  23514973.438   123571941.734    23514976.176    96289923.176                  
R14  19849492.398   105808963.808    19849492.191    19849498.520    82295912.269  
> 2010 01 01 01 27 30.0000000  0 15                     
G09  19969840.141   104942209.416    19969844.418    81773202.367                  
G17  22049546.641   115871547.644    22049550.641    90289228.356    22049550.301  
G18  23255463.930   122208248.091    23255467.727    95227238.542                  
G11  24361821.031   128022260.778    24361823.355    99757585.431                  
R15  19777499.797   105684987.278    19777498.648    19777502.980    82199469.590  
G26  22385063.328   117634264.717    22385067.277    91663103.398                  
R13  23847363.086   127343533.736    23847361.703    23847367.176    99045040.302  
G22  23286596.570   122371888.533    23286598.211    95354726.934                  
R17  23909709.828   127945618.255    23909706.098    23909710.473    99513322.064  
G15  22357800.758   117490995.364    22357805.023    91551469.841    22357804.980  
G12  23450958.172   123235613.506    23450962.648    96027784.761    23450962.961  
G14  25262735.773   132756547.491    25262739.156   103446690.803                  
G27  20843905.742   109535456.265    20843909.926    85352363.008                  
G28  23531940.406   123661101.683    23531942.152    96359398.437                  
R14  19860838.438   105869444.706    19860838.348    19860844.828    82342952.954  
> 2010 01 01 01 28 00.0000000  0 15                     
G09  19961881.563   104900385.524    19961885.438    81740612.326                  
G17  22042577.961   115834924.741    22042581.535    90260691.055    22042581.336  
G18  23266494.680   122266213.396    23266498.344    95272406.289                  
G11  24363458.109   128030865.408    24363460.605    99764290.329                  
R15  19766595.773   105626719.136    19766594.859    19766599.164    82154149.921  
G26  22367580.922   117542395.898    22367585.355    91591517.296                  
R13  23869611.406   127462337.357    23869610.609    23869615.109    99137443.132  
G22  23286944.953   122373719.040    23286946.359    95356153.287                  
R17  23883634.641   127806090.327    23883632.906    23883636.715    99404800.390  
G15  22375375.852   117583352.625    22375379.832    91623436.536    22375379.637  
G12  23430681.102   123129056.974    23430685.855    95944753.736    23430685.961  
G14  25241775.156   132646398.472    25241778.914   103360860.425                  
G27  20840833.992   109519314.371    20840838.582    85339784.910                  
G28  23548945.109   123750464.543    23548948.520    96429031.822                  
R14  19872273.063   105930394.327    19872272.738    19872279.250    82390358.211  
> 2010 01 01 01 28 30.0000000  0 15                     
G09  19954027.438   104859112.946    19954031.570    81708451.873                  
G17  22035716.578   115798870.818    22035720.375    90232597.099    22035720.438  
G18  23277612.336   122324637.336    23277616.012    95317931.399                  
G11  24365204.641   128040045.070    24365208.098    99771443.313                  
R15  19755778.664   105568914.836    19755777.516    19755781.711    82109191.022  
G26  22350181.367   117450956.815    22350185.578    91520266.057                  
R13  23891874.555   127581214.962    23891872.469    23891875.961    99229903.433  
G22  23287403.594   122376127.827    23287405.086    95358030.247                  
R17  23857573.391   127666633.405    23857571.891    23857575.625    99296333.930  
G15  22393015.414   117676050.513    22393020.129    91695668.650    22393020.074  
G12  23410443.078   123022704.863    23410447.797    95861882.005    23410447.855  
G14  25220834.953   132536355.543    25220837.934   103275112.677                  
G27  20837831.805   109503539.003    20837835.914    85327492.418                  
G28  23565988.234   123840027.827    23565991.398    96498821.424                  
R14  19883794.820   105991811.213    19883794.023    19883800.805    82438126.894  
> 2010 01 01 01 29 00.0000000  0 15                     
G09  19946278.555   104818392.705    19946282.820    81676721.815                  
G17  22028964.633   115763387.359    22028968.488    90204947.662    22028968.121  
G18  23288817.469   122383517.368    23288820.176    95363811.916                  
G11  24367061.234   128049799.356    24367064.633    99779044.015                  
R15  19745048.305   105511576.271    19745047.039    19745051.676    82064594.365  
G26  22332863.008   117359950.862    22332867.578    91449352.340                  
R13  23914148.328   127700165.051    23914145.188    23914153.141    99322420.159  
G22  23287972.406   122379114.770    23287973.551    95360357.725                  
R17  23831527.641   127527251.337    23831525.672    23831528.703    99187925.666  
G15  22410719.906   117769087.101    22410724.086    91768164.674    22410724.172  
G12  23390243.891   122916559.024    23390248.676    95779170.994    23390248.859  
G14  25199914.773   132426421.200    25199917.586   103189449.540                  
G27  20834900.039   109488131.048    20834904.164    85315486.218                  
G28  23583069.398   123929789.959    23583072.242    96568765.933                  
R14  19895402.750   106053693.183    19895403.246    19895409.898    82486257.311  
> 2010 01 01 01 29 30.0000000  0 15                     
G09  19938635.461   104778226.303    19938639.684    81645423.317                  
G17  22022321.211   115728475.744    22022324.863    90177743.834    22022324.461  
G18  23300107.938   122442851.422    23300111.148    95410046.193                  
G11  24369026.414   128060128.483    24369029.438    99787092.718                  
R15  19734405.156   105454705.014    19734404.125    19734408.152    82020361.163  
G26  22315628.570   117269380.873    22315631.680    91378778.300                  
R13  23936437.211   127819186.265    23936435.594    23936440.281    99414992.239  
G22  23288650.039   122382679.645    23288651.684    95363135.536                  
R17  23805495.266   127387948.292    23805493.883    23805496.672    99079578.904  
G15  22428488.094   117862459.899    22428492.727    91840922.681    22428492.539  
G12  23370084.852   122810621.345    23370089.355    95696622.173    23370089.438  
G14  25179016.203   132316597.590    25179019.344   103103872.714                  
G27  20832038.047   109473091.135    20832042.191    85303766.805                  
G28  23600188.063   124019748.934    23600191.121    96638863.839                  
R14  19907099.352   106116039.815    19907098.555    19907105.133    82534749.123  
> 2010 01 01 01 30 00.0000000  0 15                     
G09  19931097.414   104738615.015    19931101.926    81614557.384                  
G17  22015786.492   115694136.711    22015790.313    90150986.166    22015790.188  
G18  23311484.633   122502636.824    23311487.832    95456632.181                  
G11  24371101.406   128071031.776    24371104.891    99795588.798                  
R15  19723850.750   105398301.751    19723849.484    19723853.250    81976491.961  
G26  22298477.008   117179249.265    22298480.594    91308545.868                  
R13  23958739.180   127938276.729    23958737.328    23958741.965    99507618.192  
G22  23289438.430   122386821.810    23289439.957    95366363.192                  
R17  23779478.828   127248727.536    23779476.156    23779479.965    98971296.159  
G15  22446319.875   117956166.639    22446324.719    91913940.904    22446324.801  
G12  23349965.398   122704893.219    23349969.652    95614236.637    23349970.035  
G14  25158138.500   132206886.418    25158141.563   103018383.514                  
G27  20829246.297   109458419.244    20829250.262    85292334.172                  
G28  23617344.273   124109902.449    23617346.340    96709113.309                  
R14  19918882.297   106178849.133    19918881.973    19918888.367    82583600.819  
> 2010 01 01 01 30 30.0000000  0 15                     
G09  19923665.805   104699560.920    19923669.766    81584125.631                  
G17  22009361.031   115660372.368    22009364.617    90124676.292    22009365.105  
G18  23322947.391   122562871.876    23322950.844    95503568.553                  
G11  24373284.938   128082509.742    24373289.145    99804532.648                  
R15  19713383.000   105342369.036    19713382.555    19713386.309    81932988.732  
G26  22281409.359   117089559.695    22281413.523    91238657.877                  
R13  23981053.633   128057435.917    23981051.430    23981058.090    99600297.443  
G22  23290336.664   122391541.491    23290338.168    95370040.848                  
R17  23753477.734   127109593.355    23753475.766    23753479.133    98863080.709  
G15  22464215.109   118050205.748    22464219.773    91987218.112    22464219.641  
G12  23329885.953   122599377.328    23329890.770    95532016.469    23329891.203  
G14  25137283.297   132097290.871    25137287.344   102932984.397                  
G27  20826524.273   109444116.561    20826528.371    85281189.224                  
G28  23634535.844   124200249.741    23634539.043    96779513.817                  
R14  19930751.336   106242120.755    19930751.129    19930757.469    82632812.077  
> 2010 01 01 01 31 00.0000000  0 15                     
G09  19916339.938   104661065.052    19916344.043    81554128.851                  
G17  22003045.906   115627183.755    22003049.730    90098815.058    22003050.074  
G18  23334494.906   122623553.795    23334497.918    95550853.135                  
G11  24375578.188   128094561.709    24375581.988    99813923.817                  
R15  19703005.008   105286908.427    19703003.859    19703008.008    81889852.696  
G26  22264426.414   117000314.764    22264430.664    91169116.374                  
R13  24003382.281   128176662.117    24003379.023    24003384.207    99693028.964  
G22  23291344.492   122396838.096    23291346.047    95374168.060                  
R17  23727494.664   126970549.865    23727492.227    23727495.539    98754935.821  
G15  22482172.805   118144574.675    22482177.578    92060752.326    22482177.320  
G12  23309848.102   122494074.857    23309852.219    95449962.601    23309852.344  
G14  25116450.938   131987813.246    25116454.184   102847677.142                  
G27  20823872.586   109430183.617    20823877.156    85270332.391                  
G28  23651765.008   124290788.645    23651768.066    96850063.604                  
R14  19942707.484   106305853.032    19942707.395    19942714.078    82682381.618  
> 2010 01 01 01 31 30.0000000  0 15                     
G09  19909121.109   104623128.840    19909124.961    81524568.166                  
G17  21996840.266   115594572.337    21996843.797    90073403.583    21996843.297  
G18  23346126.570   122684680.861    23346130.438    95598484.566                  
G11  24377980.008   128107187.478    24377984.027    99823762.062                  
R15  19692714.609   105231920.987    19692713.813    19692717.508    81847084.692  
G26  22247529.367   116911517.525    22247533.184    91099923.713                  
R13  24025721.773   128295954.331    24025719.805    24025724.020    99785811.892  
G22  23292461.781   122402711.634    23292463.500    95378744.842                  
R17  23701528.234   126831600.794    23701525.797    23701529.578    98646864.346  
G15  22500193.172   118239271.392    22500197.574    92134541.960    22500197.367  
G12  23289850.617   122388988.051    23289854.859    95368076.796    23289854.922  
G14  25095640.250   131878455.658    25095643.836   102762463.453                  
G27  20821291.820   109416620.908    20821296.145    85259764.041                  
G28  23669030.516   124381517.742    23669033.906    96920761.603                  
R14  19954749.633   106370044.933    19954749.309    19954756.398    82732308.635  
> 2010 01 01 01 32 00.0000000  0 15                     
G09  19902008.656   104585753.203    19902012.719    81495444.300                  
G17  21990744.039   115562538.689    21990747.727    90048442.316    21990747.766  
G18  23357843.258   122746250.214    23357846.004    95646460.655                  
G11  24380491.844   128120386.682    24380496.027    99834047.142                  
R15  19682512.930   105177407.655    19682512.723    19682516.531    81804685.420  
G26  22230717.250   116823170.584    22230721.004    91031081.938                  
R13  24048072.352   128415310.585    24048071.203    24048075.031    99878644.538  
G22  23293689.297   122409161.327    23293691.262    95383770.572                  
R17  23675580.016   126692749.604    23675578.516    23675582.422    98538869.027  
G15  22518275.313   118334293.157    22518279.422    92208584.869    22518279.547  
G12  23269894.492   122284117.962    23269898.758    95286359.861    23269898.434  
G14  25074854.313   131769220.374    25074857.043   102677345.052                  
G27  20818781.516   109403428.572    20818786.004    85249484.305                  
G28  23686331.242   124472434.604    23686334.027    96991605.914                  
R14  19966877.883   106434694.258    19966877.438    19966884.609    82782591.442  
> 2010 01 01 01 32 30.0000000  0 15                     
G09  19895003.664   104548939.616    19895007.789    81466758.390                  
G17  21984758.617   115531084.109    21984761.969    90023932.266    21984762.266  
G18  23369643.328   122808259.563    23369646.488    95694779.605                  
G11  24383114.328   128134158.905    24383116.832    99844778.734                  
R15  19672400.453   105123370.597    19672399.891    19672403.762    81762656.600  
G26  22213991.664   116735276.807    22213995.520    90962593.274                  
R13  24070435.867   128534729.433    24070434.250    24070440.324    99971525.869  
G22  23295026.703   122416186.698    23295028.188    95389244.874                  
R17  23649652.539   126554000.415    23649649.867    23649653.430    98430953.006  
G15  22536418.758   118429637.929    22536423.133    92282879.486    22536423.141  
G12  23249979.633   122179466.668    23249984.328    95204813.423    23249984.297  
G14  25054090.539   131660109.452    25054093.941   102592323.559                  
G27  20816341.898   109390607.017    20816345.824    85239493.487                  
G28  23703667.570   124563537.588    23703670.711    97062595.249                  
R14  19979092.539   106499799.558    19979091.742    19979097.707    82833228.892  
> 2010 01 01 01 33 00.0000000  0 15                     
G09  19888105.250   104512689.581    19888109.105    81438511.614                  
G17  21978883.242   115500210.132    21978886.887    89999874.640    21978886.832  
G18  23381526.148   122870706.594    23381529.707    95743439.595                  
G11  24385843.336   128148503.799    24385846.055    99855956.621                  
R15  19662377.922   105069810.452    19662376.773    19662380.645    81720998.706  
G26  22197352.711   116647839.281    22197357.363    90894460.125                  
R13  24092810.234   128654209.592    24092808.617    24092815.449   100064454.936  
G22  23296472.789   122423787.421    23296474.730    95395167.500                  
R17  23623742.508   126415357.309    23623740.188    23623744.309    98323119.528  
G15  22554623.164   118525303.416    22554626.898    92357424.008    22554626.945  
G12  23230107.328   122075036.336    23230111.742    95123439.172    23230111.598  
G14  25033351.555   131551125.339    25033354.426   102507400.876                  
G27  20813972.656   109378156.980    20813976.805    85229792.152                  
G28  23721039.570   124654825.198    23721042.844    97133728.421                  
R14  19991391.102   106565360.782    19991391.246    19991397.715    82884220.953  
> 2010 01 01 01 33 30.0000000  0 15                     
G09  19881314.742   104477004.061    19881318.613    81410704.714                  
G17  21973118.586   115469917.882    21973122.246    89976270.297    21973122.031  
G18  23393492.188   122933589.340    23393495.949    95792439.091                  
G11  24388683.102   128163421.108    24388684.660    99867580.512                  
R15  19652444.453   105016730.262    19652443.422    19652447.367    81679714.110  
G26  22180801.188   116560861.004    22180806.164    90826684.868                  
R13  24115196.063   128773749.664    24115194.680    24115200.418   100157430.530  
G22  23298028.539   122431963.261    23298030.520    95401538.279                  
R17  23597855.109   126276824.468    23597853.023    23597856.473    98215371.768  
G15  22572888.406   118621287.642    22572892.230    92432216.915    22572892.219  
G12  23210277.148   121970828.674    23210281.527    95042238.414    23210281.715  
G14  25012637.438   131442271.027    25012640.223   102422579.320                  
G27  20811674.484   109366079.262    20811678.629    85220380.950                  
G28  23738445.891   124746295.829    23738448.348    97205004.243                  
R14  20003775.945   106631375.930    20003775.383    20003781.852    82935566.066  
> 2010 01 01 01 34 00.0000000  0 15                     
G09  19874631.547   104441884.433    19874635.664    81383338.777                  
G17  21967465.375   115440208.296    21967469.152    89953119.990    21967468.902  
G18  23405540.656   122996904.904    23405544.180    95841775.854                  
G11  24391629.148   128178910.232    24391632.820    99879649.947                  
R15  19642601.172   104964130.210    19642600.375    19642604.441    81638802.954  
G26  22164337.602   116474344.667    22164341.973    90759269.553                  
R13  24137593.938   128893348.355    24137591.734    24137596.902   100250451.747  
G22  23299693.805   122440713.608    23299695.816    95408356.713                  
R17  23571986.852   126138405.218    23571986.645    23571988.883    98107712.378  
G15  22591213.961   118717587.809    22591217.348    92507256.014    22591217.219  
G12  23190489.836   121866845.293    23190493.934    94961212.430    23190494.191  
G14  24991947.828   131333548.290    24991951.184   102337860.329                  
G27  20809447.000   109354373.804    20809451.172    85211259.816                  
G28  23755886.133   124837947.316    23755889.500    97276420.973                  
R14  20016244.484   106697843.606    20016244.160    20016250.313    82987263.148  
> 2010 01 01 01 34 30.0000000  0 15                     
G09  19868056.328   104407332.017    19868060.234    81356414.819                  
G17  21961922.953   115411082.550    21961926.438    89930424.632    21961926.230  
G18  23417671.641   123060651.251    23417674.691    95891448.315                  
G11  24394685.633   128194971.108    24394688.793    99892164.976                  
R15  19632847.500   104912012.218    19632846.938    19632851.332    81598266.740  
G26  22147962.875   116388293.176    22147967.102    90692216.436                  
R13  24160002.188   129013004.359    24160001.508    24160005.520   100343517.546  
G22  23301467.969   122450038.083    23301470.211    95415622.521                  
R17  23546142.945   126000103.701    23546141.211    23546144.293    98000144.530  
G15  22609598.859   118814202.119    22609602.504    92582539.879    22609602.371  
G12  23170745.484   121763087.758    23170749.848    94880362.435    23170750.043  
G14  24971283.594   131224959.390    24971287.648   102253245.619                  
G27  20807290.008   109343041.135    20807294.160    85202429.172                  
G28  23773360.969   124929778.351    23773365.098    97347977.625                  
R14  20028797.828   106764762.487    20028797.148    20028803.223    83039311.169  
> 2010 01 01 01 35 00.0000000  0 15                     
G09  19861589.336   104373348.059    19861593.332    81329933.799                  
G17  21956491.641   115382541.750    21956495.512    89908185.064    21956495.473  
G18  23429883.703   123124825.272    23429886.961    95941454.011                  
G11  24397849.813   128211603.109    24397853.660    99905124.964                  
R15  19623185.023   104860377.163    19623183.523    19623187.934    81558106.143  
G26  22131677.242   116302709.223    22131680.516    90625527.635                  
R13  24182419.227   129132716.014    24182417.961    24182422.871   100436626.505  
G22  23303351.883   122459935.956    23303353.262    95423335.136                  
R17  23520319.898   125861923.785    23520318.164    23520321.648    97892671.296  
G15  22628043.703   118911128.201    22628047.332    92658066.702    22628047.047  
G12  23151044.852   121659558.227    23151049.023    94799690.092    23151048.758  
G14  24950645.969   131116506.681    24950649.188   102168737.008                  
G27  20805204.594   109332081.634    20805209.039    85193889.296                  
G28  23790869.141   125021786.718    23790871.758    97419672.494                  
R14  20041435.820   106832131.317    20041435.141    20041441.773    83091709.133  
> 2010 01 01 01 35 30.0000000  0 15                     
G09  19855230.664   104339933.405    19855234.992    81303896.407                  
G17  21951172.242   115354586.669    21951175.582    89886401.912    21951175.273  
G18  23442176.602   123189425.172    23442179.836    95991791.561                  
G11  24401123.992   128228805.241    24401128.090    99918529.178                  
R15  19613612.586   104809226.995    19613611.789    19613616.008    81518322.682  
G26  22115480.367   116217595.446    22115483.578    90559205.201                  
R13  24204848.273   129252481.845    24204847.242    24204852.367   100529777.754  
G22  23305344.063   122470406.361    23305345.547    95431493.882                  
R17  23494521.875   125723868.957    23494519.555    23494522.941    97785295.344  
G15  22646546.727   119008363.450    22646550.688    92733834.423    22646550.504  
G12  23131387.219   121556258.033    23131391.023    94719196.469    23131391.418  
G14  24930034.641   131008192.350    24930037.508   102084336.237                  
G27  20803190.156   109321495.772    20803194.293    85185640.574                  
G28  23808410.500   125113970.457    23808414.734    97491503.951                  
R14  20054158.188   106899948.239    20054157.742    20054164.977    83144455.623  
> 2010 01 01 01 36 00.0000000  0 14                     
G09  19848980.703   104307089.392    19848984.602    81278303.664                  
G17  21945963.883   115327218.448    21945967.652    89865076.052    21945967.273  
G18  23454550.055   123254448.169    23454553.016    96042458.791                  
G11  24404505.398   128246577.528    24404509.648    99932377.728                  
R15  19604131.813   104758563.258    19604130.781    19604135.113    81478917.547  
G26  22099373.906   116132954.983    22099377.719    90493251.603                  
G22  23307445.617   122481449.167    23307446.805    95440098.663                  
R17  23468746.867   125585943.685    23468745.719    23468748.531    97678020.130  
G15  22665108.461   119105905.786    22665112.277    92809841.430    22665112.332  
G12  23111773.945   121453189.502    23111778.203    94638883.368    23111778.609  
G14  24909450.586   130900019.098    24909453.543   102000045.398                  
G27  20801247.078   109311284.136    20801251.090    85177683.456                  
G28  23825986.430   125206328.265    23825990.223    97563471.059                  
R14  20066964.234   106968212.023    20066964.613    20066970.660    83197549.674  
> 2010 01 01 01 36 30.0000000  0 14                     
G09  19842839.813   104274817.628    19842843.551    81253156.835                  
G17  21940868.227   115300438.449    21940871.449    89844208.532    21940871.172  
G18  23467003.445   123319892.213    23467006.797    96093454.080                  
G11  24407996.367   128264919.542    24407999.977    99946670.209                  
R15  19594742.117   104708387.455    19594741.672    19594745.539    81439891.924  
G26  22083357.820   116048790.992    22083362.273    90427669.273                  
G22  23309655.523   122493063.863    23309657.430    95449149.060                  
R17  23442996.250   125448151.955    23442995.102    23442998.348    97570848.809  
G15  22683728.070   119203753.285    22683732.301    92886086.212    22683732.266  
G12  23092205.063   121350354.117    23092209.059    94558751.920    23092208.863  
G14  24888892.695   130791989.659    24888896.055   101915866.609                  
G27  20799375.086   109301447.428    20799379.332    85170018.494                  
G28  23843594.711   125298858.605    23843597.293    97635572.613                  
R14  20079855.188   107036921.449    20079854.742    20079861.082    83250990.324  
> 2010 01 01 01 37 00.0000000  0 14                     
G09  19836807.859   104243119.085    19836811.988    81228456.678                  
G17  21935884.203   115274247.769    21935887.676    89823800.229    21935887.863  
G18  23479536.930   123385754.715    23479540.367    96144775.458                  
G11  24411595.797   128283830.749    24411598.336    99961406.230                  
R15  19585443.703   104658700.648    19585443.496    19585447.629    81401246.626  
G26  22067432.508   115965106.154    22067437.383    90362460.329                  
G22  23311974.000   122505249.887    23311976.602    95458644.643                  
R17  23417273.734   125310497.932    23417271.180    23417274.668    97463784.595  
G15  22702405.516   119301903.635    22702409.711    92962566.994    22702409.980  
G12  23072681.000   121247753.612    23072685.387    94478803.499    23072685.453  
G14  24868363.023   130684105.998    24868366.543   101831801.407                  
G27  20797574.836   109291986.118    20797579.129    85162646.050                  
G28  23861235.156   125391559.598    23861237.727    97707807.146                  
R14  20092828.320   107106075.499    20092827.406    20092833.609    83304776.812  
> 2010 01 01 01 37 30.0000000  0 14                     
G09  19830884.906   104211994.103    19830888.637    81204203.443                  
G17  21931012.180   115248646.465    21931015.957    89803851.182    21931015.844  
G18  23492149.719   123452032.492    23492152.781    96196420.429                  
G11  24415301.328   128303309.760    24415304.988    99976584.634                  
R15  19576236.938   104609504.034    19576236.848    19576240.758    81362982.589  
G26  22051600.078   115881902.695    22051603.891    90297626.478                  
G22  23314401.859   122518006.213    23314403.652    95468584.621                  
R17  23391576.055   125172984.712    23391573.266    23391576.305    97356829.898  
G15  22721139.703   119400353.508    22721144.148    93039281.163    22721143.938  
G12  23053201.242   121145389.418    23053205.703    94399039.235    23053205.957  
G14  24847861.625   130576369.958    24847864.688   101747851.223                  
G27  20795845.680   109282899.762    20795850.133    85155565.774                  
G28  23878907.461   125484428.714    23878910.730    97780172.689                  
R14  20105884.242   107175672.227    20105883.445    20105890.352    83358907.603  
> 2010 01 01 01 38 00.0000000  0 14                     
G09  19825071.492   104181444.527    19825075.555    81180398.583                  
G17  21926252.711   115223636.239    21926257.109    89784362.719    21926256.902  
G18  23504840.094   123518723.666    23504843.246    96248387.531                  
G11  24419118.531   128323356.575    24419119.434    99992205.543                  
R15  19567122.859   104560798.582    19567121.945    19567126.105    81325100.571  
G26  22035859.313   115799183.785    22035862.785    90233170.174                  
G22  23316938.203   122531332.038    23316939.781    95478968.377                  
R17  23365905.578   125035616.680    23365902.789    23365906.723    97249988.110  
G15  22739930.836   119499101.334    22739935.398    93116227.505    22739935.496  
G12  23033767.453   121043263.669    23033771.449    94319460.773    23033771.465  
G14  24827389.586   130468784.517    24827391.957   101664018.456                  
G27  20794188.164   109274189.475    20794192.297    85148778.542                  
G28  23896611.766   125577464.883    23896615.180    97852668.417                  
R14  20119023.258   107245710.623    20119022.461    20119028.730    83413381.895  
> 2010 01 01 01 38 30.0000000  0 14                     
G09  19819367.844   104151471.757    19819371.527    81157043.177                  
G17  21921606.398   115199217.983    21921610.738    89765335.526    21921610.598  
G18  23517609.547   123585825.959    23517611.797    96300674.971                  
G11  24423039.445   128343970.728    24423042.668   100008268.509                  
R15  19558100.594   104512587.418    19558099.914    19558104.375    81287603.000  
G26  22020211.594   115716952.772    22020214.809    90169094.045                  
G22  23319582.313   122545227.153    23319583.727    95489795.731                  
R17  23340263.180   124898398.391    23340260.625    23340263.656    97143262.817  
G15  22758778.406   119598145.077    22758783.121    93193404.423    22758782.922  
G12  23014379.391   120941378.280    23014383.664    94240069.588    23014383.805  
G14  24806944.203   130361352.337    24806948.285   101580305.057                  
G27  20792602.305   109265856.024    20792606.738    85142284.942                  
G28  23914347.617   125670666.873    23914350.125    97925293.326                  
R14  20132244.609   107316189.242    20132242.875    20132249.930    83468198.578  
> 2010 01 01 01 39 00.0000000  0 14                     
G09  19813773.992   104122075.777    19813777.500    81134137.217                  
G17  21917072.570   115175391.790    21917076.191    89746769.681    21917075.563  
G18  23530455.805   123653336.028    23530459.047    96353280.183                  
G11  24427069.867   128365150.872    24427073.688   100024772.511                  
R15  19549171.492   104464870.160    19549170.695    19549175.051    81250489.576  
G26  22004656.688   115635211.092    22004660.191    90105399.240                  
G22  23322335.023   122559690.097    23322335.480    95501065.566                  
R17  23314647.852   124761332.633    23314646.234    23314648.914    97036656.142  
G15  22777681.391   119697481.368    22777685.684    93270809.318    22777685.500  
G12  22995036.711   120839734.167    22995041.801    94160866.421    22995041.684  
G14  24786530.508   130254074.752    24786533.832   101496712.129                  
G27  20791087.945   109257898.790    20791092.578    85136084.504                  
G28  23932113.305   125764031.779    23932117.262    97998045.185                  
R14  20145547.617   107387105.730    20145546.352    20145552.664    83523355.851  
> 2010 01 01 01 39 30.0000000  0 14                     
G09  19808290.148   104093258.227    19808293.969    81111681.978                  
G17  21912651.133   115152158.838    21912655.285    89728666.093    21912655.063  
G18  23543380.133   123721251.726    23543383.391    96406201.461                  
G11  24431208.094   128386896.784    24431211.023   100041717.375                  
R15  19540334.797   104417648.583    19540333.883    19540338.199    81213761.684  
G26  21989195.086   115553962.180    21989198.832    90042088.403                  
G22  23325194.719   122574720.503    23325195.906    95512777.571                  
R17  23289063.117   124624423.750    23289062.672    23289065.574    96930171.483  
G15  22796639.742   119797108.490    22796644.215    93348440.828    22796644.152  
G12  22975740.984   120738333.492    22975745.285    94081852.974    22975745.438  
G14  24766146.930   130146954.667    24766149.648   101413241.937                  
G27  20789645.820   109250318.277    20789649.957    85130177.607                  
G28  23949911.984   125857558.503    23949914.430    98070923.137                  
R14  20158933.805   107458459.125    20158933.359    20158938.949    83578852.918  
> 2010 01 01 01 40 00.0000000  0 14                     
G09  19802916.891   104065020.634    19802920.375    81089678.653                  
G17  21908343.320   115129520.334    21908346.789    89711025.725    21908346.801  
G18  23556381.070   123789571.098    23556384.473    96459437.289                  
G11  24435453.422   128409207.923    24435456.887   100059102.673                  
R15  19531590.367   104370924.536    19531589.688    19531593.934    81177420.754  
G26  21973828.406   115473209.305    21973832.184    89979164.084                  
G22  23328162.359   122590318.132    23328163.926    95524931.573                  
R17  23263509.305   124487676.278    23263508.156    23263510.129    96823812.359  
G15  22815653.133   119897024.470    22815657.699    93426297.428    22815657.637  
G12  22956491.945   120637178.395    22956496.363    94003030.882    22956496.512  
G14  24745793.727   130039994.728    24745796.086   101329896.542                  
G27  20788275.047   109243115.690    20788279.641    85124565.204                  
G28  23967739.711   125951245.411    23967741.965    98143925.897                  
R14  20172402.227   107530248.479    20172401.313    20172405.977    83634689.097  
> 2010 01 01 01 40 30.0000000  0 14                     
G09  19797653.898   104037363.747    19797657.496    81068127.835                  
G17  21904148.445   115107476.834    21904152.164    89693848.995    21904152.215  
G18  23569457.398   123858290.912    23569460.566    96512985.156                  
G11  24439806.039   128432083.587    24439809.938   100076927.913                  
R15  19522939.969   104324699.178    19522939.406    19522943.574    81141467.705  
G26  21958556.578   115392954.679    21958559.969    89916628.018                  
G22  23331238.031   122606481.382    23331239.504    95537526.320                  
R17  23237985.086   124351093.596    23237984.172    23237987.078    96717581.409  
G15  22834720.477   119997226.321    22834725.344    93504376.792    22834725.191  
G12  22937289.375   120536270.124    22937293.145    93924401.090    22937293.492  
G14  24725470.555   129933197.129    24725473.781   101246677.625                  
G27  20786976.398   109236291.026    20786980.586    85119247.281                  
G28  23985598.102   126045090.237    23985600.465    98217051.693                  
R14  20185951.250   107602472.195    20185950.688    20185956.055    83690863.113  
> 2010 01 01 01 41 00.0000000  0 14                     
G09  19792501.609   104010289.477    19792505.375    81047031.003                  
G17  21900067.766   115086030.316    21900071.594    89677137.432    21900071.445  
G18  23582610.117   123927409.212    23582613.066    96566843.531                  
G11  24444267.742   128455523.357    24444269.867   100095192.693                  
R15  19514383.453   104278974.096    19514382.656    19514386.984    81105903.749  
G26  21943379.945   115313201.932    21943383.285    89854483.011                  
G22  23334421.734   122623210.459    23334422.953    95550561.958                  
R17  23212493.586   124214680.631    23212491.852    23212494.215    96611482.481  
G15  22853842.820   120097712.966    22853847.172    93582678.064    22853847.367  
G12  22918134.336   120435611.465    22918138.902    93845965.831    22918138.820  
G14  24705177.891   129826565.035    24705181.410   101163587.654                  
G27  20785749.906   109229845.569    20785754.055    85114224.851                  
G28  24003486.148   126139092.633    24003488.297    98290300.340                  
R14  20199581.508   107675129.851    20199580.594    20199586.957    83747374.634  
> 2010 01 01 01 41 30.0000000  0 14                     
G09  19787460.102   103983797.520    19787464.391    81026387.915                  
G17  21896099.719   115065179.986    21896103.836    89660890.430    21896103.719  
G18  23595838.047   123996922.266    23595841.555    96621009.493                  
G11  24448834.500   128479525.596    24448837.961   100113895.682                  
R15  19505919.859   104233750.417    19505919.887    19505924.266    81070729.774  
G26  21928299.305   115233952.749    21928303.160    89792730.390                  
G22  23337711.969   122640503.683    23337714.074    95564037.198                  
R17  23187032.992   124078440.490    23187031.727    23187035.309    96505517.965  
G15  22873018.422   120198480.636    22873022.488    93661198.331    22873022.754  
G12  22899027.523   120335203.129    22899031.590    93767725.617    22899031.695  
G14  24684917.859   129720099.7971   24684922.098   101080627.8351                 
G27  20784595.195   109223778.540    20784599.727    85109497.292                  
G28  24021403.133   126233249.759    24021406.258    98363669.527                  
R14  20213291.820   107748218.035    20213291.141    20213297.770    83804221.001  
> 2010 01 01 01 42 00.0000000  0 14                     
G09  19782530.414   103957889.884    19782534.086    81006200.149                  
G17  21892246.016   115044927.812    21892249.629    89645109.534    21892249.148  
G18  23609140.781   124066828.852    23609144.480    96675482.094                  
G11  24453509.203   128504090.529    24453512.672   100133037.187                  
R15  19497552.008   104189029.923    19497551.094    19497555.195    81035947.175  
G26  21913315.398   115155210.882    21913318.977    89731373.093                  
G22  23341110.195   122658360.932    23341111.805    95577951.946                  
R17  23161606.734   123942378.037    23161605.352    23161608.168    96399691.656  
G15  22892247.078   120299528.090    22892251.051    93739936.600    22892251.211  
G12  22879969.055   120235047.461    22879973.000    93689682.280    22879973.023  
G14  24664691.344   129613804.921    24664694.477   100997800.668                  
G27  20783513.148   109218091.130    20783517.008    85105065.543                  
G28  24039349.258   126327560.561    24039352.695    98437158.466                  
R14  20227082.922   107821736.967    20227082.832    20227090.691    83861402.386  
> 2010 01 01 01 42 30.0000000  0 14                     
G09  19777711.758   103932566.866    19777715.512    80986467.930                  
G17  21888505.961   115025273.642    21888510.020    89629794.621    21888509.430  
G18  23622517.164   124137125.379    23622521.898    96730258.534                  
G11  24458291.461   128529216.445    24458293.852   100152615.835                  
R15  19489277.273   104144813.471    19489276.477    19489280.590    81001556.596  
G26  21898427.836   115076978.189    21898431.559    89670412.556                  
G22  23344615.641   122676780.792    23344616.949    95592305.084                  
R17  23136212.914   123806496.176    23136211.766    23136214.914    96294005.813  
G15  22911528.711   120400851.990    22911532.359    93818890.282    22911532.402  
G12  22860958.539   120135145.249    22860961.668    93611836.428    22860962.047  
G14  24644497.195   129507681.724    24644499.605   100915107.176                  
G27  20782503.023   109212782.966    20782507.094    85100929.311                  
G28  24057325.070   126422022.387    24057328.406    98510765.092                  
R14  20240954.648   107895683.988    20240953.969    20240961.660    83918916.715  
> 2010 01 01 01 43 00.0000000  0 14                     
G09  19773004.477   103907829.748    19773008.199    80967192.257                  
G17  21884879.516   115006218.326    21884883.750    89614946.344    21884883.531  
G18  23635968.203   124207809.937    23635972.773    96785337.345                  
G11  24463178.844   128554903.179    24463181.445   100172631.478                  
R15  19481096.953   104101101.928    19481095.805    19481100.430    80967558.739  
G26  21883638.305   114999257.770    21883641.906    89609851.188                  
G22  23348227.773   122695762.618    23348229.668    95607096.104                  
R17  23110856.328   123670799.554    23110854.594    23110856.434    96188464.037  
G15  22930862.180   120502450.535    22930866.105    93898057.971    22930865.910  
G12  22841996.289   120035498.965    22841999.379    93534189.996    22841999.734  
G14  24624335.750   129401733.255    24624338.699   100832549.865                  
G27  20781565.188   109207855.037    20781569.594    85097089.371                  
G28  24075329.539   126516634.370    24075333.254    98584488.663                  
R14  20254906.938   107970058.668    20254907.902    20254915.242    83976763.674  
> 2010 01 01 01 43 30.0000000  0 14                     
G09  19768408.633   103883679.644    19768412.406    80948373.990                  
G17  21881367.281   114987762.869    21881371.762    89600565.489    21881371.582  
G18  23649493.180   124278879.840    23649497.168    96840716.412                  
G11  24468172.461   128581149.660    24468175.906   100193083.247                  
R15  19473012.211   104057898.000    19473011.063    19473015.516    80933955.681  
G26  21868946.305   114922052.485    21868951.020    89549691.241                  
G22  23351946.523   122715305.548    23351948.594    95622324.351                  
R17  23085533.047   123535292.257    23085531.547    23085534.098    96083069.525  
G15  22950247.195   120604321.579    22950251.023    93977437.994    22950250.668  
G12  22823083.289   119936110.229    22823086.293    93456744.250    22823086.629  
G14  24604207.992   129295962.162    24604211.559   100750130.835                  
G27  20780699.969   109203307.859    20780704.273    85093546.116                  
G28  24093362.430   126611394.836    24093364.969    98658327.964                  
R14  20268941.078   108044859.072    20268941.223    20268946.316    84034941.757  
> 2010 01 01 01 44 30.0000000  0 14                     
G09  19759553.195   103837142.550    19759556.477    80912111.320                  
G17  21874686.367   114952653.116    21874690.281    89573207.265    21874689.891  
G18  23676758.844   124422163.203    23676762.984    96952365.661                  
G11  24478481.031   128635317.443    24478483.191   100235291.961                  
R15  19457127.047   103973014.207    19457125.898    19457130.402    80867934.969  
G26  21839859.109   114769196.400    21839863.008    89430582.566                  
G22  23359704.023   122756069.630    23359705.504    95654088.548                  
R17  23034995.648   123264860.266    23034994.148    23034996.914    95872733.601  
G15  22989170.805   120808869.783    22989175.840    94136826.174    22989175.715  
G12  22785403.531   119738110.833    22785408.402    93302459.117    22785408.402  
G14  24564055.094   129084959.772    24564059.387   100585713.565                  
G27  20779186.625   109195355.022    20779190.414    85087349.097                  
G28  24129510.148   126801352.389    24129513.430    98806346.774                  
R14  20297244.469   108195729.902    20297243.789    20297248.816    84152285.773  
> 2010 01 01 01 45 00.0000000  0 14                     
G09  19755293.492   103814758.737    19755297.246    80894669.388                  
G17  21871517.813   114936000.981    21871521.965    89560231.577    21871521.883  
G18  23690500.148   124494372.565    23690504.160    97008632.631                  
G11  24483795.055   128663237.729    24483796.805   100257048.073                  
R15  19449327.688   103931338.003    19449327.242    19449331.609    80835520.147  
G26  21825464.578   114693552.233    21825468.473    89371639.068                  
G22  23363742.172   122777289.977    23363743.590    95670623.884                  
R17  23009784.422   123129944.688    23009781.633    23009785.441    95767799.298  
G15  23008709.844   120911543.201    23008714.191    94216831.425    23008713.727  
G12  22766640.719   119639505.009    22766644.699    93225623.465    22766644.766  
G14  24544032.320   128979734.798    24544035.672   100503720.093                  
G27  20778538.734   109191951.369    20778543.328    85084696.899                  
G28  24147625.195   126896547.151    24147627.316    98880524.517                  
R14  20311514.609   108271798.514    20311514.047    20311520.156    84211450.254  
> 2010 01 01 01 45 30.0000000  0 14                     
G09  19751146.203   103792964.866    19751149.770    80877687.147                  
G17  21868463.281   114919950.627    21868467.691    89547724.831    21868467.184  
G18  23704312.586   124566956.040    23704316.266    97065191.085                  
G11  24489212.961   128691713.838    24489216.180   100279237.210                  
R15  19441624.367   103890173.996    19441623.453    19441627.707    80803503.704  
G26  21811169.695   114618433.335    21811173.270    89313104.842                  
G22  23367886.164   122799066.898    23367887.461    95687592.918                  
R17  22984609.453   122995234.049    22984608.539    22984611.270    95663024.416  
G15  23028297.781   121014478.950    23028301.941    94297041.096    23028301.707  
G12  22747926.672   119541162.904    22747930.809    93148993.302    22747930.945  
G14  24524045.070   128874696.176    24524047.211   100421871.741                  
G27  20777963.531   109188928.969    20777968.031    85082341.778                  
G28  24165766.836   126991883.159    24165769.473    98954812.281                  
R14  20325863.305   108348286.540    20325863.098    20325869.977    84270940.931  
> 2010 01 01 01 46 00.0000000  0 14                     
G09  19747111.367   103771761.506    19747115.008    80861165.043                  
G17  21865523.703   114904501.980    21865527.727    89535686.930    21865527.598  
G18  23718195.625   124639910.414    23718198.973    97122038.599                  
G11  24494737.008   128720744.134    24494740.703   100301858.197                  
R15  19434017.320   103849521.810    19434016.055    19434020.570    80771885.335  
G26  21796975.359   114543841.803    21796978.871    89254981.569                  
G22  23372135.750   122821398.772    23372137.211    95704994.392                  
R17  22959474.945   122860731.717    22959472.508    22959475.805    95558411.523  
G15  23047935.109   121117673.946    23047939.684    94377452.764    23047939.465  
G12  22729262.961   119443085.770    22729267.059    93072569.605    22729267.188  
G14  24504092.063   128769845.903    24504094.004   100340170.169                  
G27  20777461.102   109186287.641    20777465.461    85080283.599                  
G28  24183934.742   127087357.797    24183938.266    99029208.115                  
R14  20340290.414   108425191.811    20340289.148    20340295.367    84330756.134  
> 2010 01 01 01 46 30.0000000  0 14                     
G09  19743189.555   103751151.319    19743193.145    80845105.156                  
G17  21862698.680   114889657.624    21862702.570    89524119.919    21862702.410  
G18  23732148.719   124713234.850    23732152.480    97179174.489                  
G11  24500367.430   128750329.488    24500369.832   100324911.694                  
R15  19426505.898   103809385.005    19426505.102    19426509.508    80740667.827  
G26  21782882.195   114469782.286    21782885.820    89197272.847                  
G22  23376491.008   122844286.574    23376492.055    95722829.055                  
R17  22934379.531   122726443.544    22934377.914    22934381.934    95453965.211  
G15  23067622.148   121221128.107    23067626.324    94458066.390    23067626.250  
G12  22710650.836   119345277.357    22710654.934    92996355.294    22710655.164  
G14  24484174.711   128665188.408    24484178.176   100258618.858                  
G27  20777031.742   109184029.873    20777035.801    85078524.300                  
G28  24202128.813   127182971.502    24202132.945    99103712.305                  
R14  20354795.945   108502515.253    20354794.914    20354802.512    84390896.580  
> 2010 01 01 01 47 00.0000000  0 14                     
G09  19739380.359   103731133.551    19739383.793    80829506.894                  
G17  21859989.086   114875416.211    21859992.488    89513022.727    21859992.379  
G18  23746171.508   124786925.041    23746175.660    97236595.367                  
G11  24506100.852   128780467.389    24506105.086   100348395.822                  
R15  19419090.922   103769763.241    19419090.598    19419094.754    80709850.896  
G26  21768890.469   114396255.592    21768894.223    89139979.323                  
G22  23380951.297   122867727.582    23380952.844    95741094.759                  
R17  22909326.180   122592371.878    22909324.680    22909327.359    95349687.271  
G15  23087356.438   121324837.249    23087361.621    94538878.690    23087361.590  
G12  22692089.055   119247737.413    22692093.836    92920350.214    22692093.891  
G14  24464296.203   128560724.411    24464300.203   100177218.392                  
G27  20776674.539   109182154.221    20776679.145    85077062.750                  
G28  24220350.602   127278721.024    24220352.840    99178322.312                  
R14  20369379.641   108580252.607    20369379.434    20369385.875    84451358.966  
> 2010 01 01 01 47 30.0000000  0 14                     
G09  19735684.047   103711709.945    19735687.801    80814371.622                  
G17  21857393.938   114861779.513    21857397.707    89502396.755    21857397.629  
G18  23760264.594   124860979.692    23760267.664    97294300.245                  
G11  24511941.250   128811157.739    24511946.262   100372310.371                  
R15  19411773.656   103730658.338    19411772.625    19411776.664    80679435.979  
G26  21755001.125   114323265.367    21755004.781    89083103.812                  
G22  23385517.297   122891721.776    23385519.563    95759791.527                  
R17  22884313.492   122458522.028    22884310.820    22884314.715    95245581.859  
G15  23107140.414   121428799.804    23107145.449    94619888.456    23107144.984  
G12  22673580.078   119150468.788    22673584.250    92844556.527    22673584.203  
G14  24444456.406   128456457.553    24444459.199   100095971.508                  
G27  20776390.570   109180662.060    20776394.910    85075900.024                  
G28  24238596.750   127374605.633    24238599.809    99253037.543                  
R14  20384041.055   108658404.384    20384040.258    20384046.262    84512143.666  
> 2010 01 01 01 48 00.0000000  0 14                     
G09  19732101.188   103692881.508    19732104.891    80799700.115                  
G17  21854914.422   114848748.271    21854917.516    89492242.553    21854917.633  
G18  23774424.961   124935395.682    23774428.180    97352286.708                  
G11  24517887.438   128842399.632    24517890.762   100396654.632                  
R15  19404552.727   103692072.635    19404552.047    19404556.457    80649424.883  
G26  21741214.547   114250814.388    21741217.887    89026648.496                  
G22  23390188.461   122916268.344    23390190.820    95778918.719                  
R17  22859341.047   122324898.151    22859338.961    22859343.422    95141652.213  
G15  23126972.008   121533013.470    23126976.270    94701093.888    23126975.758  
G12  22655122.445   119053473.513    22655126.387    92768975.800    22655126.434  
G14  24424652.961   128352390.316    24424655.879   100014880.143                  
G27  20776179.906   109179553.940    20776184.023    85075036.554                  
G28  24256868.469   127470623.709    24256871.598    99327856.847                  
R14  20398779.695   108736968.686    20398779.016    20398784.430    84573249.245  
> 2010 01 01 01 48 30.0000000  0 14                     
G09  19728631.297   103674648.759    19728634.879    80785492.781                  
G17  21852549.453   114836322.443    21852552.844    89482560.102    21852552.871  
G18  23788653.602   125010170.055    23788657.086    97410552.424                  
G11  24523936.992   128874191.529    24523940.375   100421427.556                  
R15  19397428.742   103654006.538    19397428.297    19397432.582    80619817.919  
G26  21727530.875   114178905.138    21727534.375    88970615.300                  
G22  23394964.500   122941365.421    23394966.371    95798474.878                  
R17  22834414.445   122191503.750    22834411.773    22834414.996    95037901.028  
G15  23146850.578   121637475.718    23146854.926    94782493.028    23146854.758  
G12  22636716.922   118956752.682    22636721.223    92693608.949    22636721.277  
G14  24404888.078   128248525.043    24404890.730    99933946.151                  
G27  20776041.695   109178829.873    20776046.094    85074472.345                  
G28  24275165.578   127566773.272    24275167.313    99402778.587                  
R14  20413595.016   108815944.074    20413594.570    20413599.875    84634674.551  
> 2010 01 01 01 49 00.0000000  0 15                     
G09  19725275.352   103657012.745    19725279.137    80771750.432                  
G17  21850299.781   114824502.499    21850303.844    89473349.768    21850303.949  
G18  23802950.641   125085300.519    23802954.473    97469095.597                  
G11  24530090.852   128906532.746    24530094.738   100446628.502                  
R15  19390402.734   103616461.423    19390402.410    19390406.695    80590616.170  
G26  21713949.906   114107540.211    21713954.078    88915006.262                  
G22  23399844.609   122967012.279    23399846.879    95818459.428                  
R17  22809530.148   122058343.181    22809528.063    22809530.863    94934331.721  
G15  23166775.969   121742184.218    23166779.930    94864084.055    23166779.645  
G12  22618364.430   118860308.288    22618368.754    92618457.531    22618368.723  
G14  24385161.734   128144864.155    24385164.586    99853171.439                  
G27  20775977.117   109178490.312    20775981.703    85074207.747                  
G28  24293485.758   127663053.274    24293490.398    99477801.893                  
R14  20428487.453   108895329.197    20428486.891    20428493.613    84696418.533  
R07  23567134.109   126156681.1631   23567131.086                                  
> 2010 01 01 01 49 30.0000000  0 15                     
G09  19722033.141   103639973.947    19722036.648    80758473.443                  
G17  21848166.070   114813288.714    21848170.203    89464611.758    21848169.719  
G18  23817314.828   125160783.944    23817318.738    97527913.811                  
G11  24536350.063   128939421.818    24536353.973   100472256.337                  
R15  19383474.633   103579438.352    19383473.367    19383477.438    80561820.447  
G26  21700473.570   114036722.027    21700477.809    88859823.272                  
G22  23404829.672   122993207.490    23404832.063    95838871.257                  
R17  22784690.320   121925420.348    22784688.938    22784691.645    94830947.322  
G15  23186747.609   121847136.676    23186751.785    94945865.183    23186751.254  
G12  22600064.727   118764141.749    22600068.508    92543522.588    22600068.645  
G14  24365474.594   128041409.991    24365477.770    99772557.810                  
G27  20775985.898   109178535.303    20775990.133    85074242.808                  
G28  24311830.805   127759461.377    24311835.750    99552925.133                  
R14  20443455.875   108975121.815    20443455.668    20443461.996    84758479.432  
R07  23548364.133   126056138.3861   23548363.809    23548361.559    98043719.3771 
> 2010 01 01 01 50 00.0000000  0 15                     
G09  19718904.164   103623532.830    19718908.086    80745662.186                  
G17  21846148.070   114802681.067    21846151.480    89456346.065    21846150.859  
G18  23831745.758   125236616.933    23831749.289    97587004.416                  
G11  24542713.891   128972857.432    24542716.488   100498310.119                  
R15  19376644.094   103542938.100    19376643.297    19376647.730    80533431.361  
G26  21687102.180   113966452.741    21687106.281    88805067.985                  
G22  23409918.813   123019949.417    23409920.453    95859709.116                  
R17  22759895.469   121792738.920    22759894.086    22759896.117    94727750.684  
G15  23206765.211   121952329.835    23206768.965    95027833.854    23206768.664  
G12  22581817.117   118668254.223    22581821.207    92468805.061    22581821.770  
G14  24345828.172   127938164.908    24345831.207    99692107.120                  
G27  20776067.805   109178964.857    20776071.887    85074577.526                  
G28  24330200.570   127855995.601    24330204.891    99628146.614                  
R14  20458500.836   109055320.250    20458499.805    20458507.336    84820855.965  
R07  23529686.969   125956155.609    23529686.645    23529686.414    97965955.055  
> 2010 01 01 01 50 30.0000000  0 15                     
G09  19715889.719   103607690.569    19715893.188    80733317.565                  
G17  21844244.625   114792680.556    21844248.379    89448553.475    21844248.301  
G18  23846242.227   125312797.580    23846245.355    97646365.929                  
G11  24549179.844   129006838.875    24549182.496   100524789.188                  
R15  19369911.938   103506962.420    19369910.672    19369915.051    80505450.282  
G26  21673835.195   113896735.588    21673839.531    88750742.919                  
G22  23415111.125   123047237.498    23415113.059    95880972.552                  
R17  22735145.570   121660303.311    22735144.422    22735147.840    94624745.247  
G15  23226828.266   122057762.308    23226832.129    95109989.010    23226832.313  
G12  22563624.281   118572648.112    22563628.109    92394306.807    22563628.348  
G14  24326221.680   127835131.995    24326224.398    99611821.712                  
G27  20776222.953   109179779.758    20776227.125    85075212.510                  
G28  24348596.422   127952655.175    24348599.980    99703465.692                  
R14  20473622.234   109135924.131    20473621.438    20473628.113    84883547.857  
R07  23511102.977   125856668.751    23511101.828    23511100.367    97888576.373  
> 2010 01 01 01 51 00.0000000  0 15                     
G09  19712989.000   103592447.262    19712992.707    80721439.663                  
G17  21842457.219   114783287.113    21842460.852    89441233.918    21842460.512  
G18  23860804.859   125389322.598    23860807.227    97705995.769                  
G11  24555750.133   129041364.447    24555752.738   100551692.220                  
R15  19363277.805   103471512.678    19363276.773    19363281.367    80477878.262  
G26  21660673.992   113827572.457    21660677.973    88696849.565                  
G22  23420407.664   123075069.988    23420409.418    95902660.199                  
R17  22710444.914   121528117.389    22710442.594    22710445.941    94521933.994  
G15  23246936.344   122163431.061    23246939.898    95192328.290    23246940.105  
G12  22545484.992   118477324.540    22545488.328    92320028.726    22545488.254  
G14  24306655.758   127732312.940    24306658.527    99531702.997                  
G27  20776451.227   109180979.804    20776455.355    85076147.611                  
G28  24367013.523   128049437.732    24367015.973    99778880.688                  
R14  20488819.031   109216930.776    20488819.059    20488825.137    84946552.976  
R07  23492612.625   125757681.355    23492610.891    23492611.258    97811586.243  
> 2010 01 01 01 51 30.0000000  0 15                     
G09  19710202.508   103577804.342    19710206.188    80710029.592                  
G17  21840785.336   114774501.342    21840788.863    89434387.867    21840788.492  
G18  23875432.078   125466190.052    23875434.348    97765892.470                  
G11  24562422.438   129076433.509    24562425.801   100579018.710                  
R15  19356742.359   103436589.447    19356741.211    19356745.926    80450715.761  
G26  21647618.375   113758966.323    21647622.859    88643390.241                  
G22  23425807.727   123103446.424    23425808.992    95924771.677                  
R17  22685789.422   121396185.720    22685788.742    22685791.465    94419320.512  
G15  23267089.438   122269334.048    23267092.902    95274850.083    23267093.082  
G12  22527399.172   118382285.357    22527402.512    92245972.242    22527402.883  
G14  24287131.484   127629711.002    24287134.352    99451753.430                  
G27  20776752.922   109182565.828    20776757.316    85077383.469                  
G28  24385453.633   128146342.262    24385456.020    99854390.688                  
R14  20504091.133   109298339.139    20504090.926    20504097.660    85009870.586  
R07  23474214.000   125659197.863    23474212.617    23474210.273    97734987.9151 
> 2010 01 01 01 52 00.0000000  0 15                     
G09  19707530.492   103563762.206    19707534.250    80699087.667                  
G17  21839229.297   114766323.577    21839232.836    89428015.596    21839232.625  
G18  23890123.328   125543396.686    23890127.684    97826053.465                  
G11  24569200.008   129112044.726    24569202.691   100606767.691                  
R15  19350305.969   103402194.509    19350305.055    19350309.289    80423964.138  
G26  21634669.750   113690919.682    21634673.516    88590366.891                  
G22  23431310.906   123132364.982    23431312.512    95947305.606                  
R17  22661183.727   121264511.925    22661180.938    22661184.016    94316907.599  
G15  23287285.984   122375468.825    23287289.750    95357552.486    23287289.586  
G12  22509368.734   118287532.429    22509371.938    92172138.781    22509372.355  
G14  24267649.211   127527328.517    24267651.285    99371974.837                  
G27  20777128.086   109184537.987    20777132.098    85078920.215                  
G28  24403915.641   128243366.969    24403920.070    99929994.354                  
R14  20519438.203   109380147.697    20519437.879    20519443.348    85073499.435  
R07  23455912.063   125561222.128    23455909.039    23455907.031    97658784.438  
> 2010 01 01 01 52 30.0000000  0 15                     
G09  19704972.680   103550321.446    19704976.793    80688614.345                  
G17  21837788.391   114758753.443    21837792.094    89422116.813    21837792.137  
G18  23904879.477   125620939.827    23904883.738    97886476.682                  
G11  24576078.664   129148196.567    24576081.391   100634938.053                  
R15  19343968.617   103368329.137    19343967.586    19343971.637    80397624.406  
G26  21621827.898   113623434.804    21621831.691    88537781.250                  
G22  23436916.250   123161824.197    23436918.406    95970260.820                  
R17  22636625.703   121133100.113    22636623.734    22636627.082    94214698.447  
G15  23307525.836   122481832.631    23307530.313    95440433.349    23307530.219  
G12  22491392.414   118193067.100    22491396.227    92098529.467    22491396.055  
G14  24248207.633   127425167.637    24248210.480    99292368.942                  
G27  20777576.977   109186896.214    20777581.590    85080757.792                  
G28  24422401.289   128340509.866    24422405.188   100005690.149                  
R14  20534860.211   109462354.531    20534859.414    20534864.766    85137438.068  
R07  23437702.852   125463758.138    23437702.289    23437700.023    97582979.214  
> 2010 01 01 01 53 00.0000000  0 15                     
G09  19702529.492   103537483.632    19702533.777    80678610.862                  
G17  21836464.156   114751792.538    21836467.512    89416692.745    21836467.539  
G18  23919699.234   125698817.362    23919702.676    97947160.428                  
G11  24583058.797   129184888.658    24583064.070   100663529.276                  
R15  19337730.438   103334994.561    19337729.758    19337733.914    80371697.505  
G26  21609093.914   113556515.071    21609097.617    88485635.991                  
G22  23442625.211   123191823.440    23442626.910    95993636.846                  
R17  22612118.125   121001955.427    22612116.273    22612118.980    94112697.058  
G15  23327810.188   122588424.229    23327814.035    95523491.702    23327813.930  
G12  22473471.109   118098891.843    22473475.207    92025146.208    22473475.148  
G14  24228808.414   127323231.779    24228812.734    99212938.449                  
G27  20778099.422   109189641.901    20778104.020    85082897.287                  
G28  24440910.336   128437770.491    24440913.305   100081477.586                  
R14  20550355.813   109544958.942    20550354.547    20550360.813    85201685.937  
R07  23419593.219   125366810.277    23419591.484    23419590.516    97507575.359  
> 2010 01 01 01 53 30.0000000  0 15                     
G09  19700201.297   103525248.432    19700205.500    80669076.941                  
G17  21835255.227   114745440.040    21835258.066    89411742.749    21835257.785  
G18  23934581.797   125777025.517    23934585.656    98008101.806                  
G11  24590145.227   129222119.142    24590149.168   100692539.890                  
R15  19331591.563   103302191.319    19331590.883    19331595.027    80346183.881  
G26  21596466.844   113490162.028    21596471.270    88433932.326                  
G22  23448436.578   123222360.761    23448437.949    96017432.144                  
R17  22587661.094   120871080.717    22587659.828    22587662.754    94010905.658  
G15  23348136.047   122695240.110    23348140.512    95606724.842    23348140.441  
G12  22455605.781   118005007.535    22455609.285    91951989.626    22455609.563  
G14  24209455.070   127221522.680    24209458.402    99133684.615                  
G27  20778695.508   109192774.328    20778699.898    85085338.131                  
G28  24459440.164   128535146.196    24459443.332   100157354.763                  
R14  20565926.367   109627958.509    20565925.922    20565930.809    85266241.146  
R07  23401580.109   125270381.465    23401578.023    23401578.563    97432575.204  
> 2010 01 01 01 54 00.0000000  0 15                     
G09  19697988.320   103513616.880    19697991.977    80660013.393                  
G17  21834162.398   114739696.333    21834165.762    89407267.137    21834165.629  
G18  23949526.906   125855561.894    23949530.723    98069298.936                  
G11  24597332.586   129259886.531    24597335.871   100721969.153                  
R15  19325552.742   103269920.455    19325551.594    19325556.051    80321084.315  
G26  21583948.625   113424378.378    21583952.555    88382672.335                  
G22  23454349.859   123253435.023    23454351.289    96041645.836                  
R17  22563255.102   120740480.528    22563253.133    22563256.969    93909327.763  
G15  23368504.766   122802278.310    23368509.250    95690131.223    23368509.555  
G12  22437795.211   117911416.026    22437799.398    91879061.206    22437799.598  
G14  24190144.867   127120043.278    24190147.621    99054609.725                  
G27  20779365.336   109196294.060    20779369.563    85088080.778                  
G28  24477992.086   128632635.680    24477995.418   100233320.588                  
R14  20581571.313   109711351.991    20581570.633    20581576.422    85331102.715  
R07  23383661.367   125174476.208    23383660.805    23383659.668    97357982.109  
> 2010 01 01 01 54 30.0000000  0 15                     
G09  19695889.656   103502589.212    19695893.566    80651420.408                  
G17  21833184.711   114734561.525    21833188.512    89403265.993    21833188.594  
G18  23964533.219   125934423.320    23964537.895    98130749.362                  
G11  24604621.734   129298189.764    24604624.742   100751815.801                  
R15  19319613.242   103238184.256    19319612.445    19319616.762    80296400.609  
G26  21571539.305   113359166.382    21571543.637    88331857.790                  
G22  23460364.398   123285044.805    23460366.684    96066276.805                  
R17  22538901.367   120610158.637    22538900.336    22538903.230    93807966.313  
G15  23388915.484   122909535.880    23388920.090    95773708.542    23388919.957  
G12  22420041.086   117818118.757    22420045.750    91806362.110    22420045.637  
G14  24170877.742   127018795.711    24170880.809    98975715.545                  
G27  20780108.617   109200201.154    20780112.898    85091125.262                  
G28  24496565.086   128730237.185    24496567.668   100309373.730                  
R14  20597289.578   109795138.059    20597288.898    20597296.168    85396269.641  
R07  23365846.102   125079098.884    23365844.250    23365844.566    97283799.801  
> 2010 01 01 01 55 00.0000000  0 15                     
G09  19693906.063   103492165.616    19693909.879    80643298.121                  
G17  21832323.734   114730035.542    21832327.250    89399739.259    21832327.109  
G18  23979602.055   126013606.807    23979606.164    98192450.717                  
G11  24612011.375   129337026.898    24612016.262   100782078.470                  
R15  19313774.773   103206982.306    19313774.094    19313778.441    80272132.426  
G26  21559238.633   113294528.470    21559243.398    88281490.597                  
G22  23466481.617   123317188.368    23466483.648    96091323.718                  
R17  22514600.219   120480118.847    22514599.070    22514601.883    93706824.290  
G15  23409367.602   123017010.207    23409371.328    95857454.748    23409371.406  
G12  22402343.844   117725117.138    22402347.891    91733893.360    22402347.980  
G14  24151656.438   126917782.399    24151658.574    98897003.858                  
G27  20780926.039   109204495.652    20780929.988    85094471.624                  
G28  24515158.789   128827948.712    24515162.066   100385512.593                  
R14  20613080.359   109879314.478    20613080.152    20613086.387    85461740.164  
R07  23348128.672   124984252.457    23348125.883    23348127.719    97210030.297  
> 2010 01 01 01 55 30.0000000  0 15                     
G09  19692037.703   103482347.795    19692041.527    80635647.874                  
G17  21831578.695   114726119.632    21831582.207    89396687.898    21831581.902  
G18  23994731.266   126093110.474    23994734.574    98254401.541                  
G11  24619504.484   129376397.998    24619507.949   100812757.321                  
R15  19308035.367   103176316.392    19308035.043    19308039.156    80248281.161  
G26  21547048.820   113230468.049    21547052.988    88231573.379                  
G22  23472699.719   123349865.258    23472701.227    96116786.218                  
R17  22490354.203   120350366.536    22490351.531    22490355.105    93605905.844  
G15  23429860.102   123124699.920    23429864.566    95941368.806    23429864.840  
G12  22384703.219   117632413.918    22384706.258    91661657.072    22384706.629  
G14  24132478.766   126817007.026    24132481.906    98818477.567                  
G27  20781817.281   109209178.834    20781821.387    85098120.855                  
G28  24533772.625   128925769.949    24533776.258   100461736.955                  
R14  20628944.086   109963881.184    20628944.465    20628950.570    85527514.227  
R07  23330507.984   124889941.552    23330507.660    23330507.469    97136677.509  
> 2010 01 01 01 56 00.0000000  0 15                     
G09  19690284.406   103473134.928    19690288.414    80628469.016                  
G17  21830949.328   114722812.170    21830952.230    89394110.652    21830952.117  
G18  24009920.125   126172930.120    24009923.445    98316598.615                  
G11  24627096.914   129416299.957                                                  
R15  19302397.516   103146187.839    19302396.719    19302401.016    80224847.842  
G26  21534968.945   113166985.856    21534972.984    88182106.724                  
G22  23479019.070   123383072.633    23479020.352    96142662.084                  
R17  22466159.625   120220904.334    22466157.422    22466161.156    93505213.054  
G15  23450393.008   123232601.786    23450397.914    96025448.158    23450397.672  
G12  22367118.969   117540008.881    22367123.754    91589653.172    22367123.500  
G14  24113347.172   126716470.395    24113350.270    98740137.364                  
G27  20782781.938   109214249.368    20782786.523    85102071.923                  
G28  24552407.875   129023697.893    24552412.090   100538044.402                  
R14  20644880.930   110048834.769    20644880.484    20644889.203    85593589.215  
R07  23312991.773   124796169.371    23312990.742    23312988.645    97063743.633  
> 2010 01 01 01 56 30.0000000  0 15                     
G09  19688646.969   103464528.628    19688651.125    80621762.809                  
G17  21830436.016   114720114.534    21830439.355    89392008.609    21830439.652  
G18  24025169.734   126253064.393    24025172.672    98379040.808                  
G11  24634792.305   129456732.671    24634793.359   100875357.6911                 
R15  19296860.125   103116597.278    19296859.445    19296864.176    80201832.963  
G26  21522999.289   113104085.535    21523002.855    88133093.494                  
G22  23485438.852   123416810.270    23485440.465    96168951.142                  
R17  22442021.375   120091737.104    22442019.406    22442022.871    93404749.698  
G15  23470966.055   123340714.172    23470970.613    96109691.572    23470970.777  
G12  22349592.203   117447905.078    22349597.168    91517884.026    22349597.047  
G14  24094261.430   126616176.372    24094264.195    98661986.165                  
G27  20783820.836   109219708.719    20783825.254    85106325.957                  
G28  24571063.656   129121731.776    24571066.789   100614434.407                  
R14  20660891.266   110134174.394    20660890.117    20660897.898    85659964.485  
R07  23295576.492   124702940.481    23295575.578                                  
> 2010 01 01 01 57 00.0000000  0 15                     
G09  19687124.609   103456528.988    19687128.660    80615529.326                  
G17  21830038.422   114718025.939    21830041.957    89390381.136    21830041.836  
G18  24040477.953   126333509.586    24040481.188    98441725.299                  
G11  24642586.414   129497693.969    24642588.418   100907275.578                  
R15  19291423.852   103087545.979    19291423.172    19291427.203    80179237.514  
G26  21511140.781   113041768.873    21511143.965    88084535.045                  
G22  23491959.492   123451075.721    23491961.145    96195651.495                  
R17  22417939.352   119962868.588    22417938.438    22417940.176    93304518.661  
G15  23491578.414   123449033.999    23491582.762    96194096.624    23491583.387  
G12  22332122.914   117356103.505    22332127.230    91446350.378    22332127.191  
G14  24075223.219   126516126.781    24075225.609    98584025.411                  
G27  20784933.852   109225556.496    20784938.531    85110882.669                  
G28  24589738.211   129219869.725    24589741.656   100690905.552                  
R14  20676973.242   110219898.337    20676972.563    20676977.469    85726638.630  
R07  23278260.719   124610257.654    23278259.922                                  
> 2010 01 01 01 57 30.0000000  0 15                     
G09  19685717.758   103449137.236    19685722.234    80609769.525                  
G17  21829756.813   114716547.435    21829760.563    89389229.052    21829760.387  
G18  24055844.391   126414263.632    24055848.676    98504650.502                  
G11  24650479.359   129539183.364    24650484.047   100939604.975                  
R15  19286088.016   103059035.276    19286087.219    19286091.273    80157062.526  
G26  21499393.648   112980038.848    21499397.414    88036433.726                  
G22  23498579.875   123485868.523    23498582.086    96222762.737                  
R17  22393914.945   119834303.630    22393912.625    22393915.023    93204523.731  
G15  23512230.336   123557559.299    23512234.742    96278661.782    23512234.668  
G12  22314711.672   117264606.509    22314715.859    91375054.041    22314715.641  
G14  24056231.359   126416325.078    24056234.680    98506257.851                  
G27  20786120.391   109231793.714    20786124.859    85115742.833                  
G28  24608433.461   129318110.664    24608436.480   100767456.893                  
R14  20693126.609   110306006.207    20693126.402    20693132.664    85793611.408  
R07  23261049.773   124518126.186    23261048.742    23261050.078    96847491.7081 
> 2010 01 01 01 58 00.0000000  0 15                     
G09  19684427.172   103442353.407    19684431.531    80604483.425                  
G17  21829591.781   114715678.936    21829595.543    89388552.301    21829595.367  
G18  24071269.727   126495323.532    24071273.871    98567814.003                  
G11  24658477.641   129581199.127    24658479.863   100972344.507                  
R15  19280853.781   103031066.493    19280853.219    19280857.727    80135309.035  
G26  21487758.922   112918897.520    21487762.773    87988791.138                  
G22  23505300.563   123521187.060    23505303.047    96250283.649                  
R17  22369945.031   119706045.915    22369943.766    22369946.898    93104767.781  
G15  23532920.258   123666287.671    23532925.648    96363385.168    23532925.629  
G12  22297358.063   117173415.307    22297362.520    91303996.006    22297362.492  
G14  24037287.695   126316773.496    24037290.598    98428685.189                  
G27  20787381.641   109238420.227    20787385.941    85120906.347                  
G28  24627147.820   129416453.137    24627150.293   100844087.368                  
R14  20709352.508   110392495.453    20709352.184    20709358.609    85860880.819  
R07  23243943.430   124426549.707    23243942.164    23243942.609    96776265.657  
> 2010 01 01 01 58 30.0000000  0 15                     
G09  19683251.758   103436177.457    19683256.035    80599670.997                  
G17  21829542.484   114715419.791    21829546.055    89388350.375    21829545.879  
G18  24086752.586   126576685.737    24086756.395    98631213.068                  
G11  24666571.602   129623739.463    24666574.754   101005492.901                  
R15  19275721.594   103003639.679    19275720.680    19275724.906    80113977.072  
G26  21476236.289   112858347.061    21476240.645    87941608.953                  
G22  23512121.234   123557029.144    23512123.883    96278212.523                  
R17  22346036.492   119578099.336    22346034.172    22346037.645    93005253.834  
G15  23553648.031   123775216.078    23553653.441    96448264.451    23553653.410  
G12  22280063.656   117082531.282    22280067.973    91233177.317    22280067.922  
G14  24018392.203   126217474.148    24018394.809    98351309.064                  
G27  20788716.578   109245436.063    20788720.941    85126373.225                  
G28  24645880.242   129514894.624    24645883.141   100920795.082                  
R14  20725648.758   110479364.129    20725647.727    20725653.598    85928445.344  
R07  23226941.469   124335530.934    23226938.328    23226938.512    96705473.151  
> 2010 01 01 01 59 00.0000000  0 16                     
G09  19682192.461   103430611.214    19682196.457    80595333.667                  
G17  21829609.250   114715770.964    21829612.922    89388624.025    21829612.887  
G18  24102292.570   126658348.702    24102295.801    98694846.484                  
G11  24674767.508   129666803.819    24674769.957   101039049.471                  
R15  19270691.359   102976757.889    19270689.859    19270694.121    80093069.011  
G26  21464827.375   112798390.537    21464831.090    87894889.589                  
G30  25073563.281   131762409.3141   25073568.773   102672074.9671                 
G22  23519041.555   123593394.252    23519044.066    96306548.935                  
R17  22322185.445   119450468.875    22322183.477    22322186.137    92905985.736  
G15  23574414.742   123884343.245    23574419.848    96533298.575    23574419.656  
G12  22262828.195   116991956.944    22262832.391    91162599.923    22262832.875  
G14  23999544.211   126118430.847    23999546.961    98274132.416                  
G27  20790126.031   109252842.499    20790130.816    85132144.467                  
G28  24664631.578   129613435.225    24664634.508   100997579.955                  
R14  20742015.719   110566611.923    20742015.156    20742022.195    85996304.710  
R07  23210042.453   124245075.353    23210040.602    23210043.641    96635116.7731 
> 2010 01 01 01 59 30.0000000  0 16                     
G09  19681249.133   103425653.841    19681253.285    80591470.782                  
G17  21829791.695   114716731.027    21829795.727    89389372.142    21829795.746  
G18  24117889.023   126740308.430    24117892.727    98758711.123                  
G11  24683061.852   129710389.221    24683064.219   101073012.107                  
R15  19265762.930   102950419.857    19265761.313    19265765.285    80072583.878  
G26  21453531.383   112739029.216    21453534.512    87848634.000                  
G30  25050729.250   131642418.686    25050735.070   102578575.842                  
G22  23526061.352   123630279.591    23526063.352    96335290.733                  
R17  22298394.273   119323157.490    22298393.008    22298395.895    92806965.807  
G15  23595218.406   123993665.712    23595223.059    96618484.890    23595222.871  
G12  22245650.781   116901692.687    22245655.184    91092264.185    22245655.555  
G14  23980745.492   126019644.900    23980749.336    98197156.342                  
G27  20791609.898   109260638.310    20791613.785    85138219.124                  
G28  24683401.422   129712072.170    24683404.574   101074439.800                  
R14  20758453.563   110654235.975    20758452.883    20758460.547    86064456.731  
R07  23193252.016   124155185.433    23193249.461    23193251.914    96565202.457  
> 2010 01 01 02 00 00.0000000  0 16                     
G09  19680421.898   103421306.556    19680425.953    80588083.291                  
G17  21830090.531   114718300.919    21830094.578    89390595.444    21830094.465  
G18  24133541.078   126822562.438    24133545.844    98822805.027                  
G11  24691454.227   129754495.510    24691456.824   101107380.666                  
R15  19260936.023   102924627.953    19260934.875    19260938.941    80052523.504  
G26  21442348.539   112680266.110    21442352.297    87802844.552                  
G30  25027904.289   131522473.023    25027910.379   102485111.760                  
G22  23533178.680   123667684.593    23533180.766    96364437.468                  
R17  22274663.180   119196170.159    22274661.328    22274664.758    92708197.946  
G15  23616058.477   124103181.892    23616063.121    96703822.185    23616062.891  
G12  22228533.766   116811741.118    22228537.789    91022172.089    22228537.957  
G14  23961996.422   125921119.602    23962000.418    98120383.402                  
G27  20793167.273   109268824.580    20793171.629    85144598.036                  
G28  24702190.109   129810804.562    24702193.000   101151374.104                  
R14  20774961.563   110742235.563    20774961.473    20774967.410    86132900.836  
R07  23176565.648   124065865.588    23176564.383    23176565.488    96495731.432  
> 2010 01 01 02 00 30.0000000  0 16                     
G09  19679710.719   103417568.522    19679714.574    80585170.540                  
G17  21830505.352   114720479.627    21830509.438    89392293.141    21830509.012  
G18  24149248.703   126905107.129    24149253.488    98887125.457                  
G11  24699945.117   129799120.037    24699949.184   101142152.986                  
R15  19256211.133   102899382.804    19256210.453    19256214.859    80032888.391  
G26  21431280.906   112622102.760    21431284.949    87757522.459                  
G30  25005087.734   131402572.851    25005094.141   102391683.160                  
G22  23540395.180   123705606.432    23540397.477    96393986.931                  
R17  22250994.852   119069509.931    22250992.063    22250995.109    92609684.467  
G15  23636934.813   124212888.386    23636939.820    96789307.753    23636939.770  
G12  22211476.234   116722102.766    22211480.234    90952324.060    22211480.395  
G14  23943298.180   125822856.714    23943301.711    98043814.909                  
G27  20794799.445   109277400.674    20794803.820    85151280.702                  
G28  24720995.609   129909629.552    24720999.324   101228380.600                  
R14  20791540.531   110830608.284    20791539.734    20791545.734    86201635.142  
R07  23159986.406   123977118.392    23159983.500                                  
> 2010 01 01 02 01 00.0000000  0 16                     
G09  19679115.672   103414440.600    19679119.496    80582733.193                  
G17  21831035.781   114723267.490    21831039.605    89394465.501    21831039.645  
G18  24165010.836   126987940.351    24165016.438    98951670.749                  
G11  24708536.461   129844261.431    24708538.184   101177328.232                  
R15  19251589.727   102874685.220    19251588.461    19251593.055    80013679.171  
G26  21420327.227   112564541.624    21420330.688    87712669.635                  
G30  24982280.391   131282720.590    24982286.523   102298291.851                  
G22  23547709.844   123744044.130    23547711.172    96423938.362                  
R17  22227387.336   118943181.362    22227385.016    22227387.957    92511428.949  
G15  23657847.414   124322782.825    23657852.094    96874939.778    23657852.195  
G12  22194478.906   116632779.339    22194482.195    90882721.438    22194482.641  
G14  23924649.789   125724859.260    23924653.125    97967453.250                  
G27  20796505.570   109286367.112    20796509.691    85158267.536                  
G28  24739819.102   130008546.332    24739822.613   101305458.644                  
R14  20808188.977   110919352.236    20808187.945    20808195.816    86270658.204  
R07  23143515.383   123888948.314    23143512.711                                  
> 2010 01 01 02 01 30.0000000  0 16                     
G09  19678636.398   103411923.578    19678640.590    80580771.879                  
G17  21831682.008   114726663.999    21831685.594    89397112.127    21831685.363  
G18  24180828.633   127071059.000    24180832.906    99016438.483                  
G11  24717224.023   129889918.320    24717225.848   101212905.040                  
R15  19247070.930   102850536.056    19247070.250    19247074.441    79994896.492  
G26  21409488.750   112507584.959    21409492.973    87668287.812                  
G30  24959482.008   131162917.781    24959489.281   102204939.116                  
G22  23555121.953   123782996.130    23555123.688    96454290.556                  
R17  22203842.125   118817188.352    22203840.391    22203843.586    92413434.428  
G15  23678794.695   124432862.884    23678799.211    96960716.448    23678799.363  
G12  22177540.805   116543772.331    22177544.164    90813365.360    22177544.684  
G14  23906052.266   125627129.453    23906055.551    97891300.156                  
G27  20798285.977   109295724.081    20798290.320    85165558.675                  
G28  24758659.523   130107553.431    24758663.031   101382606.979                  
R14  20824907.063   111008466.435    20824905.797    20824913.203    86339969.249  
R07  23127153.609   123801358.881    23127152.813                                  
> 2010 01 01 02 02 00.0000000  0 16                     
G09  19678273.336   103410016.727    19678277.770    80579286.027                  
G17  21832444.547   114730669.100    21832448.121    89400233.003    21832447.957  
G18  24196699.148   127154459.701    24196703.715    99081425.955                  
G11  24726007.945   129936088.809    24726013.395   101248881.980                  
R15  19242654.531   102826935.840    19242653.031    19242656.973    79976540.780  
G26  21398765.586   112451234.466    21398769.504    87624378.350                  
G30  24936694.586   131043165.558    24936701.051   102111625.745                  
G22  23562631.969   123822460.192    23562633.828    96485041.752                  
R17  22180360.516   118691534.977    22180358.898    22180362.246    92315704.066  
G15  23699777.406   124543126.119    23699781.938    97046635.843    23699781.691  
G12  22160664.188   116455083.475    22160667.773    90744257.189    22160667.828  
G14  23887506.719   125529669.588    23887509.441    97815357.382                  
G27  20800141.148   109305471.324    20800145.270    85173153.925                  
G28  24777517.211   130206649.057    24777520.070   101459824.328                  
R14  20841692.969   111097948.337    20841692.523    20841697.418    86409566.262  
R07  23110900.430   123714353.828    23110897.758                                  
> 2010 01 01 02 02 30.0000000  0 16                     
G09  19678027.031   103408721.322    19678031.141    80578276.626                  
G17  21833322.133   114735282.893    21833325.848    89403828.168    21833325.602  
G18  24212622.703   127238140.147    24212627.102    99146631.465                  
G11  24734894.336   129982771.684    24734897.152   101285258.220                  
R15  19238340.367   102803886.042    19238340.160    19238344.277    79958613.154  
G26  21388158.281   112395492.839    21388162.180    87580943.303                  
G30  24913916.969   130923465.952    24913922.809   102018353.393                  
G22  23570238.820   123862435.115    23570240.793    96516191.017                  
R17  22156942.813   118566225.502    22156941.078    22156944.500    92218241.166  
G15  23720794.492   124653570.459    23720798.551    97132696.370    23720798.184  
G12  22143848.305   116366714.565    22143851.453    90675398.340    22143851.586  
G14  23869012.984   125432482.931    23869015.480    97739627.475                  
G27  20802070.328   109315609.508    20802074.469    85181053.804                  
G28  24796390.125   130305831.821    24796393.469   101537109.574                  
R14  20858548.359   111187797.742    20858548.035    20858553.754    86479449.104  
R07  23094755.992   123627936.738    23094754.141    23094754.457    96155117.2111 
> 2010 01 01 02 04 00.0000000  0 16                     
G09  19677985.938   103408506.601    19677990.242    80578109.310                  
G17  21836650.359   114752774.095    21836654.250    89417457.692    21836654.086  
G18  24260708.930   127490831.368    24260713.527    99343533.550                  
G11  24762124.609   130125878.662                                                  
R15  19226021.484   102738051.848    19226020.219    19226024.020    79907408.781  
G26  21357036.203   112231944.504    21357039.613    87453503.031                  
G30  24845645.953   130564700.499    24845651.801   101738796.118                  
G22  23593639.859   123985408.320    23593641.590    96612014.241                  
R17  22087085.453   118192403.029    22087083.016    22087087.156    91927490.444  
G15  23784047.367   124985965.629    23784051.441    97391705.561    23784051.250  
G12  22093768.523   116103543.714    22093772.277    90470330.226    22093772.281  
G14  23813847.211   125142588.600    23813851.109    97513735.748                  
G27  20808304.664   109348372.185    20808309.059    85206583.155                  
G28  24853108.789   130603889.673    24853112.910   101769362.371                  
R14  20909525.344   111459531.471    20909525.020    20909531.680    86690797.473  
R07  23046993.250   123372251.051    23046991.750    23046990.289    95956250.562  
> 2010 01 01 02 04 30.0000000  0 16                     
G09  19678205.563   103409659.174    19678209.867    80579007.420                  
G17  21837991.344   114759819.651    21837995.105    89422947.728    21837994.977  
G18  24276840.273   127575601.737    24276843.762    99409588.350                  
G11  24771395.664   130174594.687                                                  
R15  19222121.031   102717214.853    19222120.586    19222124.758    79891202.229  
G26  21346896.430   112178660.443    21346900.508    87411982.983                  
G30  24822911.305   130445228.137    24822917.203   101645700.821                  
G22  23601632.445   124027409.652    23601634.340    96644742.524                  
R17  22063933.352   118068510.713    22063931.852    22063935.098    91831129.786  
G15  23805197.250   125097109.920    23805200.871    97478311.494    23805201.094  
G12  22077198.727   116016469.988    22077202.203    90402480.600    22077202.387  
G14  23795566.219   125046520.615    23795570.258    97438877.615                  
G27  20810531.906   109360075.957    20810536.184    85215702.973                  
G28  24872047.688   130703406.759    24872050.180   101846908.107                  
R14  20926653.281   111550832.597    20926652.719    20926659.938    86761809.436  
R07  23031293.461   123288222.447    23031293.016    23031292.496    95890894.974  
> 2010 01 01 02 05 00.0000000  0 16                     
G09  19678541.523   103411424.909    19678545.730    80580383.312                  
G17  21839447.523   114767473.092    21839451.547    89428911.455    21839451.273  
G18  24293022.602   127660637.310    24293025.961    99475849.809                  
G11  24780763.203   130223815.290    24780765.352   101473086.4191                 
R15  19218325.953   102696933.645    19218325.039    19218329.551    79875427.960  
G26  21336874.977   112125996.388    21336878.551    87370946.056                  
G30  24800187.586   130325816.850    24800193.117   101552653.108                  
G22  23609721.109   124069913.603    23609721.938    96677862.490                  
R17  22040848.789   117944983.237    22040847.523    22040850.594    91735052.872  
G15  23826379.398   125208423.470    23826384.090    97565049.305    23826383.578  
G12  22060691.938   115929724.417    22060694.887    90334886.653    22060695.141  
G14  23777339.820   124950739.279    23777343.063    97364242.809                  
G27  20812833.500   109372172.009    20812837.902    85225128.462                  
G28  24890999.266   130803004.114    24891002.867   101924516.433                  
R14  20943848.555   111642492.367    20943848.582    20943854.660    86833100.343  
R07  23015710.398   123204800.928    23015708.664    23015709.242    95826011.589  
> 2010 01 01 02 05 30.0000000  0 16                     
G09  19678994.086   103413803.282    19678998.293    80582236.596                  
G17  21841019.438   114775733.368    21841023.395    89435348.040    21841023.328  
G18  24309253.922   127745935.353    24309257.656    99542315.744                  
G11  24790223.375   130273537.975    24790227.551   101511831.373                  
R15  19214634.336   102677208.862    19214633.539    19214638.227    79860086.455  
G26  21326971.188   112073953.880    21326975.512    87330393.448                  
G30  24777477.141   130206467.782    24777482.160   101459653.892                  
G22  23617903.969   124112917.631    23617905.430    96711372.097                  
R17  22017833.844   117821824.215    22017831.875    22017834.590    91639262.548  
G15  23847593.094   125319903.108    23847598.188    97651916.552    23847597.402  
G12  22044247.117   115843307.908    22044251.055    90267549.153    22044251.109  
G14  23759167.836   124855246.497    23759171.066    97289832.842                  
G27  20815210.359   109384659.829    20815214.348    85234859.224                  
G28  24909967.289   130902679.701    24909970.941   102002185.698                  
R14  20961110.211   111734508.870    20961109.887    20961116.211    86904668.708  
R07  23000239.547   123121990.226    23000238.867    23000239.699    95761603.271  
> 2010 01 01 02 06 00.0000000  0 16                     
G09  19679563.242   103416794.246    19679567.395    80584567.219                  
G17  21842706.617   114784599.757    21842710.395    89442256.928    21842710.141  
G18  24325535.070   127831492.559    24325538.676    99608983.652                  
G11  24799781.461   130323760.589    24799784.379   101550965.880                  
R15  19211047.266   102658040.573    19211046.820    19211051.332    79845177.789  
G26  21317186.805   112022534.789    21317191.141    87290326.628                  
G30  24754777.602   130087182.614    24754782.477   101366704.462                  
G22  23626182.320   124156420.037    23626183.473    96745270.080                  
R17  21994888.266   117699037.209    21994886.648    21994889.773    91543761.556  
G15  23868837.969   125431546.456    23868842.891    97738911.360    23868842.281  
G12  22027865.781   115757221.737    22027869.129    90200469.053    22027869.438  
G14  23741052.242   124760044.450    23741054.266    97215649.409                  
G27  20817660.914   109397539.212    20817665.105    85244895.104                  
G28  24928949.422   131002431.824    24928952.465   102079914.622                  
R14  20978439.594   111826880.810    20978438.328    20978445.145    86976513.528  
R07  22984886.688   123039792.219    22984884.484    22984882.801    95697671.491  
> 2010 01 01 02 06 30.0000000  0 16                     
G09  19680249.172   103420398.081    19680252.871    80587375.403                  
G17  21844508.906   114794072.324    21844513.098    89449638.160    21844512.688  
G18  24341864.836   127917306.065    24341868.348    99675851.248                  
G11  24809433.266   130374482.240    24809437.082   101590489.237                  
R15  19207564.453   102639429.957    19207564.008    19207568.766    79830702.873  
G26  21307520.938   111971741.322    21307524.723    87250747.299                  
G30  24732090.789   129967963.111    24732095.957   101273806.188                  
G22  23634555.031   124200419.163    23634556.180    96779555.123                  
R17  21972012.477   117576626.944    21972011.211    21972013.703    91448553.594  
G15  23890113.367   125543351.139    23890117.961    97826031.882    23890117.832  
G12  22011546.977   115671467.412    22011550.484    90133647.520    22011550.805  
G14  23722991.313   124665136.346    23722993.980    97141694.995                  
G27  20820186.648   109410810.352    20820190.824    85255236.249                  
G28  24947945.063   131102258.893    24947949.418   102157701.945                  
R14  20995834.500   111919607.040    20995833.469    20995840.484    87048633.924  
R07  22969645.836   122958210.679    22969645.039    22969642.934    95634219.144  
> 2010 01 01 02 07 00.0000000  0 16                     
G09  19681051.750   103424615.317    19681055.730    80590661.558                  
G17  21846426.875   114804150.709    21846431.145    89457491.446    21846431.219  
G18  24358243.078   128003373.318    24358247.008    99742916.612                  
G11  24819179.031   130425701.503    24819183.344   101630400.385                  
R15  19204186.570   102621378.966    19204186.125    19204190.652    79816663.219  
G26  21297974.656   111921576.010    21297979.340    87211657.443                  
G30  24709416.469   129848811.418    24709421.559   101180960.759                  
G22  23643021.867   124244913.370    23643023.414    96814225.921                  
R17  21949208.641   117454597.641    21949207.141    21949209.617    91353641.926  
G15  23911419.781   125655315.501    23911424.023    97913276.816    23911423.875  
G12  21995292.039   115586047.144    21995296.043    90067086.298    21995296.160  
G14  23704987.102   124570524.884    23704989.875    97067971.782                  
G27  20822786.414   109424473.890    20822790.801    85265883.159                  
G28  24966955.969   131202160.298    24966959.211   102235547.141                  
R14  21013296.719   112012685.580    21013295.453    21013301.770    87121028.329  
R07  22954521.508   122877250.090    22954520.828    22954519.996    95571249.845  
> 2010 01 01 02 07 30.0000000  0 16                     
G09  19681970.703   103429446.017    19681974.914    80594425.742                  
G17  21848460.352   114814834.494    21848463.859    89465816.481    21848463.523  
G18  24374668.594   128089691.034    24374673.176    99810177.106                  
G11  24829021.539   130477415.783    24829024.461   101670697.134                  
R15  19200913.383   102603886.868    19200912.586    19200917.363    79803058.255  
G26  21288548.609   111872040.212    21288552.688    87173058.123                  
G30  24686755.563   129729728.459    24686761.113   101088168.881                  
G22  23651582.563   124289900.212    23651584.055    96849280.587                  
R17  21926477.102   117332952.970    21926475.133    21926477.906    91259029.426  
G15  23932755.758   125767436.383    23932759.797    98000643.736    23932759.551  
G12  21979100.594   115500961.758    21979104.422    90000786.023    21979104.273  
G14  23687040.508   124476212.281    23687043.324    96994481.412                  
G27  20825461.383   109438529.509    20825465.250    85276835.596                  
G28  24985980.766   131302133.771    24985983.813   102313448.511                  
R14  21030823.016   112106114.103    21030822.809    21030829.809    87193694.936  
R07  22939515.055   122796913.843    22939513.086    22939513.613    95508766.081  
> 2010 01 01 02 08 00.0000000  0 16                     
G09  19683006.898   103434890.288    19683011.125    80598668.028                  
G17  21850608.039   114826123.029    21850612.000    89474612.750    21850611.914  
G18  24391141.031   128176256.296    24391145.398    99877630.450                  
G11  24838956.258   130529623.581    24838959.484   101711378.437                  
R15  19197745.539   102586955.555    19197743.922    19197748.902    79789889.456  
G26  21279242.461   111823136.089    21279246.246    87134951.015                  
G30  24664108.055   129610715.973    24664113.328   100995431.904                  
G22  23660236.766   124335378.249    23660238.871    96884717.999                  
R17  21903816.891   117211697.143    21903815.508    21903818.234    91164719.360  
G15  23954120.797   125879711.456    23954125.121    98088130.793    23954124.496  
G12  21962973.758   115416213.130    21962977.957    89934748.164    21962977.922  
G14  23669150.531   124382201.226    23669153.930    96921226.054                  
G27  20828210.547   109452977.455    20828214.320    85288093.728                  
G28  25005017.789   131402178.285    25005021.891   102391405.243                  
R14  21048415.031   112199891.497    21048414.824    21048421.980    87266632.895  
R07  22924624.055   122717205.483    22924622.555    22924624.090    95446770.668  
> 2010 01 01 02 08 30.0000000  0 16                     
G09  19684159.586   103440948.928    19684163.500    80603389.046                  
G17  21852871.297   114838016.564    21852875.023    89483880.446    21852875.164  
G18  24407660.906   128263066.973    24407664.867    99945275.083                  
G11  24848983.180   130582323.717    24848987.816   101752443.616                  
R15  19194681.664   102570586.498    19194680.398    19194685.516    79777157.973  
G26  21270056.664   111774866.444    21270061.188    87097338.298                  
G30  24641474.750   129491776.473    24641479.973   100902751.801                  
G22  23668984.492   124381346.073    23668985.633    96920537.070                  
R17  21881231.195   117090835.099    21881229.813    21881232.750    91070715.546  
G15  23975514.977   125992138.893    23975519.531    98175736.567    23975518.922  
G12  21946911.281   115331803.340    21946915.195    89868974.329    21946915.418  
G14  23651319.359   124288495.088    23651322.457    96848208.269                  
G27  20831034.820   109467818.553    20831039.020    85299658.220                  
G28  25024069.570   131502292.983    25024073.188   102469416.730                  
R14  21066072.961   112294016.965    21066072.516    21066078.832    87339841.569  
R07  22909852.813   122638129.003    22909848.848    22909850.109    95385266.807  
> 2010 01 01 02 09 00.0000000  0 16                     
G09  19685429.531   103447621.409    19685434.102    80608588.374                  
G17  21855249.609   114850513.910    21855253.535    89493618.637    21855253.211  
G18  24424226.586   128350119.512    24424231.320   100013108.188                  
G11  24859106.680   130635514.050    24859108.938   101793890.635                  
R15  19191723.250   102554779.774    19191722.336    19191727.625    79764863.860  
G26  21260992.164   111727232.593    21260996.320    87060221.008                  
G30  24618855.531   129372910.940    24618860.328   100810129.357                  
G22  23677824.586   124427801.356    23677826.516    96956735.990                  
R17  21858720.180   116970370.012    21858718.328    21858721.051    90977020.502  
G15  23996937.570   126104715.760    23996940.855    98263458.835    23996941.285  
G12  21930912.813   115247733.583    21930916.848    89803465.457    21930916.855  
G14  23633545.586   124195096.172    23633549.023    96775429.898                  
G27  20833933.633   109483052.347    20833937.602    85311528.706                  
G28  25043133.602   131602475.733    25043136.762   102547481.226                  
R14  21083795.539   112388488.428    21083794.508    21083801.195    87413319.340  
R07  22895197.234   122559685.988    22895196.672    22895196.805    95324255.594  
