     3.04           OBSERVATION DATA    M: Mixed            RINEX VERSION / TYPE
CONVBIN 2.4.3                           20220228 163919 UTC PGM / RUN BY / DATE 
format: RINEX                                               COMMENT             
log: OPEC00NOR_S_20220010000_01D_30S_MO.rnx                 COMMENT             
                                                            MARKER NAME         
                                                            MARKER NUMBER       
                                                            MARKER TYPE         
                                                            OBSERVER / AGENCY   
5423R48819          TRIMBLE_NETR9                           REC # / TYPE / VERS 
31050604            TRM55971.00                             ANT # / TYPE        
  3149785.9652   598260.8822  5495348.4927                  APPROX POSITION XYZ 
        0.0000        0.0000        0.0000                  ANTENNA: DELTA H/E/N
G    9 C1C L1C C1P C2W L2W C2X L2X C5X L5X                  SYS / # / OBS TYPES 
R    8 C1C L1C C1P L1P C2P L2P C2C L2C                      SYS / # / OBS TYPES 
E    8 C1X L1X C7X L7X C5X L5X C8X L8X                      SYS / # / OBS TYPES 
C    6 C2X L2X C7X L7X C6X L6X                              SYS / # / OBS TYPES 
    30.000                                                  INTERVAL            
  2022    01    01    00    00   00.0000000     GPS         TIME OF FIRST OBS   
  2022    01    01    03    39   30.0000000     GPS         TIME OF LAST OBS    
G L1C                                                       SYS / PHASE SHIFT   
G L2W  0.00000                                              SYS / PHASE SHIFT   
G L2X  0.00000                                              SYS / PHASE SHIFT   
G L5X  0.00000                                              SYS / PHASE SHIFT   
R L1C                                                       SYS / PHASE SHIFT   
R L1P  0.00000                                              SYS / PHASE SHIFT   
R L2P  0.00000                                              SYS / PHASE SHIFT   
R L2C                                                       SYS / PHASE SHIFT   
E L1X  0.00000                                              SYS / PHASE SHIFT   
E L7X  0.00000                                              SYS / PHASE SHIFT   
E L5X  0.00000                                              SYS / PHASE SHIFT   
E L8X  0.00000                                              SYS / PHASE SHIFT   
C L2X  0.00000                                              SYS / PHASE SHIFT   
C L7X  0.00000                                              SYS / PHASE SHIFT   
C L6X  0.00000                                              SYS / PHASE SHIFT   
 22 R01  1 R02 -4 R03  5 R04  6 R05  1 R06 -4 R07  5 R08  6 GLONASS SLOT / FRQ #
    R09 -2 R10 -7 R12 -1 R13 -2 R14 -7 R15  0 R17  4 R18 -3 GLONASS SLOT / FRQ #
    R19  3 R20  2 R21  4 R22 -3 R23  3 R24  2               GLONASS SLOT / FRQ #
 C1C    0.000 C1P    0.000 C2C    0.000 C2P    0.000        GLONASS COD/PHS/BIS 
                                                            END OF HEADER       
> 2022 01 01 00 00 00.0000000  0 36                     
G30  24850337.312   130589459.8671   24850337.062    24850341.199   101757987.7611   24850341.801   101758020.7761   24850342.277    97518081.7921 
G15  24244230.836   127404311.1161   24244231.180    24244237.500    99276084.2941   24244237.262    99276087.2871                                 
G16  24640172.305   129484964.0771   24640171.909    24640174.738   100897389.4991                                                                 
G18  24995479.672   131352148.9201   24995479.906    24995481.121   102352340.1241   24995481.633   102352347.1311   24995485.656    98087682.2641 
G01  24615547.102   129355653.6451   24615547.534    24615553.594   100796591.3381   24615552.273   100796604.3511   24615551.715    96596728.0391 
G08  20574870.977   108121927.6451   20574870.830    20574876.492    84250693.4411   20574876.852    84250690.4401   20574874.957    80740240.0191 
G27  20715259.391   108859430.8141   20715259.396    20715264.289    84825560.2321   20715264.285    84825569.2291   20715263.742    81291166.0711 
G14  25008534.461   131420858.8131   25008534.623    25008537.898   102405771.9261   25008537.965   102405834.9001   25008540.293    98138895.5171 
G21  22381743.094   117616971.6101   22381742.514    22381744.508    91649528.3941                                                                 
G10  21049835.430   110617785.4781   21049835.534    21049840.746    86195593.0311   21049840.113    86195602.0401   21049838.176    82604179.4101 
G23  22013804.242   115683596.2931   22013804.467    22013807.719    90142876.5021   22013807.547    90142900.5101   22013811.043    86386952.1301 
R08  20334031.641   108887840.6931   20334031.484   108887825.7081   20334034.070    84690592.8711   20334034.074    84690551.8661 
R15  21356070.266   114120379.9881   21356069.719   114120464.9901   21356071.918    88760295.2641   21356072.141    88760307.2531 
R24  19398316.258   103732283.0711   19398315.730   103731793.0791   19398318.293    80680094.5641   19398318.641    80680116.5661 
R07  21774485.234   116560588.3541   21774484.125   116560553.3441   21774486.812    90658224.0721   21774488.738    90658101.0781 
R17  22684915.992   121391626.4861   22684916.055   121391573.4901   22684919.242    94415684.1321   22684918.680    94415683.1361 
R01  22031667.492   117771887.3871   22031666.785   117772002.3711   22031672.574    91600385.8821   22031672.656    91600375.8711 
R14  22418158.539   119501424.2541   22418157.211   119501534.2541   22418162.793    92945551.1011   22418163.883    92945536.1011 
R23  19913268.094   106522579.1171   19913266.598   106522587.1351                                                                 
E31  25402151.781   133489212.3141   25402154.012   102283952.8851   25402154.879    99683519.9641   25402154.633   100983736.5191 
E03  27661288.297   145361043.5191   27661293.359   111380547.9491   27661293.883   108548842.4361   27661290.387   109964696.7931 
E26  23449303.094   123226940.0611   23449303.254    94420653.2191   23449303.613    92020131.2091   23449304.043    93220394.3231 
E01  26507961.688   139300271.1581   26507963.867   106736573.7651   26507964.535   104022933.1581   26507964.699   105379756.0681 
E08  23928519.641   125745238.2461   23928520.348    96350258.8821   23928520.594    93900681.1031   23928520.430    95125471.0941 
E14  18096133.547    95095836.1401   18096134.086    72865644.9781   18096134.375    71013132.3351   18096134.484    71939391.2561 
E13  25656439.461   134825513.6831   25656441.043   103307878.4211   25656440.992   100681410.9171   25656441.832   101994643.2711 
E33  25352821.484   133229976.2581   25352821.488   102085314.6001   25352822.379    99489928.8391   25352822.590   100787625.3201 
C26  25436954.305   132456903.9951                                   25436945.812   107632059.2681 
C13  40178819.227   209221668.9141   40178819.383   161783471.9251   40178810.777   170009721.3021 
C06  40034735.797   208471382.5331   40034728.117   161203267.2581   40034722.254   169400019.2821 
C16  40013330.930   208359916.4821   40013328.734   161117127.4811   40013319.430   169309562.7691 
C27  23716005.891   123495486.6401                                   23715997.668   100350171.1881 
C05  40190280.008   209281302.6941   40190273.914   161829575.9551   40190270.098   170058179.9871 
C29  23749493.875   123669855.0821                                   23749484.316   100491849.2581 
C30  21456615.586   111730246.7801                                   21456608.445    90789961.5791 
C09  41180511.797   214437729.8641   41180506.938   165816841.5831   41180499.605   174248174.1741 
> 2022 01 01 00 00 30.0000000  0 36                     
G30  24859793.555   130639156.822    24859793.305    24859798.281   101796712.665    24859799.000   101796745.643    24859799.090    97555193.140  
G15  24257716.672   127475171.858    24257717.016    24257718.488    99331300.612                                                                  
G16  24662584.305   129602741.995    24662583.909    24662587.027   100989164.521                                                                  
G18  25016195.320   131461015.901    25016195.554    25016197.992   102437171.500    25016198.895   102437178.565    25016202.457    98168979.021  
G01  24593524.070   129239926.161    24593524.503    24593531.090   100706414.042    24593530.285   100706427.065    24593529.375    96510308.130  
G08  20571617.773   108104832.625    20571617.627    20571623.496    84237372.656    20571623.926    84237369.655    20571621.660    80727474.268  
G27  20725630.438   108913930.289    20725630.443    20725635.227    84868027.362    20725635.027    84868036.351    20725634.754    81331863.729  
G14  24990320.094   131325141.384    24990320.255    24990323.098   102331186.969    24990323.180   102331249.976    24990326.121    98067418.280  
G21  22367945.930   117544467.493    22367945.350    22367947.887    91593031.690                                                                  
G10  21049023.078   110613515.026    21049023.182    21049028.121    86192265.412    21049027.668    86192274.407    21049025.469    82600990.436  
G23  22026602.844   115750852.718    22026603.068    22026606.148    90195284.098    22026606.086    90195308.110    22026609.906    86437176.092  
R08  20328019.391   108855639.947    20328018.965   108855624.956    20328020.508    84665547.856    20328020.430    84665506.858  
R15  21357515.922   114128108.404    21357516.316   114128193.393    21357517.738    88766306.251    21357518.340    88766318.263  
R24  19391368.891   103695133.071    19391368.434   103694643.081    19391370.996    80651200.114    19391371.336    80651222.124  
R07  21790023.742   116643771.198    21790023.328   116643736.208    21790026.973    90722921.856    21790027.504    90722798.856  
R17  22663448.977   121276743.365    22663446.945   121276690.393    22663450.277    94326330.598    22663449.598    94326329.600  
R01  22008456.938   117647814.160    22008456.148   117647929.167    22008462.082    91503884.525    22008460.789    91503874.547  
R14  22438906.523   119612007.798    22438903.719   119612117.793    22438907.844    93031560.478    22438907.816    93031545.502  
R23  19924966.008   106585155.656    19924965.008   106585163.666                                                                  
E31  25404286.234   133500428.063    25404288.137   102292546.753    25404289.062    99691895.355    25404288.859   100992221.164  
E03  27672427.203   145419589.987    27672420.867   111425408.166    27672422.930   108592562.200    27672421.152   110008986.268  
E26  23449536.828   123228167.040    23449536.727    94421593.362    23449537.055    92021047.458    23449537.539    93221322.517  
E01  26524502.273   139387191.061    26524504.277   106803174.706    26524504.934   104087840.863    26524505.047   105445510.391  
E08  23924840.672   125725907.970    23924842.016    96335447.374    23924842.312    93886246.149    23924842.012    95110847.866  
E14  18108296.000    95159749.636    18108296.344    72914617.641    18108296.801    71060859.927    18108296.816    71987741.386  
E13  25670583.195   134899845.112    25670585.273   103364833.643    25670587.090   100736918.130    25670586.559   102050874.491  
E33  25339869.289   133161909.811    25339869.105   102033159.793    25339869.617    99439100.012    25339869.902   100736133.502  
C26  25430624.211   132423941.255                                    25430615.965   107605274.345  
C13  40185739.289   209257702.520    40185739.199   161811335.387    40185730.859   170039001.560  
C06  40023765.938   208414263.402    40023758.992   161159099.105    40023753.547   169353605.305  
C16  40003390.109   208308159.310    40003388.449   161077105.547    40003380.273   169267505.826  
C27  23732147.273   123579538.224                                    23732138.750   100418469.958  
C05  40190271.812   209281263.157    40190267.051   161829545.380    40190262.434   170058147.853  
C29  23733883.242   123588566.607                                    23733873.824   100425795.718  
C30  21457571.406   111735224.973                                    21457564.383    90794006.767  
C09  41168844.016   214376975.373    41168839.883   165769862.392    41168832.301   174198806.198  
> 2022 01 01 00 01 00.0000000  0 36                     
G30  24869339.250   130689315.830    24869339.000    24869343.703   101835797.578    24869344.258   101835830.589    24869344.469    97592649.536  
G15  24271294.273   127546527.501    24271294.617    24271300.617    99386902.188    24271301.629    99386958.135                                  
G16  24685010.555   129720592.292    24685010.159    24685014.590   101080995.897                                                                  
G18  25036918.484   131569922.083    25036918.718    25036923.105   102522033.433    25036923.230   102522040.453    25036926.496    98250305.041  
G01  24571517.500   129124275.943    24571517.932    24571523.656   100616297.020    24571523.266   100616310.026    24571521.840    96423946.002  
G08  20568466.484   108088271.062    20568466.338    20568471.820    84224467.549    20568472.418    84224464.548    20568470.168    80715106.869  
G27  20736094.383   108968919.641    20736094.389    20736099.301    84910876.196    20736099.199    84910885.200    20736098.676    81372927.194  
G14  24972161.695   131229713.208    24972161.857    24972163.707   102256827.402    24972163.750   102256890.452    24972167.348    97996157.049  
G21  22354199.219   117472229.398    22354198.639    22354201.395    91536742.273                                                                  
G10  21048319.914   110609821.250    21048320.018    21048325.312    86189387.156    21048324.750    86189396.151    21048322.680    82598232.112  
G23  22039489.102   115818568.258    22039489.326    22039491.934    90248049.474    22039492.090    90248073.473    22039495.523    86487742.890  
R08  20322159.594   108824261.944    20322159.012   108824246.959    20322161.211    84641142.740    20322160.516    84641101.743  
R15  21359120.820   114136679.233    21359120.180   114136764.229    21359121.934    88772972.441    21359121.891    88772984.448  
R24  19384518.773   103658505.179    19384519.129   103658015.193    19384521.363    80622711.758    19384520.945    80622733.759  
R07  21805681.656   116727580.332    21805680.449   116727545.344    21805682.664    90788106.757    21805684.125    90787983.763  
R17  22642002.648   121161981.979    22642001.406   121161928.992    22642004.371    94237071.729    22642003.539    94237070.733  
R01  21985313.180   117524099.745    21985312.824   117524214.739    21985318.777    91407662.242    21985317.828    91407652.243  
R14  22459729.141   119723008.227    22459727.781   119723118.251    22459731.766    93117894.120    22459731.051    93117879.129  
R23  19936751.477   106648201.537    19936750.605   106648209.549                                                                  
E31  25406508.258   133512105.944    25406510.523   102301494.752    25406511.426    99700615.849    25406511.113   101001055.401  
E03  27683634.203   145478475.174    27683639.398   111470528.008    27683638.977   108636534.920    27683636.672   110053533.054  
E26  23449826.109   123229688.707    23449826.406    94422759.317    23449826.723    92022183.764    23449827.109    93222473.638  
E01  26541081.266   139474316.423    26541083.785   106869933.083    26541084.441   104152901.989    26541084.395   105511420.143  
E08  23921248.344   125707028.449    23921249.289    96320981.251    23921249.426    93872147.813    23921249.352    95096565.633  
E14  18120738.656    95225136.804    18120738.984    72964719.490    18120739.582    71109687.999    18120739.586    72037206.348  
E13  25684754.047   134974309.783    25684756.094   103421890.990    25684756.023   100792524.840    25684756.738   102107206.515  
E33  25326949.375   133094014.940    25326948.938   101981136.434    25326949.402    99388399.287    25326949.918   100684771.467  
C26  25424387.453   132391464.237                                    25424379.344   107578884.145  
C13  40192659.148   209293733.063    40192658.652   161839196.471    40192650.172   170068279.317  
C06  40012813.742   208357236.614    40012808.102   161115002.394    40012802.027   169307266.379  
C16  39993473.242   208256516.166    39993471.035   161037171.806    39993463.086   169225541.570  
C27  23748328.203   123663795.098                                    23748319.301   100486935.549  
C05  40190265.617   209281227.563    40190259.852   161829517.856    40190255.605   170058118.934  
C29  23718310.227   123507473.388                                    23718300.328   100359900.837  
C30  21458605.047   111740607.151                                    21458598.070    90798380.221  
C09  41157186.180   214316268.256    41157182.758   165722919.825    41157174.375   174149476.702  
> 2022 01 01 00 01 30.0000000  0 37                     
G30  24878970.500   130739935.474    24878970.250    24878976.074   101875241.460    24878976.754   101875274.475    24878976.883    97630449.904  
G15  24284965.000   127618375.893    24284965.344    24284972.555    99442888.146                                                                  
G16  24707449.484   129838512.092    24707449.088    24707453.473   101172881.420                                                                  
G18  25057650.406   131678866.866    25057650.640    25057654.641   102606925.468    25057654.422   102606932.416    25057657.828    98331659.847  
G32  25221008.453   132537290.456    25221008.683    25221013.812   103275833.175    25221013.875   103275829.166    25221013.762    98972670.296  
G01  24549523.883   129008705.103    24549524.315    24549531.090   100526241.840    24549531.309   100526254.844    24549529.594    96337643.131  
G08  20565416.516   108072244.315    20565416.369    20565422.121    84211979.165    20565422.750    84211976.171    20565420.594    80703138.832  
G27  20746652.141   109024398.375    20746652.146    20746656.355    84954106.367    20746656.355    84954115.363    20746655.969    81414356.105  
G14  24954058.828   131134577.764    24954058.990    24954060.746   102182695.961    24954060.309   102182758.976    24954064.422    97925114.376  
G21  22340503.648   117400258.752    22340503.068    22340505.895    91480661.266                                                                  
G10  21047727.031   110606704.716    21047727.136    21047732.121    86186958.694    21047731.625    86186967.696    21047729.684    82595904.844  
G23  22052462.305   115886741.340    22052462.529    22052464.867    90301171.345    22052464.852    90301195.344    22052468.719    86538651.359  
R08  20316454.461   108793708.901    20316453.648   108793693.902    20316455.676    84617379.275    20316455.320    84617338.277  
R15  21360881.555   114146092.769    21360881.914   114146177.785    21360883.398    88780294.095    21360884.430    88780306.093  
R24  19377767.875   103622402.092    19377767.609   103621912.101    19377770.078    80594631.575    19377769.863    80594653.572  
R07  21821454.836   116812013.436    21821454.277   116811978.448    21821456.785    90853776.931    21821457.551    90853653.924  
R17  22620579.742   121047344.872    22620578.871   121047291.879    22620581.801    94147909.548    22620581.348    94147908.557  
R01  21962238.484   117400748.589    21962237.699   117400863.617    21962243.441    91311722.487    21962242.590    91311712.501  
R14  22480628.102   119834422.089    22480627.387   119834532.101    22480632.852    93204549.305    22480632.820    93204534.345  
R23  19948625.102   106711716.142    19948624.281   106711724.146                                                                  
E31  25408818.383   133524246.390    25408821.102   102310797.170    25408821.512    99709681.761    25408821.371   101010239.568  
E03  27694905.383   145537698.389    27694906.137   111515906.735    27694904.887   108680759.986    27694906.039   110098334.959  
E26  23450172.164   123231505.681    23450171.855    94424151.535    23450172.516    92023540.586    23450172.855    93223848.166  
E01  26557699.742   139561646.138    26557701.953   106936848.000    26557702.863   104218115.688    26557702.672   105577484.455  
E08  23917741.461   125688600.857    23917742.242    96306861.413    23917742.191    93858386.960    23917742.652    95082625.289  
E14  18133461.070    95291993.787    18133461.660    73015947.530    18133462.316    71159613.634    18133462.062    72087783.187  
E13  25698950.891   135048907.777    25698950.801   103479050.465    25698952.211   100848231.130    25698952.203   102163639.405  
E33  25314061.797   133026292.913    25314061.844   101929245.537    25314062.363    99337827.633    25314062.879   100633540.189  
C26  25418244.508   132359474.673                                    25418236.293   107552890.011  
C13  40199577.820   209329761.023    40199577.410   161867055.565    40199568.852   170097554.981  
C06  40001880.750   208300303.351    40001874.172   161070977.969    40001868.918   169261003.452  
C16  39983576.500   208204988.266    39983576.570   160997327.182    39983567.371   169183670.934  
C27  23764547.969   123748256.909                                    23764539.398   100555567.665  
C05  40190259.141   209281196.605    40190253.770   161829493.917    40190249.676   170058093.778  
C29  23702775.039   123426577.406                                    23702765.305   100294166.235  
C30  21459716.266   111746394.140                                    21459709.391    90803082.623  
C09  41145537.531   214255609.872    41145533.469   165676014.946    41145525.410   174100186.814  
> 2022 01 01 00 02 00.0000000  0 37                     
G30  24888691.352   130791013.168    24888691.101    24888695.758   101915042.252    24888696.156   101915075.260    24888696.598    97668592.325  
G15  24298732.266   127690714.431    24298732.609    24298737.500    99499255.695    24298735.789    99499250.655                                  
G16  24729902.023   129956499.004    24729901.628    24729904.656   101264819.215                                                                  
G18  25078389.859   131787848.439    25078390.093    25078392.883   102691846.093    25078392.945   102691853.085    25078396.121    98413042.136  
G32  25201099.891   132432672.167    25201100.121    25201105.887   103194312.465    25201106.234   103194308.465    25201105.148    98894546.272  
G01  24527547.141   128893214.493    24527547.573    24527554.391   100436249.175    24527553.039   100436262.192    24527552.656    96251400.183  
G08  20562468.641   108056752.703    20562468.494    20562474.156    84199907.787    20562474.488    84199904.794    20562472.543    80691570.437  
G27  20757301.945   109080364.691    20757301.951    20757306.398    84997716.464    20757306.406    84997725.455    20757306.246    81456149.104  
G14  24936009.695   131039737.062    24936009.857    24936012.613   102108794.158    24936012.586   102108857.162    24936017.055    97854291.838  
G21  22326859.938   117328555.908    22326859.357    22326861.523    91424788.926                                                                  
G10  21047243.648   110604164.626    21047243.753    21047248.848    86184979.403    21047248.254    86184988.407    21047246.250    82594008.020  
G23  22065521.805   115955369.175    22065522.029    22065524.375    90354647.587    22065524.195    90354671.587    22065528.156    86589899.423  
R08  20310902.680   108763980.921    20310903.027   108763965.937    20310903.797    84594257.508    20310903.836    84594216.519  
R15  21362801.227   114156347.891    21362800.770   114156432.872    21362802.684    88788270.277    21362802.684    88788282.282  
R24  19371115.094   103586824.004    19371114.402   103586334.019    19371116.754    80566959.729    19371116.547    80566981.732  
R07  21837342.617   116897065.825    21837342.688   116897030.822    21837345.328    90919928.768    21837345.438    90919805.737  
R17  22599180.570   120932832.826    22599179.312   120932779.843    22599182.281    94058844.655    22599182.297    94058843.654  
R01  21939230.414   117277764.520    21939230.305   117277879.533    21939236.652    91216068.236    21939235.902    91216058.238  
R14  22501606.078   119946244.157    22501604.762   119946354.174    22501609.953    93291521.981    22501611.270    93291507.018  
R23  19960585.062   106775697.521    19960584.625   106775705.533                                                                  
E31  25411216.570   133536848.611    25411219.086   102320453.411    25411219.598    99719092.516    25411219.461   101019773.066  
E03  27706236.734   145597257.519    27706239.938   111561543.006    27706240.113   108725235.974    27706240.000   110143391.080  
E26  23450573.930   123233617.302    23450573.609    94425769.536    23450574.520    92025117.459    23450574.688    93225445.596  
E01  26574356.938   139649177.796    26574358.113   107003917.691    26574359.770   104283480.203    26574359.500   105643701.557  
E08  23914320.711   125670625.216    23914321.164    96293087.869    23914321.227    93844963.596    23914322.031    95069026.835  
E14  18146462.188    95360315.529    18146462.789    73068297.955    18146463.613    71210633.117    18146463.227    72139468.139  
E13  25713170.789   135123637.824    25713171.965   103536311.134    25713172.828   100904036.005    25713172.891   102220172.175  
E33  25301207.586   132958743.791    25301207.676   101877487.142    25301208.738    99287385.128    25301208.711   100582439.733  
C26  25412195.703   132327972.989                                    25412187.094   107527292.340  
C13  40206496.359   209365785.630    40206495.430   161894912.062    40206487.090   170126827.909  
C06  39990965.312   208243463.573    39990958.684   161027025.871    39990953.148   169214816.476  
C16  39973704.297   208153575.439    39973703.453   160957571.557    39973694.180   169141893.810  
C27  23780806.984   123832922.068                                    23780798.492   100624365.038  
C05  40190254.656   209281169.743    40190248.414   161829473.145    40190244.438   170058071.943  
C29  23687277.695   123345879.487                                    23687268.172   100228592.566  
C30  21460905.516   111752585.610                                    21460898.387    90808113.693  
C09  41133898.859   214194999.995    41133894.078   165629147.559    41133886.098   174050936.333  
> 2022 01 01 00 02 30.0000000  0 37                     
G30  24898497.477   130842546.732    24898497.226    24898503.090   101955198.223    24898503.109   101955231.260    24898502.996    97707075.145  
G15  24312591.930   127763540.196    24312592.273    24312595.223    99556003.075    24312595.496    99555998.055                                  
G16  24752368.289   130074550.745    24752367.893    24752369.887   101356807.574                                                                  
G18  25099135.180   131896865.502    25099135.413    25099138.258   102776794.386    25099138.391   102776801.402    25099141.434    98494450.922  
G32  25181200.414   132328098.920    25181200.644    25181206.043   103112826.871    25181206.184   103112822.877    25181205.465    98816455.908  
G01  24505585.664   128777805.795    24505586.097    24505592.750   100346320.383    24505592.840   100346333.375    24505590.664    96165218.412  
G08  20559622.469   108041797.118    20559622.322    20559628.258    84188254.077    20559628.367    84188251.084    20559626.434    80680402.300  
G27  20768044.297   109136817.430    20768044.303    20768048.938    85041705.597    20768049.059    85041714.593    20768048.898    81498305.353  
G14  24918019.086   130945194.009    24918019.248    24918021.082   102035124.213    24918021.070   102035187.191    24918025.320    97783691.486  
G21  22313266.234   117257121.956    22313265.654    22313268.066    91369126.109                                                                  
G10  21046869.992   110602200.820    21046870.097    21046875.344    86183449.161    21046874.723    86183458.171    21046872.543    82592541.537  
G23  22078667.070   116024449.527    22078667.295    22078669.965    90408476.435    22078669.773    90408500.441    22078673.559    86641485.402  
R08  20305506.680   108735080.378    20305505.637   108735065.379    20305506.605    84571779.304    20305507.547    84571738.314  
R15  21364877.648   114167443.903    21364877.125   114167528.906    21364879.746    88796900.513    21364879.340    88796912.512  
R24  19364559.414   103551772.023    19364559.211   103551282.039    19364561.738    80539697.081    19364562.121    80539719.090  
R07  21853346.250   116982733.884    21853346.461   116982698.895    21853349.801    90986559.457    21853349.453    90986436.447  
R17  22577805.141   120818447.816    22577803.559   120818394.825    22577806.371    93969878.525    22577806.590    93969877.527  
R01  21916292.922   117155151.625    21916293.285   117155266.625    21916299.512    91120702.701    21916298.750    91120692.694  
R14  22522658.656   120058470.232    22522659.191   120058580.211    22522663.703    93378808.839    22522664.102    93378793.849  
R23  19972632.844   106840144.470    19972631.723   106840152.474                                                                  
E31  25413702.734   133549912.374    25413704.969   102330463.291    25413705.863    99728847.916    25413705.398   101029655.715  
E03  27717636.352   145657151.038    27717636.270   111607435.419    27717635.691   108769961.651    27717636.969   110188700.129  
E26  23451031.539   123236023.544    23451031.656    94427613.276    23451032.320    92026914.319    23451032.578    93227265.906  
E01  26591051.461   139736909.533    26591052.910   107071140.712    26591054.566   104348994.132    26591054.453   105710070.029  
E08  23910986.375   125653101.922    23910986.156    96279660.944    23910987.359    93831878.022    23910987.488    95055770.585  
E14  18159741.102    95430097.249    18159741.645    73121767.041    18159742.633    71262742.818    18159742.270    72192257.536  
E13  25727415.031   135198499.262    25727417.582   103593672.480    25727418.570   100959939.025    25727418.465   102276804.357  
E33  25288386.609   132891368.240    25288386.184   101825861.706    25288387.352    99237072.223    25288387.477   100531470.574  
C26  25406240.188   132296960.201                                    25406231.461   107502091.928  
C13  40213413.367   209401806.829    40213412.703   161922765.940    40213404.820   170156098.088  
C06  39980068.766   208186717.772    39980061.879   160983146.456    39980056.008   169168705.881  
C16  39963853.102   208102278.245    39963851.902   160917905.275    39963843.164   169100210.610  
C27  23797105.312   123917789.597                                    23797096.414   100693326.829  
C05  40190250.297   209281146.997    40190244.008   161829455.558    40190240.184   170058053.461  
C29  23671818.766   123265380.957                                    23671809.488   100163180.919  
C30  21462172.117   111759181.705                                    21462165.102    90813473.562  
C09  41122268.633   214134439.273    41122264.113   165582318.166    41122256.008   174001725.795  
> 2022 01 01 00 03 00.0000000  0 37                     
G30  24908390.195   130894534.111    24908389.945    24908395.969   101995707.911    24908396.500   101995740.911    24908395.902    97745896.897  
G15  24326542.422   127836850.951    24326542.766    24326543.910    99613128.316                                                                  
G16  24774843.695   130192664.252    24774843.299    24774846.570   101448844.039                                                                  
G18  25119886.867   132005916.825    25119887.101    25119890.234   102861769.425    25119890.266   102861776.424    25119893.195    98575885.321  
G32  25161309.180   132223573.514    25161309.410    25161315.590   103031378.504    25161315.828   103031374.508    25161315.082    98738401.216  
G01  24483639.164   128662480.164    24483639.597    24483646.891   100256456.273    24483646.309   100256469.245    24483645.191    96079098.643  
G08  20556878.586   108027378.317    20556878.440    20556884.496    84177018.657    20556884.801    84177015.656    20556882.723    80669635.014  
G27  20778879.320   109193755.275    20778879.326    20778883.887    85086072.712    20778884.094    85086081.715    20778883.777    81540823.836  
G14  24900084.055   130850951.227    24900084.216    24900087.262   101961688.213    24900087.238   101961751.217    24900091.062    97713315.353  
G21  22299723.539   117185957.609    22299722.959    22299726.465    91313673.387                                                                  
G10  21046605.461   110600813.034    21046605.565    21046611.121    86182367.774    21046610.734    86182376.783    21046608.453    82591505.209  
G23  22091898.172   116093980.174    22091898.396    22091901.000    90462656.154    22091901.297    90462680.158    22091904.754    86693407.618  
R08  20300264.984   108707007.257    20300263.152   108706992.273    20300263.512    84549944.653    20300264.707    84549903.648  
R15  21367111.109   114179380.370    21367110.766   114179465.380    21367113.730    88806184.454    21367112.352    88806196.466  
R24  19358103.258   103517247.668    19358103.094   103516757.685    19358105.645    80512844.801    19358105.840    80512866.812  
R07  21869463.633   117069014.095    21869463.234   117068979.107    21869466.469    91053666.283    21869467.188    91053543.297  
R17  22556453.414   120704191.696    22556452.086   120704138.685    22556455.250    93881012.657    22556455.082    93881011.640  
R01  21893427.227   117032913.937    21893426.359   117033028.944    21893432.480    91025628.967    21893431.539    91025618.956  
R14  22543789.781   120171095.969    22543787.031   120171205.938    22543792.398    93466406.580    22543792.734    93466391.590  
R23  19984767.180   106905055.736    19984766.285   106905063.748                                                                  
E31  25416276.500   133563437.416    25416278.902   102340826.641    25416279.422    99738947.780    25416279.141   101039887.312  
E03  27729095.117   145717377.505    27729098.734   111653582.892    27729097.996   108814935.858    27729097.789   110234260.984  
E26  23451545.328   123238724.334    23451545.461    94429682.719    23451546.203    92028931.147    23451546.523    93229309.032  
E01  26607784.250   139824839.500    26607785.828   107138515.595    26607787.180   104414656.095    26607787.027   105776588.449  
E08  23907738.422   125636031.504    23907737.727    96266581.019    23907739.445    93819130.650    23907739.066    95042856.939  
E14  18173296.891    95501334.107    18173297.477    73176351.099    18173298.551    71315939.135    18173298.230    72246147.720  
E13  25741688.000   135273491.436    25741687.758   103651134.000    25741689.066   101015939.640    25741689.078   102333535.427  
E33  25275598.688   132824166.911    25275598.754   101774369.773    25275599.559    99186889.417    25275599.410   100480633.204  
C26  25400378.492   132266437.336                                    25400370.352   107477289.604  
C13  40220330.109   209437824.741    40220329.609   161950617.272    40220321.598   170185365.592  
C06  39969190.922   208130066.524    39969183.059   160939340.114    39969175.949   169122672.062  
C16  39954024.938   208051096.993    39954023.336   160878328.705    39954014.074   169058621.670  
C27  23813441.742   124002858.493                                    23813432.879   100762452.260  
C05  40190246.555   209281128.322    40190240.820   161829441.113    40190236.508   170058038.288  
C29  23656398.344   123185083.170                                    23656388.922   100097932.388  
C30  21463516.391   111766182.621                                    21463509.582    90819162.375  
C09  41110647.891   214073928.147    41110643.559   165535527.136    41110635.531   173952555.551  
> 2022 01 01 00 03 30.0000000  0 37                     
G30  24918368.727   130946973.104    24918368.476    24918374.594   102036569.419    24918374.793   102036602.431    24918374.660    97785055.869  
G15  24340586.391   127910643.038    24340586.734                                    24340587.297    99670620.209                                  
G16  24797331.078   130310836.527    24797330.682    24797334.234   101540926.316                                                                  
G18  25140645.156   132115001.042    25140645.390    25140648.223   102946770.080    25140648.641   102946777.089    25140651.156    98657344.282  
G32  25141429.242   132119098.494    25141429.473    25141434.602   102949969.436    25141435.121   102949965.431    25141434.023    98660384.232  
G01  24461710.430   128547239.182    24461710.862    24461717.008   100166658.169    24461716.523   100166671.195    24461715.594    95993042.156  
G08  20554237.258   108013496.742    20554237.111    20554242.973    84166201.845    20554243.281    84166198.844    20554241.262    80659268.904  
G27  20789806.406   109251177.034    20789806.412    20789811.113    85130816.956    20789811.199    85130825.960    20789810.918    81583703.738  
G14  24882207.859   130757011.245    24882208.021    24882211.621   101888488.248    24882211.199   101888551.262    24882215.359    97643165.413  
G21  22286233.609   117115063.416    22286233.029    22286235.539    91258431.165                                                                  
G10  21046451.055   110600000.962    21046451.159    21046456.609    86181734.996    21046455.941    86181743.998    21046453.887    82590898.795  
G23  22105214.742   116163958.729    22105214.967    22105217.793    90517184.898    22105217.441    90517208.906    22105221.242    86745664.332  
R08  20295176.781   108679763.019    20295175.445   108679748.036    20295176.719    84528754.698    20295176.289    84528713.693  
R15  21369502.133   114192156.448    21369501.996   114192241.458    21369504.254    88816121.390    21369503.910    88816133.388  
R24  19351746.391   103483251.991    19351745.676   103482762.000    19351748.332    80486403.717    19351748.156    80486425.718  
R07  21885695.516   117155902.828    21885695.223   117155867.849    21885697.320    91121246.410    21885696.734    91121123.416  
R17  22535126.500   120590066.115    22535125.555   120590013.125    22535128.320    93792248.332    22535128.547    93792247.328  
R01  21870630.836   116911055.333    21870629.875   116911170.345    21870635.832    90930850.064    21870634.938    90930840.086  
R14  22564991.484   120284116.482    22564990.039   120284226.511    22564994.762    93554311.404    22564995.023    93554296.417  
R23  19996988.148   106970429.875    19996987.160   106970437.879                                                                  
E31  25418937.867   133577423.321    25418939.676   102351543.116    25418940.773    99749391.808    25418940.516   101050467.569  
E03  27740619.500   145777935.106    27740620.824   111699984.204    27740620.230   108860157.491    27740621.598   110280072.452  
E26  23452115.812   123241719.492    23452115.387    94431977.703    23452116.324    92031167.783    23452116.504    93231574.848  
E01  26624553.867   139912965.753    26624555.559   107206040.868    26624556.941   104480464.621    26624556.918   105843255.351  
E08  23904575.914   125619414.351    23904576.238    96253848.388    23904577.105    93806721.724    23904576.918    95030286.164  
E14  18187128.930    95574021.163    18187129.305    73232046.345    18187130.508    71370218.407    18187130.156    72301134.987  
E13  25755981.664   135348613.585    25755983.398   103708695.102    25755984.133   101072037.341    25755984.332   102390364.824  
E33  25262843.789   132757140.290    25262844.004   101723011.721    25262844.863    99136837.080    25262844.609   100429928.002  
C26  25394611.688   132236405.264                                    25394603.414   107452886.073  
C13  40227246.547   209473839.042    40227245.465   161978465.805    40227237.488   170214630.161  
C06  39958328.062   208073510.170    39958320.824   160895607.151    39958315.266   169076715.419  
C16  39944217.281   208000032.083    39944216.906   160838842.100    39944207.867   169017127.265  
C27  23829816.383   124088127.669                                    23829808.273   100831740.415  
C05  40190243.750   209281113.753    40190237.719   161829429.848    40190233.766   170058026.450  
C29  23641016.836   123104987.397                                    23641006.996   100032848.020  
C30  21464938.773   111773588.454                                    21464931.719    90825180.220  
C09  41099037.336   214013467.099    41099032.215   165488774.803    41099024.551   173903426.002  
> 2022 01 01 00 04 00.0000000  0 37                     
G30  24928432.922   130999860.292    24928432.672    24928438.629   102077780.233    24928439.094   102077813.270    24928438.562    97824549.573  
G15  24354716.922   127984914.251    24354717.266    24354719.484    99728496.084    24354721.152    99728494.137                                  
G16  24819829.148   130429064.507    24819828.753    24819832.117   101633052.004                                                                  
G18  25161408.750   132224115.918    25161408.984    25161412.184   103031794.642    25161412.074   103031801.652    25161415.195    98738826.138  
G32  25121557.711   132014675.689    25121557.941    25121563.781   102868601.061    25121564.258   102868597.054    25121562.789    98582406.184  
G01  24439796.336   128432083.201    24439796.768    24439803.711   100076926.258    24439803.605   100076939.273    24439802.250    95907049.070  
G08  20551698.109   108000152.451    20551697.963    20551703.621    84155803.689    20551703.969    84155800.695    20551701.895    80649304.013  
G27  20800824.773   109309080.260    20800824.779    20800829.539    85175936.373    20800829.770    85175945.370    20800829.516    81626943.173  
G14  24864389.805   130663375.784    24864389.966    24864393.059   101815525.569    24864393.211   101815588.587    24864394.996    97573242.845  
G21  22272794.141   117044439.190    22272793.561    22272795.922    91203399.300                                                                  
G10  21046406.484   110599763.228    21046406.589    21046411.605    86181549.745    21046410.535    86181558.754    21046408.641    82590721.255  
G23  22118615.297   116234381.795    22118615.521    22118618.836    90572060.013    22118618.953    90572084.020    22118621.945    86798252.995  
R08  20290243.414   108653347.861    20290242.883   108653332.871    20290243.629    84508209.564    20290243.602    84508168.574  
R15  21372049.258   114205770.288    21372049.883   114205855.284    21372051.883    88826709.927    21372051.441    88826721.933  
R24  19345488.016   103449785.204    19345487.352   103449295.214    19345489.750    80460373.996    19345490.227    80460396.001  
R07  21902039.047   117243395.181    21902039.422   117243360.198    21902042.133    91189296.034    21902042.555    91189173.048  
R17  22513823.391   120476071.840    22513822.535   120476018.844    22513825.844    93703586.122    22513825.625    93703585.109  
R01  21847907.008   116789579.019    21847905.812   116789694.027    21847911.168    90836368.502    21847910.508    90836358.509  
R14  22586265.742   120397526.773    22586265.664   120397636.801    22586269.719    93642519.352    22586270.719    93642504.327  
R23  20009295.734   107036264.946    20009294.895   107036272.973                                                                  
E31  25421686.625   133591868.745    25421688.387   102362611.680    25421689.770    99760178.973    25421689.398   101061395.434  
E03  27752206.586   145838821.489    27752209.492   111746637.355    27752209.730   108905624.515    27752208.027   110326132.521  
E26  23452741.570   123245007.823    23452741.156    94434497.341    23452741.973    92033623.363    23452742.266    93234062.457  
E01  26641360.453   140001285.373    26641362.270   107273714.313    26641363.664   104546417.557    26641363.637   105910068.541  
E08  23901499.656   125603249.759    23901500.707    96241462.543    23901501.043    93794650.765    23901500.945    95018057.754  
E14  18201235.578    95648152.290    18201235.973    73288848.110    18201237.207    71425576.050    18201236.887    72357214.687  
E13  25770302.789   135423863.940    25770302.418   103766354.445    25770304.359   101128230.762    25770303.984   102447291.216  
E33  25250122.031   132690287.877    25250122.188   101671787.155    25250122.852    99086914.840    25250122.984   100379354.599  
C26  25388938.055   132206863.816                                    25388929.645   107428881.222  
C13  40234161.859   209509848.660    40234160.891   162006310.724    40234152.914   170243890.931  
C06  39947486.000   208017048.064    39947478.359   160851947.064    39947472.520   169030835.348  
C16  39934434.539   207949082.924    39934431.977   160799444.996    39934423.590   168975726.919  
C27  23846229.852   124173594.928                                    23846221.234   100901189.538  
C05  40190241.367   209281102.072    40190235.535   161829420.819    40190231.445   170058016.958  
C29  23625673.852   123025093.912                                    23625664.188    99967928.024  
C30  21466438.680   111781398.216                                    21466431.551    90831526.295  
C09  41087435.617   213953055.524    41087431.277   165442060.764    41087422.848   173854336.661  
> 2022 01 01 00 04 30.0000000  0 37                     
G30  24938582.477   131053196.653    24938582.226    24938588.074   102119341.028    24938588.402   102119374.014    24938587.609    97864378.650  
G15  24368942.008   128059664.656    24368942.352    24368944.668    99786742.945    24368943.094    99786740.966                                  
G16  24842337.750   130547348.007    24842337.354    24842340.598   101725220.927                                                                  
G18  25182178.844   132333262.909    25182179.077    25182182.129   103116844.239    25182181.914   103116851.250    25182184.961    98820332.005  
G32  25101697.398   131910310.648    25101697.629    25101703.609   102787277.678    25101703.703   102787273.641    25101702.996    98504471.294  
G01  24417899.969   128317016.527    24417900.401    24417907.453    99987264.004    24417906.840    99987277.013    24417905.523    95821122.745  
G08  20549261.203   107987348.539    20549261.057    20549266.855    84145826.623    20549267.301    84145823.622    20549265.379    80639742.650  
G27  20811935.422   109367466.448    20811935.428    20811940.164    85221432.096    20811940.176    85221441.093    20811940.199    81670543.242  
G14  24846631.047   130570050.388    24846631.209    24846634.223   101742804.501    24846634.453   101742867.510    24846636.180    97503551.790  
G21  22259406.578   116974088.831    22259405.998    22259408.707    91148580.843                                                                  
G10  21046470.352   110600102.371    21046470.456    21046476.188    86181814.015    21046475.344    86181823.026    21046473.297    82590974.521  
G23  22132101.633   116305249.968    22132101.857    22132104.969    90627281.957    22132104.234    90627305.965    22132107.656    86851174.019  
R08  20285465.664   108627765.652    20285464.891   108627750.660    20285465.715    84488312.295    20285465.852    84488271.290  
R15  21374754.258   114220224.004    21374754.602   114220309.007    21374757.012    88837951.704    21374756.184    88837963.724  
R24  19339328.695   103416851.453    19339328.301   103416361.462    19339331.215    80434758.867    19339330.949    80434780.864  
R07  21918496.852   117331490.379    21918496.820   117331455.385    21918499.051    91257814.540    21918498.754    91257691.529  
R17  22492546.086   120362213.190    22492545.090   120362160.199    22492548.406    93615029.396    22492548.027    93615028.410  
R01  21825255.016   116668491.993    21825253.941   116668607.002    21825259.324    90742189.728    21825258.727    90742179.751  
R14  22607613.656   120511325.199    22607613.023   120511435.176    22607618.250    93731029.145    22607619.121    93731014.169  
R23  20021689.977   107102562.012    20021688.965   107102570.023                                                                  
E31  25424523.336   133606776.187    25424525.297   102374034.271    25424526.395    99771311.146    25424526.230   101072672.813  
E03  27763855.141   145900037.673    27763858.059   111793543.213    27763857.387   108951337.845    27763857.348   110372442.137  
E26  23453423.391   123248592.124    23453423.293    94437243.756    23453424.090    92036299.950    23453424.320    93236773.950  
E01  26658204.359   140089799.326    26658205.906   107341536.650    26658207.188   104612515.591    26658207.273   105977028.727  
E08  23898510.352   125587541.051    23898511.121    96229425.999    23898511.816    93782920.238    23898511.621    95006174.220  
E14  18215616.586    95723725.171    18215617.016    73346754.581    18215618.094    71482010.311    18215617.949    72414385.048  
E13  25784646.062   135499244.693    25784647.551   103824113.709    25784648.066   101184521.577    25784648.551   102504316.243  
E33  25237434.242   132623613.192    25237434.816   101620698.767    25237434.879    99037125.299    25237435.266   100328915.635  
C26  25383360.047   132177816.736                                    25383349.797   107405278.090  
C13  40241076.547   209545856.207    40241075.891   162034154.055    40241068.188   170273150.014  
C06  39936659.750   207960683.616    39936653.969   160808362.503    39936648.539   168985034.630  
C16  39924672.586   207898252.813    39924670.977   160760139.918    39924662.117   168934423.265  
C27  23862681.984   124259262.126                                    23862673.004   100970801.117  
C05  40190240.180   209281096.240    40190234.051   161829416.303    40190230.387   170058012.217  
C29  23610370.742   122945406.897                                    23610361.047    99903175.796  
C30  21468016.453   111789614.899                                    21468009.441    90838203.022  
C09  41075844.273   213892696.658    41075839.773   165395387.483    41075831.379   173805290.161  
> 2022 01 01 00 05 00.0000000  0 37                     
G30  24948816.836   131106977.897    24948816.586    24948822.406   102161248.468    24948822.508   102161281.496    24948822.324    97904539.988  
G15  24383256.945   128134889.376    24383257.289    24383259.523    99845359.704    24383260.070    99845357.697                                  
G16  24864855.820   130665682.328    24864855.424    24864858.012   101817429.498                                                                  
G18  25202954.594   132442438.946    25202954.827    25202957.426   103201916.480    25202957.223   103201923.479    25202960.707    98901859.558  
G32  25081847.984   131806004.272    25081848.215    25081854.855   102706000.047    25081854.379   102705996.059    25081853.988    98426580.226  
G01  24396020.398   128202038.757    24396020.831    24396027.832    99897670.973    24396027.418    99897683.999    24396025.711    95735262.779  
G08  20546927.703   107975084.217    20546927.557    20546933.129    84136270.010    20546933.676    84136267.016    20546931.688    80630584.232  
G27  20823137.312   109426332.464    20823137.318    20823142.121    85267301.727    20823142.246    85267310.724    20823142.105    81714501.635  
G14  24828930.594   130477035.927    24828930.755    24828934.285   101670325.712    24828933.965   101670388.706    24828937.652    97434092.933  
G21  22246071.484   116904011.275    22246070.904    22246073.723    91093974.967                                                                  
G10  21046644.492   110601016.159    21046644.597    21046650.102    86182526.060    21046649.562    86182535.063    21046647.164    82591656.890  
G23  22145671.516   116376559.048    22145671.740    22145674.168    90682847.467    22145674.395    90682871.464    22145677.387    86904424.313  
R08  20280843.320   108603015.120    20280842.781   108603000.127    20280843.773    84469061.876    20280844.121    84469020.864  
R15  21377616.516   114235514.844    21377615.797   114235599.840    21377618.582    88849844.589    21377618.164    88849856.604  
R24  19333269.133   103384449.917    19333269.172   103383959.926    19333271.570    80409557.675    19333271.711    80409579.678  
R07  21935064.805   117420182.430    21935064.332   117420147.427    21935067.547    91326797.268    21935067.324    91326674.260  
R17  22471294.250   120248490.558    22471293.477   120248437.562    22471296.570    93526578.478    22471295.832    93526577.467  
R01  21802675.789   116547796.387    21802675.543   116547911.394    21802680.586    90648315.366    21802680.055    90648305.353  
R14  22629035.344   120625505.182    22629033.273   120625615.182    22629038.172    93819835.770    22629038.281    93819820.789  
R23  20034170.062   107169318.059    20034168.543   107169326.063                                                                  
E31  25427447.742   133622143.430    25427449.848   102385809.162    25427450.055    99782786.683    25427450.496   101084298.026  
E03  27775566.891   145961580.425    27775568.102   111840699.343    27775565.719   108997295.154    27775568.027   110418998.853  
E26  23454161.492   123252470.378    23454161.344    94440215.400    23454161.902    92039196.052    23454162.328    93239707.832  
E01  26675084.250   140178503.817    26675085.707   107409505.014    26675086.949   104678755.926    26675087.223   106044133.070  
E08  23895608.133   125572286.731    23895608.207    96217737.603    23895608.547    93771529.015    23895608.816    94994634.414  
E14  18230270.773    95800732.645    18230271.059    73405760.284    18230272.141    71539515.868    18230272.027    72472640.681  
E13  25799014.703   135574753.235    25799016.156   103881970.879    25799017.586   101240907.793    25799017.352   102561437.945  
E33  25224780.000   132557114.945    25224780.465   101569745.562    25224780.684    98987467.506    25224781.129   100278610.142  
C26  25377876.656   132149263.086                                    25377866.898   107382075.911  
C13  40247990.188   209581859.835    40247990.059   162061994.329    40247981.824   170302405.899  
C06  39925853.672   207904415.370    39925848.242   160764852.341    39925842.977   168939312.103  
C16  39914933.016   207847540.175    39914932.000   160720925.700    39914923.547   168893215.110  
C27  23879171.086   124345126.357                                    23879162.305   101040572.820  
C05  40190240.297   209281094.215    40190234.492   161829414.738    40190229.902   170058010.560  
C29  23595107.977   122865925.790                                    23595097.691    99838590.889  
C30  21469672.117   111798236.738                                    21469665.285    90845208.969  
C09  41064263.078   213832389.155    41064257.961   165348753.923    41064249.859   173756285.398  
> 2022 01 01 00 05 30.0000000  0 37                     
G30  24959136.117   131161202.544    24959135.867    24959140.887   102203501.444    24959141.105   102203534.478    24959140.441    97945032.416  
G15  24397662.078   128210586.654    24397662.422    24397663.480    99904344.631                                                                  
G16  24887383.508   130784065.901    24887383.112    24887387.129   101909676.394                                                                  
G18  25223735.086   132551643.385    25223735.320    25223738.492   103287010.766    25223738.395   103287017.869    25223741.359    98983408.356  
G32  25062011.562   131701760.100    25062011.793    25062018.184   102624770.847    25062017.750   102624766.858    25062016.996    98348735.594  
G01  24374158.797   128087152.002    24374159.229    24374165.504    99808148.906    24374165.113    99808161.897    24374163.246    95649470.779  
G08  20544696.672   107963360.934    20544696.526    20544702.438    84127134.975    20544702.812    84127131.982    20544700.664    80621829.833  
G27  20834430.773   109485677.664    20834430.779    20834435.078    85313544.731    20834435.051    85313553.720    20834435.043    81758817.843  
G14  24811290.281   130384335.638    24811290.443    24811293.520   101598091.711    24811293.652   101598154.729    24811296.812    97364868.718  
G21  22232788.172   116834207.970    22232787.592    22232790.293    91039582.782                                                                  
G10  21046927.633   110602504.939    21046927.737    21046933.238    86183686.156    21046932.434    86183695.166    21046930.551    82592768.661  
G23  22159324.750   116448307.427    22159324.974    22159327.395    90738755.298    22159327.508    90738779.307    22159330.809    86958002.658  
R08  20276376.984   108579098.434    20276375.980   108579083.428    20276377.551    84450460.004    20276377.938    84450418.984  
R15  21380633.945   114251642.903    21380634.633   114251727.907    21380636.785    88862388.621    21380637.246    88862400.620  
R24  19327309.609   103352582.114    19327309.887   103352092.119    19327312.016    80384771.604    19327312.156    80384793.605  
R07  21951742.586   117509468.521    21951742.699   117509433.533    21951746.688    91396241.993    21951747.324    91396118.985  
R17  22450068.383   120134906.202    22450067.398   120134853.196    22450070.902    93438235.092    22450070.770    93438234.076  
R01  21780171.797   116427496.932    21780171.039   116427611.946    21780175.953    90554749.155    21780174.273    90554739.157  
R14  22650525.648   120740063.205    22650525.066   120740173.194    22650528.312    93908936.355    22650530.148    93908921.382  
R23  20046734.484   107236532.390    20046733.359   107236540.387                                                                  
E31  25430459.617   133637970.802    25430461.598   102397936.638    25430462.488    99794605.828    25430462.359   101096271.342  
E03  27787339.328   146023448.815    27787343.609   111888104.930    27787343.277   109043495.475    27787341.414   110465801.807  
E26  23454955.766   123256643.182    23454955.508    94443412.744    23454956.043    92042312.103    23454956.387    93242864.527  
E01  26692000.180   140267397.702    26692001.812   107477618.491    26692003.012   104745137.705    26692003.285   106111380.705  
E08  23892792.117   125557487.848    23892792.391    96206398.214    23892792.340    93760477.914    23892792.742    94983439.166  
E14  18245196.898    95879170.180    18245196.914    73465861.767    18245198.230    71598089.353    18245198.191    72531978.169  
E13  25813408.938   135650389.607    25813409.828   103939926.012    25813410.594   101297389.468    25813410.582   102618656.342  
E33  25212159.508   132490794.400    25212159.859   101518928.518    25212160.277    98937942.436    25212160.719   100228439.085  
C26  25372488.094   132121204.425                                    25372479.383   107359275.941  
C13  40254904.039   209617860.121    40254903.359   162089832.040    40254895.191   170331659.088  
C06  39915068.656   207848244.518    39915062.109   160721417.472    39915054.938   168893668.665  
C16  39905217.320   207796946.202    39905215.676   160681803.250    39905207.211   168852103.393  
C27  23895697.883   124431187.326                                    23895689.289   101110504.393  
C05  40190240.500   209281096.787    40190234.520   161829416.717    40190230.359   170058012.649  
C29  23579884.078   122786652.644                                    23579874.109    99774174.963  
C30  21471405.812   111807264.559                                    21471398.855    90852544.809  
C09  41052692.148   213772134.354    41052686.688   165302161.117    41052678.602   173707323.443  
> 2022 01 01 00 06 00.0000000  0 37                     
G30  24969538.828   131215867.564    24969538.578    24969543.820   102246097.567    24969543.531   102246130.563    24969542.617    97985853.716  
G15  24412151.742   128286753.074    24412152.086    24412159.609    99963694.940    24412158.789    99963691.890                                  
G16  24909919.844   130902495.721    24909919.448    24909922.902   102001959.324                                                                  
G18  25244522.469   132660874.348    25244522.702                                    25244522.430   103372132.888    25244527.207    99064976.856  
G32  25042186.891   131597580.031    25042187.121    25042192.602   102543591.593    25042194.312   102543587.590    25042191.977    98270938.830  
G01  24352314.344   127972356.873    24352314.776    24352320.766    99718698.196    24352320.266    99718711.207    24352318.660    95563747.215  
G08  20542568.758   107952178.367    20542568.611    20542574.523    84118421.292    20542574.488    84118418.299    20542572.852    80613479.208  
G27  20845814.797   109545499.839    20845814.803    20845819.000    85360159.405    20845818.848    85360168.408    20845818.844    81803490.248  
G14  24793710.594   130291951.354    24793710.755    24793713.520   101526103.990    24793713.824   101526166.992    24793716.641    97295880.463  
G21  22219557.133   116764678.814    22219556.553    22219559.773    90985404.212                                                                  
G10  21047320.141   110604567.531    21047320.245    21047325.625    86185293.366    21047325.238    86185302.369    21047323.098    82594308.899  
G23  22173060.625   116520491.927    22173060.849    22173063.328    90795002.953    22173063.586    90795026.965    22173067.309    87011906.665  
R08  20272067.562   108556015.253    20272065.250   108556000.262    20272067.027    84432506.425    20272067.145    84432465.420  
R15  21383809.273   114268606.071    21383809.012   114268691.066    21383811.293    88875582.186    21383810.844    88875594.185  
R24  19321450.344   103321249.044    19321450.293   103320759.066    19321452.539    80360401.434    19321452.879    80360423.430  
R07  21968532.266   117599344.287    21968533.039   117599309.301    21968537.105    91466145.373    21968537.602    91466022.349  
R17  22428868.219   120021460.988    22428867.219   120021408.002    22428870.852    93349999.944    22428871.156    93349998.940  
R01  21757741.133   116307596.884    21757740.242   116307711.884    21757746.387    90461493.595    21757745.137    90461483.624  
R14  22672086.102   120854994.031    22672085.598   120855104.011    22672088.867    93998326.916    22672090.891    93998311.916  
R23  20059384.336   107304203.018    20059383.215   107304211.036                                                                  
E31  25433558.508   133654257.075    25433560.695   102410415.730    25433561.914    99806767.660    25433561.559   101108591.799  
E03  27799174.094   146085640.399    27799176.055   111935758.226    27799173.414   109089937.286    27799176.137   110512849.360  
E26  23455805.312   123261109.580    23455805.594    94446835.047    23455805.984    92045647.396    23455806.324    93246243.329  
E01  26708951.617   140356478.243    26708953.676   107545874.982    26708954.270   104811658.842    26708954.855   106178769.523  
E08  23890062.312   125543143.934    23890062.227    96195407.422    23890062.852    93749766.548    23890063.191    94972588.086  
E14  18260393.914    95959031.347    18260394.113    73527054.088    18260395.141    71657725.934    18260395.262    72592392.614  
E13  25827825.484   135726152.265    25827826.496   103997977.877    25827827.559   101353965.450    25827827.727   102675970.268  
E33  25199572.539   132424651.366    25199573.520   101468247.491    25199573.805    98888549.914    25199574.109   100178402.308  
C26  25367194.570   132093640.758                                    25367185.859   107336878.200  
C13  40261816.742   209653856.168    40261816.086   162117666.455    40261808.109   170360908.817  
C06  39904299.883   207792170.573    39904293.594   160678057.560    39904286.457   168848103.997  
C16  39895523.906   207746470.486    39895522.875   160642772.232    39895513.457   168811087.732  
C27  23912262.383   124517443.076                                    23912253.871   101180594.221  
C05  40190241.484   209281103.119    40190236.168   161829421.611    40190231.703   170058017.792  
C29  23564700.844   122707587.941                                    23564690.934    99709928.421  
C30  21473217.227   111816697.602                                    21473210.535    90860209.929  
C09  41041130.992   213711931.700    41041125.434   165255608.631    41041117.586   173658403.873  
> 2022 01 01 00 06 30.0000000  0 37                     
G30  24980024.570   131270971.336    24980024.320    24980029.164   102289035.564    24980029.363   102289068.583    24980029.113    98027002.607  
G15  24426739.102   128363386.260    24426739.445    24426740.809   100023409.222    24426740.812   100023406.212                                  
G16  24932465.078   131020969.023    24932464.682    24932467.441   102094276.140                                                                  
G18  25265311.258   132770131.0611   25265311.491                                    25265312.410   103457267.934    25265318.770    99146564.613  
G32  25022375.609   131493467.508    25022375.840    25022380.508   102462464.995    25022381.988   102462461.007    25022379.805    98193192.529  
G01  24330486.961   127857655.554    24330487.393    24330493.625    99629320.630    24330493.691    99629333.624    24330491.551    95478093.703  
G08  20540544.062   107941537.489    20540543.916    20540549.367    84110129.692    20540549.625    84110126.707    20540548.082    80605533.099  
G27  20857289.047   109605798.392    20857289.053    20857293.320    85407145.290    20857293.461    85407154.286    20857293.277    81848518.387  
G14  24776191.961   130199886.485    24776192.123    24776194.191   101454365.174    24776194.730   101454428.168    24776198.242    97227130.754  
G21  22206378.086   116695425.081    22206377.506    22206380.270    90931440.285                                                                  
G10  21047821.859   110607204.206    21047821.964    21047827.617    86187347.919    21047827.020    86187356.929    21047824.965    82596277.844  
G23  22186879.742   116593110.892    22186879.967    22186882.168    90851589.155    22186882.574    90851613.153    22186886.098    87066135.109  
R08  20267911.633   108533767.348    20267910.441   108533752.356    20267912.406    84415202.504    20267912.953    84415161.506  
R15  21387138.875   114286404.249    21387139.418   114286489.260    21387142.027    88889425.220    21387141.992    88889437.224  
R24  19315691.484   103290452.042    19315691.223   103289962.056    19315693.504    80336448.207    19315693.543    80336470.210  
R07  21985431.820   117689806.606    21985432.465   117689771.603    21985435.863    91536504.915    21985435.254    91536381.892  
R17  22407694.930   119908157.634    22407694.199   119908104.651    22407697.293    93261875.106    22407697.543    93261874.110  
R01  21735387.617   116188100.909    21735386.395   116188215.931    21735392.199    90368552.359    21735391.875    90368542.352  
R14  22693717.195   120970293.757    22693715.770   120970403.759    22693719.176    94088004.450    22693720.484    94087989.440  
R23  20072118.461   107372329.063    20072118.395   107372337.067                                                                  
E31  25436745.250   133671002.532    25436747.113   102423246.675    25436748.891    99819272.390    25436748.117   101121259.639  
E03  27811070.203   146148154.357    27811073.879   111983658.535    27811072.496   109136619.773    27811072.008   110560140.758  
E26  23456711.406   123265870.140    23456711.418    94450482.745    23456711.871    92049202.355    23456712.242    93249844.654  
E01  26725938.562   140445744.154    26725940.430   107614273.507    26725941.000   104878318.425    26725941.543   106246298.572  
E08  23887419.641   125529256.046    23887418.793    96184766.051    23887420.047    93739395.721    23887420.406    94962081.996  
E14  18275861.047    96040311.330    18275860.918    73589333.534    18275862.348    71718422.007    18275862.309    72653880.382  
E13  25842266.414   135802041.199    25842268.277   104056126.536    25842269.082   101410635.730    25842269.004   102733379.736  
E33  25187020.086   132358687.110    25187021.051   101417703.473    25187021.348    98839290.915    25187021.492   100128500.798  
C26  25361996.609   132066573.597                                    25361987.348   107314883.913  
C13  40268728.469   209689848.504    40268727.914   162145497.989    40268720.055   170390155.532  
C06  39893550.688   207736194.722    39893543.922   160634773.501    39893537.562   168802619.031  
C16  39885854.438   207696114.057    39885852.215   160603833.453    39885843.402   168770169.001  
C27  23928864.797   124603893.241                                    23928855.574   101250842.044  
C05  40190243.891   209281113.822    40190237.887   161829429.879    40190233.508   170058026.483  
C29  23549558.094   122628733.693                                    23549547.281    99645852.882  
C30  21475107.062   111826536.642                                    21475099.922    90868204.954  
C09  41029579.750   213651782.440    41029574.121   165209097.411    41029566.734   173609527.691  
> 2022 01 01 00 07 00.0000000  0 38                     
G30  24990592.266   131326511.495    24990592.015    24990599.180   102332313.621    24990599.191   102332346.623    24990597.965    98068477.404  
G15  24441410.422   128440484.049    24441410.766    24441413.258   100083485.281    24441412.141   100083482.239                                  
G16  24955016.062   131139483.665    24955015.667    24955020.410   102186625.167                                                                  
G32  25002576.906   131389425.220    25002577.137    25002582.410   102381393.134    25002582.453   102381389.127    25002581.016    98115498.677  
G01  24308678.094   127743049.281    24308678.526    24308685.141    99540017.044    24308684.246    99540030.064    24308682.398    95392511.123  
G08  20538622.094   107931439.792    20538621.947    20538627.832    84102261.363    20538628.074    84102258.370    20538626.617    80597992.616  
G27  20868853.633   109666571.809    20868853.639    20868858.137    85454501.201    20868858.656    85454510.197    20868858.039    81893901.130  
G14  24758733.266   130108143.650    24758733.427    24758735.617   101382877.288    24758735.555   101382940.302    24758739.719    97158621.560  
G21  22193252.930   116626447.932    22193252.350    22193254.641    90877691.865                                                                  
G10  21048432.820   110610414.445    21048432.925    21048438.477    86189849.395    21048437.867    86189858.398    21048435.930    82598675.100  
G23  22200780.281   116666161.893    22200780.506    22200783.457    90908512.022    22200783.328    90908536.034    22200787.594    87120686.183  
R08  20263913.289   108512355.920    20263912.316   108512340.927    20263913.832    84398549.171    20263914.672    84398508.167  
R15  21390625.992   114305036.489    21390625.840   114305121.492    21390628.957    88903916.957    21390628.598    88903928.976  
R24  19310032.203   103260192.003    19310032.250   103259702.012    19310034.730    80312912.629    19310035.238    80312934.633  
R07  22002440.367   117780851.528    22002440.062   117780816.542    22002443.195    91607317.588    22002443.551    91607194.599  
R17  22386548.398   119794997.864    22386546.879   119794944.868    22386550.633    93173861.965    22386550.086    93173860.972  
R01  21713109.062   116069012.929    21713108.254   116069127.938    21713114.316    90275928.436    21713113.609    90275918.436  
R14  22715414.547   121085957.812    22715414.145   121086067.779    22715418.141    94177965.264    22715417.035    94177950.244  
R23  20084939.812   107440909.318    20084938.535   107440917.329                                                                  
E07  26732395.523   140479685.704    26732398.719   107640291.703    26732399.344   104903674.553    26732399.195   106271985.231  
E31  25440018.867   133688206.703    25440021.316   102436429.083    25440022.770    99832119.653    25440021.984   101134274.473  
E03  27823026.703   146210988.834    27823029.562   112031804.413    27823026.895   109183541.568    27823029.203   110607674.591  
E26  23457673.195   123270924.582    23457673.230    94454355.637    23457673.695    92052976.784    23457674.070    93253668.319  
E01  26742959.867   140535193.536    26742962.113   107682812.586    26742962.609   104945114.996    26742963.168   106313966.394  
E08  23884863.539   125515824.395    23884863.285    96174474.286    23884864.027    93729365.605    23884864.438    94951921.050  
E14  18291597.195    96123004.343    18291596.918    73652695.682    18291598.277    71780173.247    18291598.309    72716437.072  
E24  27416658.219   144075509.582    27416658.918   110395522.810    27416658.145   107588851.410    27416659.109   108992189.205  
E13  25856731.711   135878055.630    25856733.133   104114371.321    25856733.867   101467399.723    25856734.102   102790884.129  
E33  25174502.023   132292902.100    25174502.652   101367296.793    25174502.438    98790165.753    25174503.027   100078734.875  
C26  25356894.492   132040003.692                                    25356885.141   107293293.701  
C13  40275639.539   209725836.935    40275639.195   162173326.520    40275631.434   170419399.061  
C06  39882820.391   207680317.376    39882812.668   160591565.581    39882806.867   168757214.119  
C16  39876206.461   207645877.308    39876204.520   160564987.194    39876196.434   168729347.517  
C27  23945503.625   124690536.683                                    23945494.520   101321246.916  
C05  40190246.891   209281128.746    40190240.742   161829441.412    40190236.699   170058038.610  
C29  23534455.195   122550091.177                                    23534444.773    99581949.399  
C30  21477074.141   111836781.653                                    21477067.449    90876529.864  
C09  41018038.367   213591686.928    41018033.688   165162627.749    41018026.191   173560695.181  
> 2022 01 01 00 07 30.0000000  0 38                     
G30  25001244.805   131382485.461    25001244.555    25001249.738   102375929.699    25001250.070   102375962.721    25001249.516    98110276.141  
G15  24456167.664   128518043.163    24456168.008    24456171.875   100143920.908    24456171.750   100143917.898                                  
G16  24977576.469   131258036.278    24977576.073    24977580.051   102279003.847                                                                  
G32  24982792.211   131285455.694    24982792.441    24982797.586   102300377.944    24982798.023   102300373.922    24982796.363    98037859.120  
G01  24286886.695   127628539.436    24286887.128    24286894.770    99450788.644    24286893.277    99450801.651    24286891.742    95307000.559  
G08  20536803.797   107921884.491    20536803.651    20536809.539    84094815.668    20536809.938    84094812.675    20536808.188    80590857.160  
G27  20880508.617   109727818.413    20880508.623    20880513.219    85502225.834    20880513.164    85502234.838    20880512.895    81939637.246  
G14  24741336.328   130016725.155    24741336.490    24741339.488   101311642.132    24741340.047   101311705.160    24741343.699    97090354.549  
G21  22180179.562   116557747.767    22180178.982    22180181.539    90824159.269                                                                  
G10  21049152.492   110614197.485    21049152.597    21049158.500    86192797.220    21049157.988    86192806.215    21049155.961    82601500.087  
G23  22214763.383   116739642.296    22214763.607    22214766.582    90965769.461    22214766.383    90965793.460    22214770.277    87175557.891  
R08  20260070.812   108491780.511    20260069.676   108491765.513    20260071.547    84382546.071    20260071.273    84382505.066  
R15  21394268.984   114324501.148    21394269.188   114324586.153    21394271.375    88919056.131    21394270.488    88919068.135  
R24  19304474.219   103230470.229    19304473.812   103229980.238    19304476.445    80289795.697    19304477.000    80289817.698  
R07  22019557.070   117872475.098    22019556.738   117872440.125    22019558.547    91678580.392    22019559.379    91678457.411  
R17  22365428.094   119681983.048    22365427.727   119681930.064    22365431.066    93085961.590    22365430.242    93085960.585  
R01  21690907.961   115950336.869    21690907.359   115950451.884    21690913.367    90183624.887    21690912.777    90183614.885  
R14  22737181.047   121201981.541    22737179.324   121202091.533    22737183.293    94268205.924    22737183.578    94268190.971  
R23  20097844.305   107509942.057    20097842.930   107509950.076                                                                  
E07  26716659.984   140396996.742    26716663.219   107576932.659    26716663.887   104841926.313    26716664.062   106209431.593  
E31  25443379.672   133705868.835    25443382.562   102449962.413    25443383.316    99845308.905    25443383.031   101147635.762  
E03  27835045.844   146274142.002    27835047.984   112080194.497    27835047.227   109230701.417    27835046.926   110655449.562  
E26  23458690.641   123276272.546    23458690.812    94458453.429    23458691.547    92056970.398    23458691.754    93257714.020  
E01  26760016.227   140624824.143    26760018.488   107751490.552    26760018.730   105012046.914    26760019.340   106381771.336  
E08  23882394.523   125502849.016    23882393.898    96164532.119    23882395.270    93719676.206    23882395.316    94942105.265  
E14  18307600.797    96207104.367    18307600.543    73717135.931    18307601.973    71842975.177    18307602.066    72780058.162  
E24  27405569.734   144017245.104    27405571.125   110350878.608    27405571.102   107545342.195    27405572.023   108948112.512  
E13  25871220.641   135954194.586    25871221.781   104172711.525    25871222.789   101524256.698    25871222.871   102848482.715  
E33  25162017.703   132227296.677    25162018.457   101317027.701    25162018.242    98741174.671    25162018.840   100029104.791  
C26  25351887.445   132013931.549                                    25351878.488   107272107.947  
C13  40282549.977   209761821.061    40282549.711   162201151.728    40282541.910   170448639.105  
C06  39872108.164   207624538.649    39872101.008   160548433.966    39872095.496   168711889.388  
C16  39866581.758   207595760.269    39866580.668   160526233.555    39866571.617   168688623.339  
C27  23962179.234   124777372.081                                    23962170.301   101391807.781  
C05  40190250.062   209281147.667    40190244.215   161829456.039    40190240.207   170058053.979  
C29  23519393.242   122471661.400                                    23519383.152    99518218.768  
C30  21479119.883   111847432.418                                    21479112.758    90885184.483  
C09  41006508.562   213531645.311    41006503.543   165116199.790    41006495.656   173511906.480  
> 2022 01 01 00 08 00.0000000  0 38                     
G30  25011978.273   131438890.971    25011978.023    25011983.266   102419881.990    25011983.516   102419915.026    25011982.695    98152397.128  
G15  24471012.469   128596061.047    24471012.812    24471016.949   100204714.189    24471013.914   100204711.194                                  
G16  25000143.039   131376624.812    25000142.643    25000145.938   102371410.472                                                                  
G32  24963021.453   131181561.615    24963021.683    24963026.887   102219421.577    24963027.363   102219417.595    24963026.113    97960275.959  
G01  24265115.625   127514127.290    24265116.057    24265122.293    99361636.368    24265121.688    99361649.387    24265120.137    95221562.978  
G08  20535089.453   107912872.431    20535089.307    20535094.504    84087793.288    20535094.805    84087790.294    20535093.285    80584127.376  
G27  20892252.742   109789536.836    20892252.748    20892257.789    85550318.111    20892257.547    85550327.107    20892257.375    81985725.671  
G14  24724002.836   129925633.615    24724002.998    24724005.270   101240661.704    24724005.047   101240724.750    24724009.996    97022331.747  
G21  22167158.945   116489325.322    22167158.365    22167160.898    90770843.087                                                                  
G10  21049981.648   110618552.882    21049981.753    21049987.215    86196191.034    21049986.660    86196200.035    21049984.723    82604752.500  
G23  22228828.070   116813549.738    22228828.295    22228830.809    91023359.665    22228830.578    91023383.665    22228834.398    87230748.504  
R08  20256385.219   108472042.489    20256383.559   108472027.506    20256385.676    84367194.272    20256386.129    84367153.267  
R15  21398066.484   114344797.399    21398067.156   114344882.410    21398069.367    88934842.107    21398069.242    88934854.119  
R24  19299017.234   103201287.730    19299017.035   103200797.739    19299019.305    80267098.199    19299019.617    80267120.202  
R07  22036781.250   117964673.216    22036780.898   117964638.235    22036783.012    91750290.044    22036783.117    91750167.020  
R17  22344335.961   119569115.072    22344335.867   119569062.081    22344339.137    92998175.385    22344339.520    92998174.396  
R01  21668785.312   115832076.589    21668784.508   115832191.602    21668790.484    90091644.726    21668789.383    90091634.741  
R14  22759014.500   121318360.566    22759011.867   121318470.550    22759014.793    94358722.880    22759017.867    94358707.887  
R23  20110834.742   107579425.841    20110832.844   107579433.853                                                                  
E07  26700965.750   140314521.563    26700968.793   107513737.405    26700969.418   104780337.770    26700969.371   106147039.698  
E31  25446828.031   133723988.485    25446830.695   102463846.294    25446831.422    99858839.811    25446831.090   101161343.158  
E03  27847121.992   146337612.255    27847124.188   112128827.537    27847124.512   109278097.953    27847125.211   110703464.345  
E26  23459764.117   123281913.891    23459764.309    94462776.014    23459765.176    92061183.086    23459765.250    93261981.648  
E01  26777106.820   140714634.045    26777109.012   107820305.889    26777108.465   105079112.699    26777109.473   106449711.900  
E08  23880012.117   125490330.202    23880012.168    96154939.771    23880013.086    93710327.731    23880013.027    94932634.857  
E14  18323871.312    96292605.619    18323870.863    73782649.869    18323872.508    71906823.507    18323872.453    72844739.295  
E24  27394549.547   143959332.105    27394549.785   110306503.740    27394551.574   107502095.525    27394551.434   108904301.744  
E13  25885732.719   136030457.345    25885734.711   104231146.607    25885734.934   101581206.142    25885735.262   102906174.982  
E33  25149567.172   132161871.400    25149568.371   101266896.649    25149568.199    98692318.140    25149568.863    99979611.001  
C26  25346976.344   131988357.942                                    25346967.020   107251327.295  
C13  40289459.859   209797800.918    40289459.234   162228973.628    40289451.250   170477875.676  
C06  39861415.969   207568858.929    39861409.160   160505378.872    39861402.539   168666645.064  
C16  39856980.438   207545763.388    39856978.340   160487572.804    39856969.969   168647996.794  
C27  23978891.625   124864398.301                                    23978882.891   101462523.698  
C05  40190254.523   209281170.452    40190248.934   161829473.648    40190244.625   170058072.476  
C29  23504373.211   122393445.684                                    23504362.574    99454662.094  
C30  21481243.125   111858488.993                                    21481236.117    90894168.853  
C09  40994988.523   213471658.084    40994983.426   165069813.919    40994975.746   173463162.001  
> 2022 01 01 00 08 30.0000000  0 38                     
G30  25022793.195   131495726.445    25022792.945    25022798.605   102464169.389    25022798.746   102464202.411    25022798.648    98194839.234  
G15  24485947.758   128674535.705    24485948.102    24485952.219   100265863.109    24485952.309   100265860.149                                  
G16  25022716.211   131495246.819    25022715.815    25022719.695   102463843.218                                                                  
G32  24943266.141   131077746.584    24943266.371    24943271.559   102138526.770    24943271.848   102138522.791    24943270.633    97882751.782  
G01  24243363.016   127399815.199    24243363.448    24243369.469    99272562.070    24243368.977    99272575.105    24243367.387    95136200.143  
G08  20533477.875   107904405.258    20533477.729    20533483.293    84081195.498    20533483.645    84081192.497    20533482.059    80577804.493  
G27  20904087.305   109851726.377    20904087.310    20904092.152    85598777.497    20904091.945    85598786.494    20904091.531    82032165.921  
G14  24706731.188   129834872.492    24706731.349    24706734.941   101169938.721    24706735.289   101170001.752    24706737.598    96954555.608  
G21  22154191.867   116421181.733    22154191.287    22154194.074    90717744.205                                                                  
G10  21050919.133   110623480.906    21050919.237    21050925.090    86200031.051    21050924.453    86200040.061    21050922.508    82608432.520  
G23  22242973.352   116887882.556    22242973.576    22242975.945    91081281.345    22242975.586    91081305.345    22242979.141    87286256.781  
R08  20252855.211   108453143.096    20252853.922   108453128.090    20252856.605    84352494.747    20252856.828    84352453.734  
R15  21402020.609   114365924.690    21402020.492   114366009.686    21402022.984    88951274.440    21402022.434    88951286.440  
R24  19293661.312   103172646.298    19293660.887   103172156.306    19293663.164    80244821.534    19293663.660    80244843.537  
R07  22054111.055   118057442.942    22054110.852   118057407.933    22054113.328    91822444.279    22054113.496    91822321.271  
R17  22323271.945   119456396.353    22323271.375   119456343.369    22323274.738    92910505.285    22323274.805    92910504.289  
R01  21646740.336   115714236.975    21646740.496   115714351.990    21646745.949    89999991.746    21646745.762    89999981.748  
R14  22780912.531   121435091.036    22780910.906   121435201.058    22780913.625    94449513.243    22780915.203    94449498.226  
R23  20123908.086   107649359.754    20123906.566   107649367.764                                                                  
E07  26685312.031   140232262.694    26685315.102   107450707.936    26685315.238   104718910.739    26685315.980   106084811.435  
E31  25450362.891   133742565.952    25450365.641   102478080.973    25450366.699    99872712.586    25450366.277   101175396.886  
E03  27859261.539   146401398.722    27859263.840   112177702.869    27859260.473   109325730.678    27859263.598   110751718.392  
E26  23460893.672   123287849.189    23460893.914    94467323.836    23460894.430    92065615.285    23460894.699    93266471.666  
E01  26794229.898   140804622.102    26794233.027   107889257.705    26794232.910   105146311.544    26794233.461   106517787.228  
E08  23877717.156   125478269.003    23877717.293    96145698.078    23877717.676    93701321.006    23877717.852    94923510.643  
E14  18340407.188    96379502.832    18340406.961    73849233.430    18340408.438    71971714.249    18340408.543    72910476.448  
E24  27383596.797   143901773.006    27383597.180   110262399.992    27383598.258   107459113.094    27383597.906   108860758.650  
E13  25900269.391   136106844.002    25900269.949   104289676.630    25900271.598   101638248.102    25900271.164   102963960.975  
E33  25137151.562   132096627.554    25137152.605   101216904.626    25137152.770    98643597.101    25137153.383    99930254.468  
C26  25342160.844   131963284.429                                    25342151.941   107230953.019  
C13  40296368.414   209833776.869    40296368.301   162256792.520    40296360.242   170507109.084  
C06  39850741.242   207513279.468    39850734.641   160462401.308    39850728.547   168621482.203  
C16  39847402.062   207495887.711    39847400.766   160449005.776    39847391.812   168607468.728  
C27  23995640.773   124951615.111                                    23995631.953   101533394.505  
C05  40190259.641   209281197.841    40190254.176   161829494.816    40190249.938   170058094.730  
C29  23489394.391   122315446.132                                    23489384.125    99391281.068  
C30  21483444.445   111869952.169                                    21483437.465    90903483.615  
C09  40983479.156   213411726.443    40983473.953   165023470.993    40983466.402   173414462.653  
> 2022 01 01 00 09 00.0000000  0 38                     
G30  25033690.086   131552989.164    25033689.836    25033694.945   102508789.683    25033695.258   102508822.702    25033695.879    98237600.305  
G15  24500966.562   128753464.053    24500966.906    24500970.809   100327365.769    24500967.992   100327362.766                                  
G16  25045296.336   131613899.632    25045295.940    25045298.141   102556299.985                                                                  
G32  24923524.750   130974012.858    24923524.980    24923531.988   102057695.324    24923531.539   102057691.338    24923530.711    97805288.340  
G01  24221628.781   127285604.056    24221629.214    24221635.305    99183566.435    24221635.266    99183579.439    24221633.848    95050912.649  
G08  20531970.266   107896482.807    20531970.119    20531975.691    84075022.161    20531975.781    84075019.160    20531974.621    80571888.382  
G27  20916010.531   109914385.144    20916010.537    20916015.965    85647602.497    20916015.500    85647611.488    20916015.004    82078956.544  
G14  24689522.320   129744443.918    24689522.482    24689527.809   101099474.934    24689526.984   101099537.970    24689528.652    96887027.693  
G21  22141277.922   116353317.627    22141277.342    22141279.469    90664863.083                                                                  
G10  21051965.859   110628980.623    21051965.964    21051971.668    86204316.547    21051971.180    86204325.549    21051969.113    82612539.444  
G23  22257198.352   116962637.971    22257198.576    22257201.715    91139532.306    22257201.016    91139556.318    22257204.590    87342080.620  
R08  20249481.336   108435082.721    20249481.234   108435067.730    20249484.211    84338447.794    20249484.203    84338406.796  
R15  21406129.133   114387881.328    21406129.316   114387966.324    21406131.938    88968351.818    21406131.898    88968363.831  
R24  19288406.070   103144546.123    19288406.004   103144056.140    19288408.387    80222965.840    19288408.113    80222987.843  
R07  22071545.867   118150780.024    22071546.172   118150745.054    22071549.605    91895039.760    22071550.227    91894916.758  
R17  22302236.617   119343828.511    22302235.789   119343775.512    22302238.535    92822952.533    22302238.250    92822951.527  
R01  21624775.961   115596821.823    21624775.836   115596936.816    21624780.797    89908668.895    21624780.578    89908658.903  
R14  22802875.492   121552168.091    22802874.293   121552278.091    22802878.020    94540573.146    22802879.293    94540558.151  
R23  20137066.523   107719742.541    20137064.984   107719750.559                                                                  
E07  26669699.836   140150221.586    26669702.953   107387845.285    26669703.801   104657646.281    26669704.137   106022747.891  
E31  25453985.117   133761600.302    25453987.621   102492665.735    25453989.051    99886926.546    25453988.414   101189796.245  
E03  27871458.320   146465499.309    27871461.633   112226818.852    27871458.676   109373597.983    27871461.344   110800210.007  
E26  23462079.086   123294077.869    23462079.121    94472096.471    23462079.656    92070266.582    23462079.977    93271183.628  
E01  26811388.359   140894785.956    26811390.449   107958344.223    26811390.977   105213641.596    26811391.168   106585995.519  
E08  23875508.797   125466665.184    23875509.281    96136806.847    23875509.547    93692655.819    23875509.723    94914732.438  
E14  18357207.586    96467789.579    18357207.621    73916881.713    18357208.836    72037642.662    18357208.996    72977264.795  
E24  27372711.461   143844568.669    27372711.395   110218568.126    27372712.398   107416395.605    27372712.234   108817483.973  
E13  25914828.641   136183353.416    25914829.590   104348300.700    25914830.191   101695381.743    25914830.426   103021839.833  
E33  25124771.164   132031565.339    25124771.996   101167051.780    25124772.074    98595011.695    25124772.465    99881035.337  
C26  25337442.258   131938711.254                                    25337433.094   107210985.323  
C13  40303276.445   209869748.557    40303275.770   162284608.109    40303268.238   170536339.036  
C06  39840088.250   207457800.236    39840080.891   160419501.255    39840074.082   168576400.758  
C16  39837847.602   207446133.307    39837845.711   160410532.517    39837837.230   168567039.199  
C27  24012426.336   125039020.892                                    24012417.527   101604418.839  
C05  40190266.180   209281229.387    40190260.133   161829519.210    40190256.008   170058120.366  
C29  23474456.617   122237663.627                                    23474446.742    99328076.401  
C30  21485723.875   111881821.526                                    21485716.863    90913128.443  
C09  40971981.039   213351850.406    40971975.879   164977171.090    40971967.457   173365808.489  
> 2022 01 01 00 09 30.0000000  0 39                     
G30  25044666.711   131610676.474    25044666.461    25044672.391   102553740.836    25044672.898   102553773.823    25044672.668    98280678.467  
G15  24516072.031   128832843.096    24516072.375    24516078.152   100389219.504    24516077.492   100389216.494                                  
G16  25067879.258   131732580.271    25067878.862    25067882.387   102648778.369                                                                  
G32  24903802.297   130870363.107    24903802.527    24903807.105   101976929.323    24903807.148   101976925.308    24903806.555    97727887.599  
G01  24199915.078   127171495.147    24199915.511    24199920.848    99094650.440    24199920.656    99094663.458    24199919.469    94965701.506  
G08  20530566.398   107889105.616    20530566.252    20530571.836    84069273.700    20530572.258    84069270.706    20530570.590    80566379.448  
G27  20928023.023   109977511.541    20928023.029    20928028.512    85696791.889    20928028.148    85696800.893    20928027.547    82126096.376  
G14  24672378.289   129654350.409    24672378.451    24672382.906   101029272.280    24672382.227   101029335.266    24672385.340    96819750.101  
G21  22128416.258   116285733.763    22128415.678    22128418.309    90612200.321                                                                  
G10  21053121.445   110635051.245    21053121.550    21053126.879    86209046.915    21053126.129    86209055.911    21053124.574    82617072.714  
G23  22271504.102   117037813.380    22271504.326    22271506.895    91198110.551    22271507.219    91198134.562    22271509.668    87398218.104  
R08  20246265.375   108417861.318    20246265.141   108417846.341    20246268.352    84325053.390    20246267.977    84325012.385  
R15  21410393.758   114410666.013    21410393.215   114410751.023    21410395.672    88986073.245    21410395.195    88986085.259  
R24  19283253.070   103116988.321    19283252.402   103116498.322    19283254.895    80201531.999    19283255.609    80201553.995  
R07  22089088.625   118244680.372    22089087.570   118244645.369    22089091.793    91968073.303    22089091.926    91967950.302  
R17  22281229.039   119231413.277    22281228.387   119231360.279    22281230.812    92735518.456    22281230.492    92735517.452  
R01  21602890.594   115479834.293    21602889.879   115479949.300    21602895.539    89817678.647    21602896.199    89817668.647  
R14  22824899.867   121669586.968    22824901.508   121669696.978    22824905.938    94631898.899    22824903.824    94631883.872  
R23  20150306.719   107790572.172    20150305.941   107790580.168                                                                  
E07  26654130.281   140068399.829    26654132.617   107325150.706    26654133.273   104596545.651    26654133.777   105960850.287  
E31  25457694.289   133781090.859    25457696.977   102507600.051    25457697.766    99901481.174    25457697.348   101204540.719  
E03  27883716.531   146529912.176    27883718.496   112276174.133    27883715.211   109421698.467    27883718.801   110848937.898  
E26  23463320.258   123300599.581    23463320.020    94477093.617    23463320.707    92075136.684    23463321.016    93276117.256  
E01  26828578.602   140985123.518    26828581.281   108027563.899    26828581.406   105281101.438    26828581.930   106654335.275  
E08  23873387.469   125455518.877    23873387.840    96128266.169    23873388.383    93684332.278    23873388.637    94906300.330  
E14  18374271.188    96557459.540    18374271.406    73985589.867    18374272.289    72104603.992    18374272.645    73045099.532  
E24  27361893.461   143787720.481    27361892.816   110175009.096    27361894.691   107373944.014    27361894.332   108774478.663  
E13  25929410.805   136259984.642    25929411.512   104407018.114    25929413.219   101752606.333    25929412.906   103079810.830  
E33  25112425.055   131966685.173    25112425.766   101117338.401    25112425.531    98546562.223    25112426.195    99831953.917  
C26  25332819.570   131914638.934                                    25332810.562   107191424.583  
C20  26851924.453   139825008.650                                    26851908.195   113619216.160  
C13  40310183.680   209905715.717    40310183.109   162312420.173    40310175.340   170565565.284  
C06  39829453.039   207402421.490    39829446.215   160376678.911    39829439.844   168531400.998  
C16  39828315.625   207396500.295    39828314.457   160372153.130    39828305.578   168526708.313  
C27  24029247.844   125126614.411                                    24029239.227   101675595.744  
C05  40190273.266   209281264.776    40190266.934   161829546.564    40190262.852   170058149.115  
C29  23459561.203   122160099.294                                    23459551.434    99265049.030  
C30  21488081.375   111894096.900                                    21488074.102    90923103.193  
C09  40960492.547   213292030.215    40960487.625   164930914.351    40960479.559   173317199.696  
> 2022 01 01 00 10 00.0000000  0 39                     
G30  25055725.445   131668786.448    25055725.195    25055730.766   102599021.355    25055731.172   102599054.343    25055730.551    98324072.255  
G15  24531262.289   128912670.709    24531262.633    24531266.168   100451422.896    24531264.691   100451419.907                                  
G16  25090468.570   131851286.763    25090468.174    25090472.250   102741276.927                                                                  
G32  24884093.602   130766800.422    24884093.832    24884100.488   101896231.157    24884100.324   101896227.146    24884099.777    97650551.840  
G01  24178219.453   127057490.250    24178219.886    24178225.766    99005815.500    24178226.168    99005828.504    24178225.129    94880568.014  
G08  20529266.672   107882274.571    20529266.526    20529271.840    84063950.805    20529272.145    84063947.811    20529270.637    80561278.331  
G27  20940124.523   110041104.460    20940124.529    20940129.852    85746344.806    20940129.566    85746353.795    20940128.879    82173584.588  
G14  24655299.133   129564594.853    24655299.294    24655302.578   100959332.896    24655302.844   100959395.871    24655305.551    96752724.890  
G21  22115608.828   116218431.093    22115608.248    22115611.582    90559756.709                                                                  
G10  21054385.680   110641692.644    21054385.784    21054390.695    86214222.028    21054390.062    86214231.030    21054388.543    82622032.199  
G23  22285888.742   117113406.759    22285888.967    22285892.312    91257014.464    22285891.656    91257038.471    22285894.488    87454667.699  
R08  20243206.609   108401480.138    20243206.215   108401465.147    20243209.363    84312312.464    20243209.484    84312271.466  
R15  21414811.898   114434277.725    21414812.113   114434362.736    21414814.570    89004437.911    21414813.656    89004449.904  
R24  19278201.578   103089974.622    19278200.633   103089484.625    19278203.465    80180521.352    19278203.301    80180543.349  
R07  22106735.688   118339140.239    22106735.316   118339105.259    22106737.863    92041542.072    22106736.410    92041419.082  
R17  22260250.305   119119152.387    22260249.648   119119099.393    22260252.051    92648204.455    22260252.414    92648203.452  
R01  21581086.242   115363279.221    21581085.918   115363394.236    21581091.363    89727024.767    21581091.387    89727014.759  
R14  22846994.211   121787343.824    22846992.418   121787453.808    22846996.281    94723487.478    22846996.996    94723472.506  
R23  20163630.070   107861847.866    20163629.254   107861855.869                                                                  
E07  26638601.930   139986799.541    26638605.305   107262625.863    26638605.246   104535610.411    26638605.867   105899120.238  
E31  25461489.977   133801037.436    25461492.469   102522883.792    25461493.105    99916376.346    25461493.023   101219630.173  
E03  27896033.141   146594636.091    27896035.363   112325767.760    27896032.875   109470031.204    27896035.371   110897901.091  
E26  23464616.859   123307414.536    23464616.883    94482315.462    23464617.406    92080225.774    23464617.844    93281272.717  
E01  26845802.062   141075633.159    26845804.988   108096915.375    26845804.605   105348689.755    26845805.258   106722805.171  
E08  23871353.789   125444830.614    23871353.906    96120076.467    23871354.426    93676350.781    23871354.711    94898214.730  
E14  18391596.969    96648506.841    18391597.125    74055353.381    18391598.070    72172593.856    18391598.398    73113976.225  
E24  27351143.695   143731230.103    27351143.316   110131724.281    27351144.953   107331759.696    27351144.289   108731744.092  
E13  25944015.719   136336737.324    25944017.480   104465828.601    25944018.141   101809921.630    25944018.488   103137873.711  
E33  25100113.547   131901987.942    25100114.039   101067765.203    25100113.953    98498249.347    25100114.777    99783010.878  
C26  25328292.633   131891068.543                                    25328284.410   107172271.713  
C20  26830896.305   139715511.838                                    26830880.246   113530241.056  
C13  40317089.805   209941678.409    40317089.418   162340228.817    40317081.633   170594787.896  
C06  39818838.609   207347143.919    39818830.594   160333934.812    39818824.199   168486483.463  
C16  39818808.555   207346989.459    39818806.137   160333868.209    39818797.801   168486476.692  
C27  24046105.047   125214394.943                                    24046096.324   101746924.603  
C05  40190280.398   209281304.423    40190274.434   161829577.220    40190270.258   170058181.326  
C29  23444708.133   122082754.798                                    23444697.938    99202200.296  
C30  21490516.555   111906778.668                                    21490509.617    90933408.162  
C09  40949015.539   213232266.716    40949010.395   164884701.435    40949002.746   173268636.974  
> 2022 01 01 00 10 30.0000000  0 39                     
G30  25066863.461   131727317.087    25066863.211    25066868.645   102644629.630    25066869.238   102644662.637    25066868.477    98367780.181  
G15  24546537.367   128992944.264    24546537.711    24546544.000   100513973.522    24546544.535   100513970.579                                  
G16  25113062.359   131970016.318    25113061.963    25113065.352   102833793.462                                                                  
G32  24864404.227   130663327.984    24864404.457    24864410.418   101815603.342    24864410.426   101815599.358    24864409.734    97573283.503  
G01  24156546.328   126943591.280    24156546.761    24156551.660    98917063.111    24156551.805    98917076.122    24156551.184    94795513.635  
G08  20528070.492   107875990.601    20528070.346    20528076.059    84059054.203    20528076.316    84059051.195    20528074.914    80556585.747  
G27  20952314.469   110105162.812    20952314.474    20952319.746    85796260.395    20952319.707    85796269.392    20952318.824    82221420.373  
G14  24638283.844   129475180.368    24638284.005    24638286.953   100889659.296    24638286.906   100889722.286    24638290.086    96685954.363  
G21  22102855.977   116151410.752    22102855.397    22102857.582    90507533.076                                                                  
G10  21055757.508   110648904.610    21055757.612    21055763.293    86219841.740    21055762.602    86219850.735    21055760.949    82627417.752  
G23  22300352.297   117189416.068    22300352.521    22300355.641    91316242.496    22300355.645    91316266.511    22300359.051    87511427.918  
R08  20240304.992   108385940.160    20240303.984   108385925.155    20240307.520    84300225.817    20240307.023    84300184.820  
R15  21419384.398   114458715.647    21419384.254   114458800.651    21419387.688    89023445.178    21419387.488    89023457.177  
R24  19273251.570   103063506.323    19273251.512   103063016.330    19273253.793    80159934.893    19273254.488    80159956.903  
R07  22124483.820   118434156.504    22124483.738   118434121.509    22124485.543    92115443.616    22124485.855    92115320.614  
R17  22239301.414   119007048.427    22239300.520   119006995.441    22239302.664    92561012.467    22239302.781    92561011.478  
R01  21559364.609   115247161.067    21559363.984   115247276.080    21559369.461    89636710.674    21559369.129    89636700.682  
R14  22869146.422   121905434.230    22869145.145   121905544.282    22869149.785    94815335.563    22869150.391    94815320.592  
R23  20177037.180   107933568.487    20177035.906   107933576.491                                                                  
E07  26623116.445   139905423.013    26623119.543   107200272.419    26623119.785   104474842.213    26623120.500   105837559.421  
E31  25465372.648   133821439.910    25465374.695   102538516.861    25465375.289    99931611.966    25465375.496   101235064.516  
E03  27908408.008   146659669.722    27908410.086   112375598.690    27908408.309   109518595.276    27908410.801   110947098.599  
E26  23465969.523   123314522.915    23465969.441    94487762.148    23465970.105    92085533.981    23465970.531    93286650.170  
E01  26863058.805   141166313.332    26863060.977   108166397.552    26863060.988   105416405.438    26863061.012   106791404.101  
E08  23869407.234   125434601.026    23869407.574    96112238.209    23869407.617    93668711.814    23869408.109    94890476.110  
E14  18409183.680    96740925.540    18409183.984    74126167.668    18409184.883    72241607.776    18409185.133    73183890.335  
E24  27340462.344   143675099.496    27340461.957   110088715.120    27340463.191   107289843.977    27340463.047   108689281.652  
E13  25958645.328   136413611.169    25958645.504   104524731.912    25958647.562   101867327.392    25958647.098   103196028.257  
E33  25087836.492   131837474.637    25087837.445   101018332.936    25087837.598    98450073.836    25087838.340    99734206.990  
C26  25323862.469   131868001.128                                    25323854.656   107153527.536  
C20  26809869.359   139606016.815                                    26809853.445   113441267.399  
C13  40323994.969   209977637.097    40323995.105   162368034.366    40323986.754   170624007.280  
C06  39808242.109   207291968.427    39808234.199   160291269.599    39808228.652   168441648.865  
C16  39809323.281   207297601.525    39809322.203   160295678.329    39809313.078   168446344.945  
C27  24062997.969   125302361.769                                    24062989.379   101818404.857  
C05  40190288.719   209281348.691    40190283.207   161829611.460    40190278.934   170058217.300  
C29  23429897.695   122005631.908                                    23429887.320    99139531.621  
C30  21493029.914   111919867.212                                    21493023.090    90944043.681  
C09  40937549.078   213172560.629    40937544.648   164838532.919    40937537.027   173220120.924  
> 2022 01 01 00 11 00.0000000  0 39                     
G30  25078081.914   131786265.507    25078081.664    25078086.676   102690563.459    25078087.223   102690596.464    25078086.211    98411800.117  
G15  24561900.492   129073660.829    24561900.836                                                                                                  
G16  25135659.242   132088766.835    25135658.846    25135663.469   102926326.350                                                                  
G32  24844730.695   130559948.145    24844730.926    24844737.367   101735047.674    24844737.914   101735043.661    24844736.836    97496084.323  
G01  24134891.992   126829799.210    24134892.425    24134898.195    98828393.985    24134897.832    98828406.989    24134896.941    94710539.091  
G08  20526979.070   107870253.599    20526978.924    20526984.477    84054583.801    20526984.828    84054580.807    20526983.195    80552301.632  
G27  20964592.719   110169684.734    20964592.724    20964597.758    85846537.206    20964597.938    85846546.203    20964596.801    82269602.314  
G14  24621334.664   129386109.097    24621334.826    24621336.680   100820253.157    24621337.070   100820316.160    24621340.758    96619440.111  
G21  22090155.820   116084673.211    22090155.240    22090158.141    90455529.785                                                                  
G10  21057238.562   110656686.112    21057238.667    21057243.891    86225905.242    21057243.129    86225914.260    21057241.852    82633228.621  
G23  22314895.180   117265838.496    22314895.404    22314898.531    91375792.448    22314898.340    91375816.439    22314902.320    87568496.598  
R08  20237560.148   108371241.441    20237559.523   108371226.443    20237562.496    84288793.494    20237562.285    84288752.482  
R15  21424112.648   114483978.022    21424111.992   114484063.032    21424115.156    89043093.692    21424115.242    89043105.675  
R24  19268403.812   103037583.877    19268403.586   103037093.886    19268406.359    80139772.993    19268406.656    80139794.994  
R07  22142335.672   118529724.501    22142335.996   118529689.514    22142339.551    92189774.321    22142339.441    92189651.292  
R17  22218381.617   118895102.734    22218380.395   118895049.743    22218383.055    92473943.605    22218382.855    92473942.610  
R01  21537724.359   115131483.322    21537723.340   115131598.323    21537729.605    89546739.150    21537729.090    89546729.122  
R14  22891361.656   122023853.410    22891359.887   122023963.432    22891365.633    94907439.279    22891366.461    94907424.246  
R23  20190526.648   108005732.102    20190525.215   108005740.135                                                                  
E07  26607674.031   139824271.512    26607676.895   107138091.446    26607677.625   104414242.123    26607677.746   105776168.887  
E31  25469341.680   133842297.345    25469343.898   102554498.516    25469344.660    99947187.308    25469344.535   101250843.020  
E03  27920842.977   146725011.053    27920845.277   112425665.404    27920844.859   109567389.100    27920844.734   110996528.855  
E26  23467378.062   123321924.202    23467377.812    94493433.261    23467378.488    92091060.911    23467378.965    93292249.187  
E01  26880346.172   141257161.714    26880348.730   108236008.615    26880349.125   105484246.724    26880348.949   106860130.272  
E08  23867547.758   125424829.851    23867548.320    96104751.215    23867548.148    93661415.167    23867548.734    94883084.296  
E14  18427030.219    96834708.858    18427030.449    74198027.591    18427031.391    72311640.747    18427031.539    73254836.774  
E24  27329849.641   143619329.582    27329848.531   110045982.323    27329850.477   107248197.611    27329850.422   108647092.082  
E13  25973296.070   136490605.086    25973296.855   104583727.232    25973298.613   101924822.831    25973298.645   103254273.631  
E33  25075595.531   131773145.377    25075596.035   100969041.700    25075596.176    98402035.750    25075596.910    99685542.329  
C26  25319528.875   131845436.994                                    25319521.703   107135192.339  
C20  26788843.195   139496524.983                                    26788825.723   113352296.325  
C13  40330899.789   210013591.098    40330899.410   162395836.272    40330891.387   170653222.854  
C06  39797666.008   207236895.005    39797657.504   160248683.340    39797652.078   168396897.221  
C16  39799863.008   207248336.410    39799860.805   160257583.443    39799852.191   168406313.035  
C27  24079926.578   125390513.389                                    24079917.805   101890035.253  
C05  40190298.164   209281397.010    40190292.441   161829648.831    40190288.027   170058256.576  
C29  23415129.609   121928731.494                                    23415119.668    99077043.728  
C30  21495621.836   111933362.110                                    21495614.625    90955009.391  
C09  40926094.734   213112912.125    40926089.875   164792408.926    40926082.102   173171651.659  
> 2022 01 01 00 11 30.0000000  0 39                     
G30  25089378.453   131845629.047    25089378.203    25089383.293   102736820.683    25089383.629   102736853.688    25089382.965    98456129.982  
G15  24577341.180   129154816.927    24577341.523    24577347.105   100640118.082    24577346.242   100640106.104                                  
G16  25158260.711   132207534.835    25158260.315    25158263.684   103018872.896                                                                  
G32  24825077.711   130456663.354    24825077.941    24825083.133   101654566.051    24825082.922   101654562.034    24825082.570    97418956.114  
G01  24113258.320   126716115.138    24113258.753    24113264.805    98739809.039    24113264.363    98739822.037    24113263.641    94625645.186  
G08  20525991.711   107865063.663    20525991.565    20525996.707    84050539.699    20525996.949    84050536.705    20525995.719    80548426.043  
G27  20976958.336   110234668.293    20976958.342    20976963.863    85897173.739    20976963.875    85897182.736    20976962.648    82318128.995  
G14  24604450.539   129297383.251    24604450.701    24604452.480   100751116.153    24604451.969   100751179.173    24604457.773    96553183.810  
G21  22077509.844   116018218.555    22077509.264    22077512.324    90403746.964                                                                  
G10  21058828.102   110665036.218    21058828.206    21058832.824    86232411.816    21058832.145    86232420.825    21058830.965    82639464.081  
G23  22329516.289   117342671.298    22329516.513    22329518.734    91435662.156    22329519.172    91435686.148    22329523.191    87625871.731  
R08  20234972.672   108357383.683    20234972.102   108357368.699    20234974.738    84278015.233    20234974.594    84277974.242  
R15  21428993.453   114510062.728    21428993.445   114510147.730    21428996.734    89063381.788    21428995.234    89063393.794  
R24  19263658.852   103012207.896    19263658.168   103011717.910    19263660.789    80120036.130    19263660.156    80120058.131  
R07  22160292.531   118625840.066    22160291.574   118625805.088    22160294.352    92264530.886    22160294.688    92264407.887  
R17  22197491.055   118783316.800    22197490.586   118783263.817    22197493.633    92386998.999    22197492.844    92386997.997  
R01  21516168.508   115016249.345    21516166.871   115016364.367    21516172.570    89457112.773    21516172.723    89457102.774  
R14  22913636.617   122142596.541    22913635.730   122142706.538    22913641.688    94999794.924    22913641.496    94999780.001  
R23  20204099.133   108078337.114    20204097.711   108078345.120                                                                  
E07  26592274.016   139743346.555    26592277.383   107076084.020    26592277.863   104353811.160    26592278.336   105714949.691  
E31  25473397.273   133863608.756    25473399.316   102570828.062    25473400.168    99963101.695    25473399.961   101266964.981  
E03  27933334.438   146790657.982    27933336.074   112475966.255    27933335.715   109616411.116    27933337.105   111046190.291  
E26  23468842.094   123329617.799    23468842.008    94499328.349    23468842.613    92096806.133    23468842.984    93298069.347  
E01  26897665.242   141348175.988    26897668.078   108305746.800    26897668.223   105552211.887    26897668.508   106928981.946  
E08  23865775.594   125415516.979    23865775.797    96097615.376    23865775.773    93654460.740    23865776.500    94876039.166  
E14  18445134.844    96929849.964    18445135.520    74270927.881    18445136.113    72382687.629    18445136.336    73326810.364  
E24  27319306.102   143563921.499    27319305.949   110003526.776    27319306.816   107206821.445    27319306.457   108605176.214  
E13  25987970.578   136567717.994    25987971.773   104642813.722    25987972.887   101982407.105    25987972.766   103312609.016  
E33  25063389.484   131709000.402    25063389.863   100919891.653    25063389.863    98354135.289    25063390.531    99637017.076  
C26  25315292.719   131823376.358                                    25315284.738   107117266.267  
C20  26767816.625   139387037.862                                    26767800.688   113263329.067  
C13  40337803.695   210049539.936    40337802.758   162423634.187    40337795.410   170682434.235  
C06  39787108.383   207181923.707    39787101.672   160206176.063    39787094.797   168352228.538  
C16  39790425.836   207199194.172    39790423.746   160219583.517    39790414.590   168366380.919  
C27  24096890.586   125478848.375                                    24096882.164   101961814.658  
C05  40190308.297   209281448.934    40190302.391   161829688.982    40190298.277   170058298.761  
C29  23400404.352   121852054.535                                    23400394.434    99014737.410  
C30  21498291.438   111947262.971                                    21498284.168    90966304.984  
C09  40914651.109   213053321.170    40914645.660   164746329.447    40914638.547   173123229.159  
> 2022 01 01 00 12 00.0000000  0 39                     
G30  25100753.258   131905406.048    25100753.008    25100759.000   102783400.154    25100758.738   102783433.142    25100758.363    98500768.645  
G15  24592871.391   129236410.501    24592871.734    24592872.848   100703697.451    24592868.605   100703685.482                                  
G16  25180863.711   132326318.276    25180863.315    25180867.145   103111431.414                                                                  
G32  24805441.805   130353477.161    24805442.035    24805447.297   101574161.209    24805447.137   101574157.188    24805447.090    97341901.510  
G01  24091645.883   126602541.296    24091646.315    24091652.305    98651309.972    24091652.031    98651322.962    24091651.629    94540833.585  
G08  20525108.727   107860422.076    20525108.580    20525113.406    84046922.878    20525113.668    84046919.885    20525112.699    80544959.914  
G27  20989412.367   110300112.814    20989412.373    20989417.605    85948169.447    20989417.289    85948178.451    20989416.293    82366999.884  
G14  24587632.094   129209006.246    24587632.255    24587633.516   100682250.952    24587633.297   100682314.010    24587640.117    96487188.082  
G21  22064918.273   115952048.318    22064917.693    22064920.195    90352185.742                                                                  
G10  21060524.742   110673954.999    21060524.847    21060530.145    86239361.519    21060529.508    86239370.521    21060528.289    82646124.214  
G23  22344214.398   117419912.741    22344214.623    22344217.766    91495850.279    22344217.699    91495874.291    22344221.746    87683552.004  
R08  20232542.219   108344368.585    20232541.332   108344353.600    20232543.988    84267892.386    20232544.520    84267851.389  
R15  21434029.188   114536969.423    21434028.512   114537054.427    21434031.836    89084309.210    21434031.918    89084321.209  
R24  19259015.234   102987380.400    19259015.266   102986890.403    19259017.852    80100725.859    19259017.789    80100747.860  
R07  22178348.867   118722500.343    22178348.332   118722465.362    22178351.793    92339711.064    22178351.832    92339588.056  
R17  22176632.500   118671693.183    22176631.133   118671640.191    22176634.203    92300180.640    22176633.355    92300179.637  
R01  21494694.820   114901464.003    21494694.094   114901578.995    21494699.742    89367835.302    21494699.707    89367825.304  
R14  22935975.562   122261660.035    22935972.504   122261770.027    22935977.582    95092399.778    22935977.152    95092384.791  
R23  20217755.078   108151382.752    20217753.531   108151390.772                                                                  
E07  26576918.969   139662650.623    26576921.414   107014252.127    26576922.363   104293551.287    26576922.293   105653903.812  
E31  25477538.930   133885374.413    25477540.914   102587505.638    25477542.316    99979355.261    25477541.875   101283430.559  
E03  27945885.453   146856609.612    27945886.781   112526500.624    27945885.617   109665660.676    27945887.281   111096082.253  
E26  23470361.883   123337604.337    23470361.727    94505447.907    23470362.383    92102770.093    23470362.785    93304111.105  
E01  26915016.367   141439354.990    26915018.715   108375611.179    26915019.070   105620300.064    26915019.215   106997958.217  
E08  23864090.633   125406663.273    23864090.578    96090831.372    23864091.074    93647849.213    23864091.742    94869341.393  
E14  18463496.906    97026343.114    18463497.773    74344864.173    18463498.203    72454744.180    18463498.367    73399806.781  
E24  27308831.219   143508877.393    27308831.672   109961350.145    27308831.066   107165717.097    27308831.988   108563535.721  
E13  26002666.797   136644949.901    26002666.902   104701991.395    26002669.590   102040080.270    26002669.527   103371034.440  
E33  25051218.234   131645041.051    25051218.734   100870883.833    25051218.914    98306373.429    25051219.512    99588632.238  
C26  25311153.266   131801820.676                                    25311145.031   107099750.528  
C20  26746792.906   139277557.966                                    26746776.270   113174367.692  
C13  40344705.992   210085484.364    40344706.125   162451428.700    40344698.266   170711642.024  
C06  39776571.305   207127055.696    39776564.707   160163748.637    39776558.480   168307643.776  
C16  39781012.641   207150175.904    39781010.133   160181679.510    39781001.723   168326549.575  
C27  24113889.570   125567366.352                                    24113880.875   102033742.752  
C05  40190318.516   209281505.223    40190313.086   161829732.500    40190309.027   170058344.498  
C29  23385722.297   121775603.100                                    23385712.984    98952614.369  
C30  21501039.156   111961570.559                                    21501031.762    90977931.066  
C09  40903218.164   212993789.020    40903213.219   164700295.453    40903206.066   173074854.446  
> 2022 01 01 00 12 30.0000000  0 39                     
G30  25112205.586   131965594.097    25112205.336    25112211.352   102830299.939    25112212.074   102830332.941    25112211.520    98545714.270  
G15  24608476.367   129318439.010    24608476.711    24608482.125   100767615.745    24608483.594   100767603.751                                  
G16  25203469.492   132445114.184    25203469.096    25203474.352   103203999.624                                                                  
G32  24785825.078   130250392.287    24785825.308    24785831.164   101493835.379    24785831.160   101493831.377    24785830.344    97264922.572  
G01  24070054.516   126489079.170    24070054.948    24070061.770    98562897.979    24070060.414    98562910.976    24070059.922    94456105.432  
G08  20524329.734   107856329.081    20524329.588    20524334.371    84043733.531    20524334.953    84043730.537    20524334.012    80541903.455  
G27  21001953.453   110366016.756    21001953.459    21001958.457    85999523.166    21001958.348    85999532.163    21001957.520    82416213.864  
G14  24570881.656   129120980.818    24570881.818    24570884.297   100613659.721    24570884.207   100613722.730    24570889.148    96421454.878  
G21  22052381.227   115886163.424    22052380.647    22052383.281    90300846.873                                                                  
G10  21062330.430   110683441.840    21062330.534    21062335.469    86246753.863    21062334.625    86246762.866    21062333.738    82653208.538  
G23  22358990.594   117497560.443    22358990.818    22358993.781    91556354.981    22358993.938    91556378.986    22358997.406    87741535.669  
R08  20230268.727   108332195.883    20230268.402   108332180.899    20230271.152    84258424.736    20230271.285    84258383.738  
R15  21439218.445   114564696.580    21439217.270   114564781.583    21439220.465    89105874.773    21439220.766    89105886.787  
R24  19254475.398   102963102.221    19254475.027   102962612.230    19254477.613    80081842.830    19254478.086    80081864.827  
R07  22196507.609   118819701.231    22196507.492   118819666.238    22196510.512    92415311.707    22196510.820    92415188.677  
R17  22155802.680   118560233.911    22155802.488   118560180.926    22155805.246    92213490.100    22155804.836    92213489.110  
R01  21473306.352   114787131.228    21473305.816   114787246.235    21473311.031    89278909.853    21473310.359    89278899.831  
R14  22958370.367   122381039.346    22958367.430   122381149.318    22958372.059    95185250.248    22958372.473    95185235.263  
R23  20231492.609   108224867.591    20231491.941   108224875.595                                                                  
E07  26561605.984   139582185.515    26561609.609   106952597.078    26561609.727   104233463.717    26561610.297   105593032.499  
E31  25481767.383   133907593.689    25481769.336   102604530.806    25481770.359    99995947.576    25481770.168   101300239.296  
E03  27958493.047   146922864.285    27958493.762   112577267.104    27958495.234   109715136.470    27958495.273   111146203.393  
E26  23471937.625   123345883.630    23471937.211    94511791.775    23471937.840    92108952.688    23471938.277    93310374.329  
E01  26932398.219   141530696.693    26932400.805   108445600.229    26932401.434   105688509.729    26932400.938   107067057.586  
E08  23862493.367   125398268.927    23862493.055    96084399.351    23862493.785    93641580.718    23862494.332    94862991.139  
E14  18482114.922    97124181.638    18482115.855    74419831.328    18482116.410    72527805.396    18482116.434    73473820.960  
E24  27298426.086   143454198.684    27298425.980   109919453.484    27298426.250   107124885.574    27298427.258   108522171.636  
E13  26017386.734   136722300.133    26017387.828   104761259.730    26017388.809   102097841.775    26017388.887   103429549.357  
E33  25039082.375   131581267.834    25039082.992   100822018.647    25039083.477    98258750.585    25039083.855    99540388.219  
C26  25307110.000   131780770.478                                    25307101.902   107082645.499  
C20  26725769.430   139168087.308                                    26725752.895   113085413.828  
C13  40351607.930   210121424.161    40351607.812   162479219.613    40351599.574   170740846.042  
C06  39766054.594   207072291.449    39766047.613   160121401.433    39766041.262   168263143.334  
C16  39771622.758   207101282.012    39771621.195   160143871.654    39771612.465   168286819.286  
C27  24130923.547   125656066.240                                    24130914.758   102105818.666  
C05  40190330.539   209281565.835    40190324.793   161829779.366    40190320.539   170058393.749  
C29  23371084.555   121699378.528                                    23371074.582    98890675.655  
C30  21503864.609   111976284.833                                    21503857.496    90989887.615  
C09  40891797.477   212934316.064    40891792.668   164654307.225    40891784.641   173026527.814  
> 2022 01 01 00 13 00.0000000  0 39                     
G30  25123737.148   132026190.431    25123736.898    25123742.434   102877517.885    25123742.426   102877550.890    25123742.191    98590964.775  
G15  24624172.141   129400899.415    24624172.484    24624174.750   100831870.509    24624173.730   100831858.455                                  
G16  25226077.852   132563920.919    25226077.456    25226081.965   103296576.354                                                                  
G32  24766227.977   130147411.463    24766228.207    24766234.680   101413590.628    24766234.633   101413586.620    24766233.723    97188021.333  
G01  24048485.375   126375730.047    24048485.807    24048492.047    98474574.020    24048491.020    98474587.017    24048490.445    94371461.665  
G08  20523655.109   107852785.323    20523654.963    20523659.977    84040972.160    20523660.617    84040969.166    20523659.520    80539257.151  
G27  21014581.461   110432378.444    21014581.467    21014586.574    86051233.567    21014586.363    86051242.564    21014585.742    82465769.662  
G14  24554198.453   129033309.164    24554198.615    24554201.199   100545344.215    24554200.727   100545407.232    24554205.434    96355985.779  
G21  22039897.758   115820564.663    22039897.178    22039899.578    90249730.960                                                                  
G10  21064243.766   110693495.897    21064243.870    21064248.750    86254588.192    21064248.035    86254597.194    21064247.000    82660716.443  
G23  22373844.016   117575611.836    22373844.240    22373847.004    91617174.244    22373846.324    91617198.237    22373850.129    87799820.793  
R08  20228152.867   108320865.949    20228152.703   108320850.965    20228155.527    84249612.567    20228155.695    84249571.562  
R15  21444559.664   114593242.556    21444559.527   114593327.559    21444562.582    89128077.204    21444562.164    89128089.203  
R24  19250038.219   102939374.229    19250037.848   102938884.237    19250040.574    80063387.731    19250040.246    80063409.724  
R07  22214764.797   118917438.563    22214765.133   118917403.582    22214767.852    92491329.627    22214769.637    92491206.613  
R17  22135004.508   118448940.838    22135003.855   118448887.847    22135007.809    92126928.814    22135007.566    92126927.817  
R01  21452003.531   114673255.034    21452002.754   114673370.027    21452007.938    89190339.502    21452008.328    89190329.503  
R14  22980822.625   122500729.665    22980821.660   122500839.687    22980825.469    95278342.665    22980827.758    95278327.675  
R23  20245312.766   108298789.978    20245311.633   108298797.983                                                                  
E07  26546338.742   139501952.922    26546341.750   106891120.189    26546341.629   104173549.797    26546342.578   105532337.101  
E31  25486081.461   133930265.814    25486083.387   102621902.952    25486084.785   100012878.057    25486084.609   101317390.611  
E03  27971158.375   146989420.150    27971159.590   112628264.431    27971160.066   109764837.248    27971160.742   111196552.438  
E26  23473568.688   123354455.333    23473568.359    94518359.705    23473568.918    92115353.632    23473569.426    93316858.770  
E01  26949810.766   141622199.109    26949812.672   108515712.420    26949813.984   105756839.408    26949813.398   107136278.517  
E08  23860983.461   125390333.934    23860983.168    96078319.286    23860983.863    93635655.229    23860984.344    94856988.363  
E14  18500987.633    97223358.732    18500988.480    74495824.167    18500989.262    72601866.214    18500989.188    73548847.795  
E24  27288090.789   143399886.488    27288091.273   109877837.658    27288091.801   107084327.785    27288091.977   108481084.832  
E13  26032127.852   136799767.875    26032128.734   104820618.102    26032130.102   102155691.034    26032130.484   103488153.171  
E33  25026982.352   131517681.240    25026983.355   100773296.471    25026982.922    98211267.087    25026983.832    99492285.382  
C26  25303164.969   131760226.243                                    25303156.906   107065951.614  
C20  26704749.078   139058627.487                                    26704732.844   112996468.760  
C13  40358508.406   210157359.283    40358508.641   162507006.935    40358500.473   170770046.269  
C06  39755557.398   207017631.101    39755551.273   160079134.600    39755544.719   168218727.324  
C16  39762256.930   207052512.703    39762255.320   160106160.149    39762246.570   168247190.235  
C27  24147991.930   125744946.771                                    24147982.965   102178041.360  
C05  40190343.305   209281630.638    40190336.816   161829829.474    40190332.934   170058446.401  
C29  23356490.016   121623382.004                                    23356480.195    98828922.266  
C30  21506768.227   111991405.565                                    21506761.227    91002174.450  
C09  40880387.352   212874902.709    40880382.492   164608365.068    40880374.859   172978249.580  
> 2022 01 01 00 13 30.0000000  0 39                     
G30  25135346.227   132087193.085    25135345.976    25135350.926   102925052.416    25135351.266   102925085.433    25135350.551    98636518.701  
G15  24639941.922   129483789.598    24639942.266    24639947.109   100896460.182    24639946.820   100896448.196                                  
G16  25248688.875   132682736.179    25248688.479    25248690.914   103389159.688                                                                  
G32  24746651.586   130044537.917    24746651.816    24746658.543   101333429.463    24746657.953   101333425.452    24746657.770    97111200.219  
G01  24026937.328   126262495.891    24026937.761    24026944.281    98386339.655    24026943.980    98386352.656    24026942.582    94286903.761  
G08  20523085.359   107849791.965    20523085.213    20523090.133    84038639.675    20523090.965    84038636.674    20523089.891    80537021.853  
G27  21027296.805   110499196.807    21027296.810    21027301.668    86103299.830    21027301.848    86103308.820    21027300.902    82515666.496  
G14  24537583.430   128945994.450    24537583.591    24537585.438   100477306.772    24537585.418   100477369.782    24537590.152    96290783.246  
G21  22027469.703   115755252.834    22027469.123    22027471.469    90198838.636                                                                  
G10  21066264.484   110704116.983    21066264.589    21066269.652    86262864.371    21066269.141    86262873.373    21066268.090    82668647.774  
G23  22388772.727   117654064.907    22388772.951    22388775.746    91678306.516    22388775.551    91678330.524    22388779.016    87858405.893  
R08  20226194.938   108310379.454    20226194.676   108310364.464    20226197.156    84241456.406    20226197.438    84241415.409  
R15  21450055.273   114622606.094    21450054.645   114622691.089    21450057.688    89150915.502    21450057.227    89150927.515  
R24  19245703.703   102916197.643    19245703.500   102915707.654    19245706.660    80045361.505    19245706.684    80045383.494  
R07  22233123.609   119015708.786    22233123.273   119015673.805    22233126.992    92567761.970    22233127.824    92567638.970  
R17  22114238.414   118337815.778    22114237.676   118337762.787    22114241.395    92040498.247    22114241.914    92040497.236  
R01  21430786.430   114559839.624    21430785.680   114559954.632    21430791.641    89102127.536    21430790.410    89102117.528  
R14  23003333.836   122620727.166    23003332.633   122620837.158    23003337.699    95371673.957    23003339.273    95371658.950  
R23  20259212.734   108373149.049    20259211.539   108373157.060                                                                  
E07  26531115.586   139421954.999    26531118.551   106829823.129    26531119.070   104113811.149    26531119.406   105471819.246  
E31  25490482.070   133953390.675    25490483.836   102639621.998    25490485.285   100030146.620    25490485.137   101334884.414  
E03  27983880.469   147056276.036    27983882.586   112679491.634    27983881.988   109814762.083    27983882.734   111247128.461  
E26  23475255.320   123363319.747    23475255.168    94525151.928    23475255.836    92121973.176    23475256.266    93323564.659  
E01  26967253.641   141713860.715    26967255.250   108585946.618    26967256.613   105825287.980    26967256.156   107205619.906  
E08  23859560.969   125382858.914    23859560.355    96072591.668    23859561.383    93630073.241    23859561.867    94851333.560  
E14  18520113.797    97323868.011    18520114.930    74572837.743    18520115.676    72676921.816    18520115.480    73624882.385  
E24  27277824.812   143345942.816    27277826.570   109836504.206    27277826.281   107044045.167    27277827.000   108440276.790  
E13  26046892.406   136877352.825    26046893.328   104880066.278    26046894.562   102213627.818    26046894.453   103546845.656  
E33  25014918.320   131454282.297    25014918.492   100724718.065    25014918.730    98163923.716    25014919.520    99444324.495  
C26  25299317.492   131740189.016                                    25299308.887   107049669.727  
C20  26683731.102   138949180.892                                    26683714.758   112907534.445  
C13  40365407.734   210193289.816    40365408.496   162534790.686    40365400.582   170799242.767  
C06  39745080.250   206963075.553    39745073.859   160036948.818    39745067.871   168174396.517  
C16  39752915.273   207003868.795    39752913.148   160068545.582    39752904.863   168207663.084  
C27  24165095.328   125834007.356                                    24165086.156   102250410.351  
C05  40190356.375   209281699.955    40190350.375   161829883.076    40190346.352   170058502.733  
C29  23341940.188   121547615.355                                    23341929.930    98767355.654  
C30  21509750.516   112006933.248                                    21509743.109    91014791.966  
C09  40868989.062   212815549.707    40868984.777   164562469.580    40868977.055   172930020.407  
> 2022 01 01 00 14 00.0000000  0 39                     
G30  25147030.625   132148599.460    25147030.375    25147036.863   102972901.535    25147036.492   102972934.558    25147035.879    98682374.143  
G15  24655800.219   129567106.112    24655800.562    24655802.152   100961382.138    24655800.918   100961370.106                                  
G16  25271298.438   132801556.591    25271298.042    25271302.156   103481747.000                                                                  
G32  24727097.336   129941774.030    24727097.566    24727102.727   101253353.724    24727102.562   101253349.717    24727102.152    97034460.979  
G01  24005411.828   126149377.741    24005412.261    24005418.742    98298195.695    24005418.051    98298208.685    24005416.848    94202432.463  
G08  20522620.914   107847348.565    20522620.768    20522625.285    84036735.723    20522625.902    84036732.730    20522624.891    80535197.224  
G27  21040098.773   110566469.846    21040098.779    21040103.383    86155720.343    21040103.402    86155729.339    21040102.574    82565902.823  
G14  24521036.195   128859038.928    24521036.357    24521038.648   100409549.148    24521038.914   100409612.169    24521042.398    96225848.930  
G21  22015096.523   115690228.430    22015095.943    22015097.852    90148170.257                                                                  
G10  21068393.078   110715303.943    21068393.182    21068398.332    86271581.473    21068397.957    86271590.483    21068397.051    82677001.672  
G23  22403777.648   117732916.850    22403777.873    22403780.711    91739749.587    22403780.277    91739773.586    22403783.527    87917288.831  
R08  20224393.953   108300736.381    20224394.125   108300721.398    20224396.434    84233956.246    20224395.906    84233915.248  
R15  21455702.125   114652785.261    21455702.164   114652870.250    21455705.148    89174388.187    21455704.566    89174400.185  
R24  19241472.750   102893573.333    19241472.711   102893083.349    19241475.695    80027764.816    19241475.281    80027786.819  
R07  22251578.984   119114507.565    22251578.914   119114472.583    22251581.809    92644605.504    22251581.730    92644482.522  
R17  22093503.305   118226860.651    22093502.969   118226807.652    22093506.602    91954199.815    22093506.289    91954198.810  
R01  21409656.719   114446888.603    21409655.820   114447003.602    21409661.594    89014276.759    21409660.246    89014266.753  
R14  23025902.156   122741026.940    23025900.766   122741136.935    23025905.668    95465240.359    23025906.477    95465225.394  
R23  20273193.945   108447942.583    20273192.758   108447950.586                                                                  
E07  26515937.023   139342193.139    26515940.625   106768706.929    26515940.680   104054248.750    26515941.219   105411479.943  
E31  25494968.641   133976967.228    25494970.969   102657687.158    25494971.855   100047752.484    25494971.590   101352719.925  
E03  27996659.391   147123429.749    27996660.828   112730947.054    27996662.781   109864909.298    27996661.762   111297929.788  
E26  23476997.789   123372476.294    23476997.574    94532167.979    23476998.285    92128810.845    23476998.707    93330491.514  
E01  26984725.703   141805679.115    26984727.996   108656300.931    26984729.004   105893853.613    26984728.617   107275079.881  
E08  23858225.781   125375843.556    23858225.438    96067216.279    23858226.766    93624834.511    23858226.895    94846026.500  
E14  18539492.422    97425702.261    18539493.250    74650866.562    18539494.188    72752966.856    18539493.934    73701919.310  
E24  27267630.766   143292368.658    27267631.082   109795453.918    27267631.664   107004038.516    27267632.234   108399748.321  
E13  26061677.906   136955053.934    26061679.316   104939603.463    26061679.867   102271651.348    26061680.527   103605626.011  
E33  25002889.656   131391071.139    25002888.992   100676283.533    25002890.176    98116720.585    25002890.758    99396505.667  
C26  25295567.297   131720658.986                                    25295558.520   107033799.994  
C20  26662715.203   138839748.927                                    26662700.180   112818611.978  
C13  40372308.656   210229215.281    40372307.789   162562570.526    40372299.918   170828435.140  
C06  39734624.773   206908624.857    39734616.895   159994844.085    39734610.988   168130150.878  
C16  39743596.641   206955350.265    39743596.020   160031028.004    39743587.031   168168237.812  
C27  24182232.688   125923246.463                                    24182223.684   102322924.429  
C05  40190370.297   209281773.414    40190364.582   161829939.873    40190360.504   170058562.421  
C29  23327434.344   121472079.504                                    23327424.211    98705976.583  
C30  21512810.328   112022867.363                                    21512803.031    91027739.744  
C09  40857602.531   212756257.217    40857597.656   164516620.857    40857590.348   172881840.411  
> 2022 01 01 00 14 30.0000000  0 39                     
G30  25158790.688   132210406.698    25158790.437    25158798.293   103021063.006    25158797.855   103021096.029    25158797.559    98728528.874  
G15  24671734.148   129650846.083    24671734.492    24671737.484   101026633.966    24671737.160   101026621.980                                  
G16  25293910.195   132920379.571    25293909.799    25293913.043   103574336.336                                                                  
G32  24707563.531   129839122.444    24707563.762    24707569.324   101173365.472    24707569.887   101173361.475    24707567.770    96957805.578  
G01  23983908.719   126036376.849    23983909.151    23983915.254    98210143.099    23983914.496    98210156.081    23983913.570    94118048.718  
G08  20522260.289   107845454.793    20522260.143    20522265.008    84035260.057    20522265.391    84035257.056    20522264.484    80533783.046  
G27  21052986.133   110634195.943    21052986.139    21052991.191    86208493.920    21052991.199    86208502.916    21052990.445    82616477.494  
G14  24504557.453   128772445.065    24504557.615    24504560.727   100342073.535    24504560.980   100342136.554    24504563.973    96161184.659  
G21  22002777.492   115625492.084    22002776.912    22002779.234    90097726.352                                                                  
G10  21070629.891   110727055.928    21070629.995    21070634.742    86280738.869    21070634.262    86280747.865    21070633.406    82685777.501  
G23  22418857.789   117812165.035    22418858.013    22418861.160    91801501.435    22418861.020    91801525.441    22418863.559    87976467.695  
R08  20222751.391   108291936.979    20222750.891   108291921.988    20222753.465    84227112.264    20222752.898    84227071.259  
R15  21461501.602   114683778.280    21461502.137   114683863.276    21461504.594    89198493.867    21461505.078    89198505.865  
R24  19237345.453   102871501.810    19237344.820   102871011.819    19237348.020    80010598.075    19237347.559    80010620.070  
R07  22270132.047   119213830.938    22270132.484   119213795.956    22270135.336    92721857.020    22270137.090    92721734.032  
R17  22072801.508   118116076.886    22072800.898   118116023.889    22072803.719    91868034.679    22072803.180    91868033.662  
R01  21388614.000   114334405.853    21388614.105   114334520.860    21388619.426    88926790.205    21388617.543    88926780.205  
R14  23048526.086   122861624.317    23048524.234   122861734.282    23048528.969    95559038.261    23048528.973    95559023.268  
R23  20287256.508   108523169.270    20287255.645   108523177.282                                                                  
E07  26500804.859   139262668.929    26500807.777   106707772.821    26500807.562   103994863.822    26500808.305   105351320.423  
E31  25499540.781   134000994.674    25499543.258   102676097.785    25499543.953   100065695.061    25499543.758   101370896.532  
E03  28009494.648   147190879.549    28009495.980   112782629.362    28009496.871   109915277.621    28009497.266   111348955.094  
E26  23478795.758   123381924.625    23478795.574    94539407.606    23478796.270    92135866.418    23478796.672    93337639.120  
E01  27002227.586   141897652.296    27002229.684   108726773.846    27002231.066   105962534.852    27002230.473   107344656.953  
E08  23856978.281   125369287.802    23856978.184    96062193.031    23856979.559    93619938.973    23856979.391    94841067.107  
E14  18559121.539    97528854.352    18559122.297    74729905.157    18559123.430    72829995.985    18559123.160    73779953.175  
E24  27257505.992   143239165.125    27257506.809   109754687.576    27257508.254   106964308.609    27257507.914   108359500.194  
E13  26076486.375   137032870.333    26076487.203   104999228.995    26076488.367   102329760.960    26076488.438   103664493.581  
E33  24990896.570   131328048.216    24990896.473   100627993.236    24990897.691    98069658.009    24990897.781    99348829.226  
C26  25291914.555   131701636.541                                    25291904.695   107018342.732  
C20  26641703.703   138730333.356                                    26641688.039   112729702.842  
C13  40379206.625   210265135.597    40379205.723   162590346.361    40379198.551   170857623.314  
C06  39724187.195   206854279.325    39724180.090   159952820.653    39724174.223   168085990.677  
C16  39734304.812   206906957.231    39734302.586   159993607.445    39734294.539   168128914.506  
C27  24199404.266   126012662.850                                    24199394.973   102395582.564  
C05  40190385.383   209281850.697    40190379.406   161829999.631    40190375.277   170058625.215  
C29  23312972.867   121396775.601                                    23312962.555    98644786.002  
C30  21515948.375   112039207.725                                    21515941.098    91041017.630  
C09  40846228.164   212697025.431    40846222.883   164470819.080    40846215.715   172833709.749  
> 2022 01 01 00 15 00.0000000  0 39                     
G30  25170628.969   132272612.591    25170628.719    25170635.625   103069535.106    25170635.598   103069568.113    25170635.016    98774981.293  
G15  24687748.461   129735006.879    24687748.805    24687752.430   101092213.796    24687750.465   101092201.855                                  
G16  25316521.539   133039202.674    25316521.143    25316525.363   103666925.779                                                                  
G32  24688051.406   129736586.306    24688051.637    24688056.914   101093467.188    24688057.430   101093463.201    24688055.742    96881236.382  
G01  23962427.977   125923494.982    23962428.409    23962434.863    98122183.243    23962434.258    98122196.259    23962432.836    94033753.875  
G08  20522004.930   107844111.794    20522004.783    20522009.504    84034213.561    20522010.133    84034210.576    20522008.957    80532780.163  
G27  21065959.844   110702373.763    21065959.849    21065964.988    86261619.479    21065964.711    86261628.483    21065964.355    82667389.484  
G14  24488149.016   128686215.611    24488149.177    24488151.633   100274881.804    24488151.512   100274944.816    24488156.137    96096792.560  
G21  21990513.188   115561044.879    21990512.607    21990515.258    90047507.780                                                                  
G10  21072973.445   110739372.522    21072973.550    21072978.543    86290336.211    21072978.199    86290345.207    21072977.102    82694974.947  
G23  22434013.289   117891807.380    22434013.513    22434016.355    91863560.397    22434016.355    91863584.404    22434019.375    88035940.866  
R08  20221265.641   108283980.977    20221264.945   108283965.985    20221267.836    84220924.256    20221266.836    84220883.251  
R15  21467454.164   114715583.654    21467454.086   114715668.657    21467457.117    89223231.376    21467456.750    89223243.382  
R24  19233320.914   102849984.333    19233320.945   102849494.347    19233324.461    79993862.266    19233324.102    79993884.263  
R07  22288785.461   119313675.113    22288784.809   119313640.139    22288786.547    92799513.604    22288787.371    92799390.624  
R17  22052131.641   118005466.993    22052130.547   118005413.987    22052133.605    91782004.740    22052133.391    91782003.743  
R01  21367660.273   114222395.474    21367660.152   114222510.502    21367665.523    88839671.054    21367664.398    88839661.054  
R14  23071206.180   122982514.983    23071203.922   122982624.973    23071207.688    95653064.266    23071208.578    95653049.231  
R23  20301399.711   108598827.810    20301398.992   108598835.821                                                                  
E07  26485717.172   139183384.487    26485720.207   106647022.471    26485720.715   103935657.986    26485720.902   105291342.329  
E31  25504198.664   134025472.691    25504200.902   102694853.669    25504201.848   100083974.102    25504201.727   101389413.995  
E03  28022385.789   147258624.023    28022388.465   112834537.413    28022389.434   109965865.990    28022388.484   111400203.303  
E26  23480649.328   123391664.863    23480649.027    94546870.904    23480649.711    92143139.974    23480650.164    93345007.548  
E01  27019758.664   141989778.545    27019760.461   108797364.043    27019761.715   106031330.370    27019761.637   107414349.809  
E08  23855818.227   125363192.029    23855818.215    96057522.255    23855819.383    93615386.945    23855819.379    94836455.707  
E14  18579000.367    97633317.647    18579001.023    74809948.435    18579002.172    72908004.257    18579001.902    73858978.953  
E24  27247453.008   143186333.971    27247453.758   109714206.577    27247454.262   106924856.788    27247454.496   108319533.786  
E13  26091315.578   137110801.625    26091317.809   105058942.559    26091317.957   102387956.379    26091318.297   103723448.069  
E33  24978939.266   131265214.422    24978939.637   100579847.849    24978940.980    98022736.685    24978940.781    99301295.876  
C26  25288359.000   131683122.432                                    25288349.531   107003298.518  
C20  26620695.500   138620936.364                                    26620678.820   112640808.825  
C13  40386103.766   210301050.977    40386102.887   162618118.407    40386095.477   170886807.494  
C06  39713772.180   206800039.642    39713764.953   159910879.110    39713758.145   168041916.484  
C16  39725036.195   206858690.466    39725033.117   159956284.550    39725024.992   168089693.826  
C27  24216609.656   126102255.721                                    24216600.453   102468384.098  
C05  40190400.656   209281932.141    40190395.254   161830062.608    40190390.984   170058691.398  
C29  23298556.727   121321705.330                                    23298546.457    98583785.248  
C30  21519164.383   112055954.565                                    21519157.164    91054625.797  
C09  40834864.414   212637855.204    40834860.062   164425064.922    40834852.719   172785629.106  
> 2022 01 01 00 15 30.0000000  0 39                     
G30  25182542.898   132335214.721    25182542.648    25182548.418   103118315.992    25182548.930   103118348.999    25182547.988    98821729.674  
G15  24703844.195   129819586.116    24703844.539    24703847.223   101158119.754    24703847.375   101158107.750                                  
G16  25339132.242   133158023.714    25339131.846    25339135.238   103759513.625                                                                  
G32  24668561.844   129634168.407    24668562.074    24668567.266   101013661.088    24668567.195   101013657.105    24668566.734    96804755.540  
G01  23940969.781   125810733.785    23940970.214    23940976.879    98034317.398    23940976.098    98034330.410    23940975.168    93949549.142  
G08  20521853.930   107843319.747    20521853.783    20521858.723    84033596.383    20521859.371    84033593.388    20521858.293    80532188.700  
G27  21079020.031   110771001.797    21079020.037    21079024.238    86315095.847    21079023.922    86315104.836    21079023.969    82718637.657  
G14  24471809.148   128600353.328    24471809.310    24471812.555   100207976.106    24471813.203   100208039.091    24471816.855    96032674.681  
G21  21978304.859   115496887.437    21978304.279    21978305.840    89997514.960                                                                  
G10  21075424.273   110752252.953    21075424.378    21075429.520    86300372.912    21075428.996    86300381.915    21075428.156    82704593.465  
G23  22449242.344   117971841.438    22449242.568    22449246.559    91925924.594    22449246.504    91925948.595    22449249.445    88095706.547  
R08  20219938.656   108276868.697    20219936.926   108276853.712    20219939.758    84215392.494    20219939.602    84215351.498  
R15  21473558.070   114748199.842    21473557.906   114748284.853    21473561.020    89248599.524    21473560.246    89248611.537  
R24  19229401.086   102829022.197    19229401.238   102828532.206    19229404.293    79977558.384    19229404.207    79977580.379  
R07  22307533.719   119414036.417    22307533.770   119414001.422    22307536.852    92877572.406    22307538.602    92877449.377  
R17  22031494.914   117895032.892    22031493.762   117894979.906    22031496.570    91696111.569    22031496.805    91696110.578  
R01  21346795.742   114110861.535    21346795.223   114110976.557    21346800.688    88752922.464    21346800.117    88752912.478  
R14  23093937.695   123103694.855    23093937.109   123103804.780    23093940.785    95747315.126    23093943.039    95747300.226  
R23  20315624.289   108674917.072    20315623.426   108674925.085                                                                  
E07  26470675.344   139104341.725    26470678.652   106586457.237    26470679.066   103876632.549    26470679.586   105231547.001  
E31  25508942.133   134050400.674    25508944.461   102713954.327    25508945.324   100102589.151    25508945.359   101408271.844  
E03  28035332.586   147326661.558    28035334.809   112886670.031    28035335.367   110016673.226    28035335.730   111451673.238  
E26  23482558.438   123401696.863    23482558.066    94554557.761    23482558.711    92150631.406    23482559.188    93352596.691  
E01  27037318.641   142082056.016    27037320.523   108868070.125    27037321.555   106100238.800    27037321.574   107484157.067  
E08  23854746.102   125357556.409    23854746.051    96053204.036    23854746.824    93611178.517    23854746.926    94832192.385  
E14  18599127.203    97739085.093    18599127.746    74890990.987    18599129.012    72986986.390    18599128.824    73938991.300  
E24  27237471.078   143133876.646    27237470.703   109674011.981    27237472.160   106885684.093    27237472.160   108279850.145  
E13  26106167.344   137188847.210    26106168.785   105118743.687    26106169.070   102446237.130    26106169.883   103782489.017  
E33  24967018.922   131202570.345    24967018.941   100531847.854    24967019.523    97975957.022    24967019.938    99253906.043  
C26  25284900.664   131665117.172                                    25284891.863   106988667.727  
C20  26599690.703   138511559.840                                    26599674.590   112551931.447  
C13  40392999.352   210336961.038    40392999.227   162645886.343    40392991.645   170915987.362  
C06  39703374.312   206745906.158    39703369.551   159869019.701    39703361.891   167997928.595  
C16  39715790.469   206810550.378    39715788.246   159919059.560    39715780.355   168050576.049  
C27  24233848.477   126192023.977                                    24233839.625   102541328.138  
C05  40190416.914   209282017.734    40190411.773   161830128.798    40190407.406   170058760.950  
C29  23284185.008   121246870.071                                    23284174.562    98522975.476  
C30  21522458.602   112073107.851                                    21522451.336    91068564.248  
C09  40823513.805   212578746.967    40823508.766   164379358.692    40823501.809   172737598.851  
> 2022 01 01 00 16 00.0000000  0 39                     
G30  25194531.172   132398210.779    25194530.922    25194535.707   103167403.824    25194535.902   103167436.866    25194535.926    98868772.176  
G15  24720018.398   129904580.742    24720018.742    24720021.898   101224349.179    24720021.395   101224337.207                                  
G16  25361742.633   133276840.152    25361742.237    25361744.941   103852097.916                                                                  
G32  24649094.750   129531871.786    24649094.980    24649101.254   100933949.453    24649100.926   100933945.445    24649100.590    96728365.209  
G01  23919535.164   125698094.859    23919535.597    23919541.961    97946546.872    23919541.020    97946559.843    23919540.680    93865435.720  
G08  20521808.336   107843079.589    20521808.190    20521813.004    84033409.251    20521813.535    84033406.257    20521812.695    80532009.366  
G27  21092164.039   110840078.603    21092164.045    21092168.949    86368921.916    21092168.812    86368930.912    21092168.789    82770220.971  
G14  24455541.547   128514860.794    24455541.709    24455544.332   100141358.582    24455544.203   100141421.566    24455547.695    95968832.852  
G21  21966150.820   115433020.906    21966150.240    21966152.723    89947748.815                                                                  
G10  21077983.156   110765696.698    21077983.261    21077987.758    86310848.564    21077987.328    86310857.559    21077986.293    82714632.624  
G23  22464547.133   118052264.982    22464547.357    22464550.426    91988592.268    22464550.223    91988616.269    22464554.227    88155763.074  
R08  20218767.062   108270600.922    20218766.223   108270585.916    20218768.961    84210517.550    20218768.629    84210476.545  
R15  21479813.852   114781625.102    21479813.172   114781710.111    21479815.922    89274596.945    21479815.562    89274608.951  
R24  19225585.484   102808616.358    19225585.113   102808126.366    19225588.320    79961687.181    19225588.090    79961709.186  
R07  22326378.336   119514910.921    22326378.090   119514875.924    22326381.012    92956030.281    22326381.973    92955907.279  
R17  22010890.781   117784776.623    22010889.742   117784723.618    22010892.703    91610356.686    22010892.008    91610355.698  
R01  21326020.648   113999808.001    21326020.371   113999923.001    21326025.793    88666547.526    21326024.789    88666537.542  
R14  23116725.781   123225159.333    23116723.766   123225269.340    23116728.172    95841787.464    23116727.551    95841772.495  
R23  20329929.594   108751435.299    20329928.102   108751443.303                                                                  
E07  26455680.414   139025542.421    26455683.539   106526078.633    26455684.004   103817788.990    26455684.492   105171935.910  
E31  25513770.977   134075778.102    25513773.395   102733399.377    25513774.270   100121539.835    25513774.566   101427469.715  
E03  28048335.758   147394990.414    28048338.555   112939025.886    28048336.688   110067697.967    28048338.199   111503363.536  
E26  23484522.992   123412020.635    23484522.520    94562468.186    23484523.234    92158340.718    23484523.727    93360406.553  
E01  27054906.938   142174482.961    27054909.070   108938890.726    27054910.051   106169258.906    27054909.777   107554077.417  
E08  23853761.023   125352381.146    23853761.285    96049238.580    23853762.133    93607313.879    23853762.117    94828277.334  
E14  18619501.203    97846149.724    18619501.445    74973027.484    18619502.762    73066937.215    18619502.602    74019984.958  
E24  27227559.875   143081794.579    27227560.281   109634104.959    27227561.410   106846791.662    27227561.105   108240450.414  
E13  26121040.797   137267006.517    26121042.645   105178631.964    26121043.152   102504602.845    26121043.082   103841616.006  
E33  24955134.344   131140116.750    24955134.543   100483993.812    24955134.820    97929319.600    24955135.531    99206660.307  
C26  25281540.953   131647621.592                                    25281532.629   106974451.139  
C20  26578690.328   138402205.856                                    26578674.559   112463072.366  
C13  40399895.352   210372866.129    40399894.852   162673650.434    40399886.684   170945163.187  
C06  39693000.812   206691879.625    39692994.160   159827242.960    39692987.535   167954027.629  
C16  39706568.984   206762537.359    39706568.359   159881932.869    39706559.371   168011561.561  
C27  24251120.953   126281966.755                                    24251112.609   102614413.981  
C05  40190434.812   209282107.539    40190429.285   161830198.234    40190424.652   170058833.919  
C29  23269859.297   121172271.329                                    23269848.816    98462357.885  
C30  21525830.391   112090667.671                                    21525823.438    91082833.034  
C09  40812174.305   212519701.370    40812170.031   164333700.934    40812162.387   172689619.497  
> 2022 01 01 00 16 30.0000000  0 39                     
G30  25206592.836   132461598.357    25206592.586    25206598.148   103216796.719    25206599.109   103216829.712    25206597.879    98916106.990  
G15  24736271.773   129989988.035    24736272.117    24736272.359   101290900.337    24736272.211   101290888.354                                  
G16  25384351.227   133395649.354    25384350.831    25384354.062   103944676.458                                                                  
G32  24629652.172   129429699.314    24629652.402    24629658.598   100854334.525    24629658.309   100854330.552    24629657.641    96652067.589  
G01  23898123.875   125585579.699    23898124.307    23898130.531    97858872.705    23898130.277    97858885.729    23898129.453    93781414.693  
G08  20521867.469   107843391.208    20521867.322    20521872.293    84033652.060    20521872.746    84033649.067    20521871.930    80532242.064  
G27  21105394.203   110909602.678    21105394.209    21105398.793    86423096.489    21105399.008    86423105.487    21105398.898    82822138.258  
G14  24439343.430   128429740.873    24439343.591    24439346.332   100075031.408    24439346.051   100075094.414    24439350.301    95905269.279  
G21  21954052.992   115369445.552    21954052.412    21954054.930    89898209.606                                                                  
G10  21080648.281   110779702.938    21080648.386    21080653.023    86321762.524    21080652.527    86321771.534    21080651.504    82725091.831  
G23  22479924.969   118133075.534    22479925.193    22479928.539    92051561.525    22479927.969    92051585.531    22479931.566    88216108.611  
R08  20217753.891   108265177.297    20217753.473   108265162.306    20217756.566    84206299.182    20217755.922    84206258.177  
R15  21486219.312   114815857.589    21486219.121   114815942.600    21486221.730    89301222.202    21486221.426    89301234.215  
R24  19221873.391   102788767.643    19221872.852   102788277.658    19221876.082    79946249.296    19221876.180    79946271.292  
R07  22345317.766   119616294.463    22345317.340   119616259.479    22345320.516    93034884.111    22345320.703    93034761.130  
R17  21990320.109   117674700.168    21990319.012   117674647.170    21990322.211    91524741.690    21990322.199    91524740.693  
R01  21305336.180   113889238.953    21305336.141   113889353.973    21305341.348    88580549.421    21305341.215    88580539.444  
R14  23139562.023   123346904.184    23139562.277   123347014.214    23139567.531    95936477.873    23139569.352    95936462.848  
R23  20344313.734   108828381.271    20344312.809   108828389.281                                                                  
E07  26440732.383   138946988.367    26440735.578   106465887.900    26440735.805   103759128.536    26440736.156   105112510.319  
E31  25518685.656   134101604.312    25518687.926   102753188.294    25518688.766   100140825.639    25518689.152   101447007.072  
E03  28061392.273   147463609.060    28061396.562   112991603.712    28061396.148   110118939.090    28061395.758   111555273.013  
E26  23486543.102   123422636.037    23486542.621    94570602.068    23486543.340    92166267.801    23486543.762    93368437.036  
E01  27072523.297   142267057.386    27072525.219   109009824.339    27072526.414   106238389.126    27072526.062   107624109.344  
E08  23852863.922   125347666.366    23852864.117    96045625.959    23852865.266    93603793.098    23852864.941    94824710.627  
E14  18640120.383    97954504.377    18640120.668    75056052.440    18640122.000    73147851.358    18640121.867    74101954.504  
E24  27217721.289   143030089.263    27217721.258   109594486.575    27217721.629   106808180.556    27217721.824   108201335.666  
E13  26135935.297   137345278.928    26135937.391   105238606.902    26135936.945   102563052.977    26135937.852   103900828.542  
E33  24943286.117   131077854.229    24943286.023   100436286.164    24943287.074    97882824.857    24943287.402    99159559.113  
C26  25278278.258   131630636.135                                    25278270.211   106960649.062  
C20  26557694.016   138292876.347                                    26557678.965   112374233.156  
C13  40406789.180   210408766.175    40406788.891   162701410.619    40406780.918   170974334.901  
C06  39682645.609   206637960.367    39682638.781   159785549.169    39682632.926   167910213.836  
C16  39697374.719   206714651.965    39697372.547   159844904.842    39697363.531   167972650.751  
C27  24268427.281   126372082.947                                    24268418.301   102687640.765  
C05  40190452.477   209282201.625    40190447.039   161830270.988    40190442.832   170058910.373  
C29  23255578.984   121097910.482                                    23255568.660    98401933.608  
C30  21529280.766   112108634.002                                    21529273.676    91097432.163  
C09  40800846.672   212460718.766    40800843.164   164288091.862    40800835.277   172641691.309  
> 2022 01 01 00 17 00.0000000  0 39                     
G30  25218728.250   132525374.680    25218728.000    25218734.289   103266492.532    25218735.023   103266525.524    25218734.227    98963732.160  
G15  24752601.148   130075805.094    24752601.492    24752604.066   101357770.704    24752604.801   101357758.643                                  
G16  25406958.031   133514448.475    25406957.635    25406960.699   104037247.204                                                                  
G32  24610234.180   129327653.554    24610234.410    24610239.664   100774818.382    24610240.117   100774814.378    24610238.965    96575864.618  
G01  23876736.266   125473189.616    23876736.698    23876743.059    97771296.033    23876743.043    97771309.048    23876741.996    93697487.057  
G08  20522031.617   107844255.111    20522031.471    20522036.812    84034325.225    20522037.387    84034322.231    20522036.188    80532887.180  
G27  21118708.977   110979572.206    21118708.982    21118713.621    86477618.196    21118713.652    86477627.200    21118713.660    82874388.225  
G14  24423216.438   128344995.679    24423216.599    24423219.645   100008996.204    24423219.023   100009059.198    24423223.793    95841985.622  
G21  21942010.797   115306162.181    21942010.217    21942012.520    89848897.879                                                                  
G10  21083419.945   110794270.719    21083420.050    21083425.191    86333114.030    21083424.781    86333123.032    21083423.559    82735970.347  
G23  22495376.367   118214270.452    22495376.592    22495379.195    92114830.319    22495378.973    92114854.323    22495382.594    88276741.187  
R08  20216898.672   108260597.700    20216898.352   108260582.715    20216901.301    84202737.280    20216900.879    84202696.282  
R15  21492776.594   114850895.564    21492776.012   114850980.573    21492778.375    89328473.972    21492778.414    89328485.971  
R24  19218266.375   102769476.406    19218265.797   102768986.420    19218268.629    79931245.002    19218269.227    79931267.005  
R07  22364350.227   119718182.866    22364350.055   119718147.880    22364354.277    93114130.644    22364355.113    93114007.648  
R17  21969785.000   117564805.195    21969782.605   117564752.203    21969785.453    91439267.827    21969785.484    91439266.822  
R01  21284743.547   113779157.732    21284743.055   113779272.740    21284748.582    88494930.722    21284748.426    88494920.715  
R14  23162455.047   123468924.830    23162453.102   123469034.808    23162457.930    96031382.664    23162459.641    96031367.721  
R23  20358777.539   108905753.205    20358776.645   108905761.216                                                                  
E07  26425831.062   138868681.207    26425833.797   106405886.344    26425834.562   103700652.451    26425834.793   105053271.503  
E31  25523685.508   134127878.419    25523688.238   102773320.398    25523689.020   100160445.903    25523688.984   101466883.257  
E03  28074505.828   147532515.746    28074508.844   113044402.342    28074507.828   110170395.352    28074508.520   111607400.446  
E26  23488618.609   123433542.618    23488618.086    94578959.063    23488618.875    92174412.333    23488619.215    93376687.805  
E01  27090167.297   142359777.128    27090169.117   109080869.314    27090170.473   106307627.845    27090170.176   107694251.192  
E08  23852054.438   125343411.846    23852054.922    96042366.009    23852055.828    93600616.029    23852055.316    94821492.126  
E14  18660983.828    98064141.593    18660983.789    75140060.131    18660985.152    73229723.258    18660985.184    74184894.299  
E24  27207953.602   142978761.788    27207953.551   109555157.727    27207954.301   106769851.572    27207954.641   108162506.754  
E13  26150851.344   137423663.536    26150852.871   105298667.806    26150853.387   102621586.910    26150853.934   103960125.958  
E33  24931474.555   131015783.211    24931474.570   100388725.249    24931475.379    97836473.123    24931475.637    99112602.789  
C26  25275115.516   131614161.029                                    25275106.090   106947261.724  
C20  26536703.000   138183572.989                                    26536687.684   112285415.194  
C13  40413682.461   210444660.755    40413682.016   162729166.574    40413673.781   171003502.177  
C06  39672312.195   206584148.653    39672304.305   159743938.542    39672298.664   167866487.409  
C16  39688203.633   206666894.255    39688201.043   159807975.579    39688192.840   167933843.711  
C27  24285765.898   126462371.313                                    24285757.180   102761007.419  
C05  40190471.820   209282299.714    40190465.750   161830346.831    40190461.574   170058990.069  
C29  23241344.977   121023788.710                                    23241334.176    98341703.597  
C30  21532809.141   112127006.531                                    21532801.832    91112361.337  
C09  40789532.109   212401799.558    40789528.301   164242531.799    40789520.594   172593814.610  
> 2022 01 01 00 17 30.0000000  0 39                     
G30  25230938.688   132589537.576    25230938.437    25230944.508   103316489.591    25230944.484   103316522.595    25230943.852    99011646.004  
G15  24769009.633   130162029.273    24769009.977    24769011.418   101424958.372    24769009.637   101424946.363                                  
G16  25429562.281   133633236.221    25429561.885    25429565.188   104129809.131                                                                  
G32  24590839.914   129225737.788    24590840.144    24590845.887   100695403.489    24590846.117   100695399.492    24590845.309    96499758.689  
G01  23855373.742   125360926.449    23855374.175    23855380.242    97683818.289    23855380.141    97683831.274    23855379.004    93613654.192  
G08  20522301.633   107845672.084    20522301.486    20522306.422    84035429.350    20522307.039    84035426.356    20522305.895    80533945.306  
G27  21132108.523   111049985.893    21132108.529    21132113.023    86532485.984    21132113.004    86532494.988    21132113.059    82926969.842  
G14  24407162.727   128260628.307    24407162.888    24407164.723    99943255.357    24407165.199    99943318.355    24407167.930    95778983.985  
G21  21930024.227   115243171.738    21930023.647    21930025.727    89799814.421                                                                  
G10  21086298.836   110809399.529    21086298.940    21086304.055    86344902.708    21086303.500    86344911.719    21086302.309    82747267.841  
G23  22510900.539   118295847.677    22510900.763    22510902.750    92178396.970    22510902.617    92178420.966    22510906.492    88337659.240  
R08  20216201.477   108256862.460    20216200.777   108256847.467    20216203.562    84199832.095    20216203.711    84199791.097  
R15  21499483.922   114886737.380    21499483.207   114886822.375    21499486.031    89356350.937    21499485.512    89356362.942  
R24  19214763.688   102750744.536    19214762.875   102750254.539    19214765.719    79916675.761    19214765.930    79916697.757  
R07  22383478.125   119820572.572    22383477.785   119820537.569    22383480.168    93193767.049    22383480.457    93193644.045  
R17  21949282.367   117455094.029    21949280.832   117455041.046    21949282.844    91353936.925    21949283.047    91353935.920  
R01  21264243.297   113669568.976    21264242.355   113669683.998    21264248.000    88409695.056    21264246.414    88409685.079  
R14  23185393.242   123591216.798    23185394.469   123591326.840    23185399.723    96126498.650    23185399.117    96126483.596  
R23  20373321.039   108983550.249    20373319.531   108983558.253                                                                  
E07  26410976.383   138790623.032    26410980.023   106346075.554    26410980.691   103642362.283    26410980.746   104994221.020  
E31  25528770.570   134154600.065    25528773.238   102793795.426    25528773.828   100180400.392    25528773.918   101487098.010  
E03  28087672.164   147601708.972    28087674.840   113097420.520    28087673.863   110222065.606    28087675.445   111659744.665  
E26  23490749.383   123444740.623    23490748.945    94587539.336    23490749.746    92182774.470    23490750.129    93385159.007  
E01  27107838.289   142452640.707    27107840.668   109152024.456    27107841.812   106376973.945    27107841.645   107764501.810  
E08  23851332.617   125339618.042    23851333.199    96039459.071    23851334.016    93597782.999    23851333.367    94818622.135  
E14  18682089.930    98175054.470    18682089.969    75225045.299    18682091.051    73312547.789    18682091.219    74268799.150  
E24  27198258.633   142927813.860    27198258.309   109516119.722    27198259.543   106731806.063    27198259.566   108123964.993  
E13  26165788.859   137502160.050    26165790.582   105358814.453    26165790.477   102680204.412    26165791.355   104019508.038  
E33  24919699.211   130953904.621    24919699.754   100341311.789    24919700.656    97790265.096    24919700.496    99065792.049  
C26  25272049.750   131598197.039                                    25272040.875   106934289.670  
C20  26515717.773   138074298.074                                    26515702.625   112196620.358  
C13  40420574.102   210480550.039    40420573.910   162756918.447    40420565.918   171032665.162  
C06  39661997.375   206530445.233    39661991.137   159702411.641    39661985.418   167822848.990  
C16  39679056.258   206619265.039    39679053.938   159771145.627    39679046.016   167895141.056  
C27  24303137.492   126552831.039                                    24303128.758   102834513.350  
C05  40190490.961   209282402.162    40190485.191   161830426.039    40190481.211   170059073.312  
C29  23227156.391   120949907.740                                    23227146.605    98281669.253  
C30  21536415.562   112145785.515                                    21536408.125    91127620.802  
C09  40778229.930   212342944.411    40778225.879   164197021.287    40778217.887   172545989.969  
> 2022 01 01 00 18 00.0000000  0 39                     
G30  25243221.320   132654084.197    25243221.070    25243226.945   103366785.683    25243227.070   103366818.680    25243226.520    99059846.423  
G15  24785494.781   130248657.209    24785495.125    24785496.656   101492460.635    24785497.539   101492448.633                                  
G16  25452164.023   133752009.172    25452163.628    25452166.531   104222359.504                                                                  
G32  24571470.586   129123954.420    24571470.816    24571476.973   100616091.811    24571477.238   100616087.835    24571476.250    96423751.673  
G01  23834034.945   125248791.390    23834035.378    23834041.512    97596440.362    23834041.973    97596453.378    23834040.262    93529917.019  
G08  20522676.086   107847641.490    20522675.940    20522681.355    84036963.966    20522681.488    84036960.958    20522680.727    80535415.973  
G27  21145592.242   111120841.915    21145592.248    21145596.551    86587698.456    21145596.609    86587707.459    21145596.660    82979881.789  
G14  24391179.766   128176641.080    24391179.927    24391183.391    99877810.805    24391182.922    99877873.813    24391186.352    95716266.261  
G21  21918092.953   115180474.797    21918092.373    21918094.527    89750959.664                                                                  
G10  21089284.234   110825088.290    21089284.339    21089289.559    86357127.720    21089288.867    86357136.723    21089287.508    82758983.463  
G23  22526495.992   118377804.475    22526496.217    22526498.383    92242259.418    22526498.344    92242283.417    22526501.574    88398860.752  
R08  20215661.688   108253970.692    20215660.738   108253955.694    20215663.535    84197582.943    20215663.055    84197541.953  
R15  21506340.766   114923380.758    21506340.496   114923465.754    21506343.574    89384851.339    21506343.332    89384863.344  
R24  19211364.594   102732572.148    19211364.852   102732082.163    19211367.324    79902541.683    19211367.809    79902563.677  
R07  22402698.023   119923459.618    22402698.078   119923424.608    22402700.328    93273790.317    22402699.422    93273667.328  
R17  21928814.180   117345568.394    21928813.383   117345515.423    21928815.492    91268750.313    21928815.652    91268749.308  
R01  21243834.953   113560476.265    21243834.223   113560591.258    21243839.836    88324845.190    21243839.707    88324835.199  
R14  23208390.828   123713775.728    23208386.629   123713885.704    23208391.562    96221822.103    23208393.695    96221807.098  
R23  20387942.820   109061770.352    20387941.742   109061778.364                                                                  
E07  26396170.422   138712815.283    26396173.590   106286456.697    26396173.867   103584259.141    26396174.395   104935360.017  
E31  25533940.461   134181768.274    25533942.777   102814612.621    25533943.609   100200688.336    25533943.805   101507650.584  
E03  28100894.102   147671186.759    28100896.875   113150656.702    28100896.477   110273948.373    28100896.383   111712304.143  
E26  23492935.719   123456229.556    23492935.113    94596342.543    23492935.953    92191353.870    23492936.391    93393850.314  
E01  27125537.344   142545645.822    27125538.871   109223288.077    27125540.062   106446425.792    27125539.926   107834859.547  
E08  23850698.031   125336284.673    23850698.973    96036904.933    23850699.367    93595293.792    23850699.031    94816100.467  
E14  18703437.125    98287235.289    18703437.293    75311002.001    18703438.152    73396319.141    18703438.551    74353663.179  
E24  27188635.766   142877246.518    27188636.086   109477373.302    27188637.086   106694044.727    27188636.996   108085711.126  
E13  26180747.133   137580767.479    26180748.543   105419046.094    26180749.383   102738904.733    26180749.844   104078974.018  
E33  24907960.828   130892218.778    24907961.395   100294046.016    24907962.164    97744200.986    24907962.047    99019127.107  
C26  25269082.758   131582744.384                                    25269073.336   106921733.126  
C20  26494739.023   137965053.194                                    26494724.957   112107849.917  
C13  40427465.555   210516433.902    40427465.184   162784666.119    40427457.074   171061823.728  
C06  39651706.203   206476850.198    39651699.828   159660968.615    39651692.840   167779298.644  
C16  39669933.578   206571764.283    39669932.008   159734415.034    39669923.918   167856542.812  
C27  24320542.477   126643460.763                                    24320533.344   102908157.403  
C05  40190511.914   209282508.620    40190505.695   161830508.358    40190501.754   170059159.816  
C29  23213014.656   120876268.621                                    23213004.656    98221831.431  
C30  21540099.688   112164970.567                                    21540092.453    91143210.227  
C09  40766939.766   212284153.607    40766935.312   164151560.510    40766927.871   172498217.625  
> 2022 01 01 00 18 30.0000000  0 39                     
G30  25255576.391   132719012.124    25255576.140    25255582.375   103417378.860    25255582.168   103417411.873    25255582.258    99108331.541  
G15  24802055.445   130335686.536    24802055.789    24802058.094   101560275.581    24802057.844   101560263.525                                  
G16  25474763.289   133870764.510    25474762.893    25474764.848   104314896.159                                                                  
G32  24552128.578   129022306.670    24552128.808    24552134.211   100536885.755    24552134.395   100536881.759    24552133.238    96347845.877  
G01  23812721.438   125136786.157    23812721.870    23812727.625    97509163.604    23812727.414    97509176.619    23812726.445    93446276.799  
G08  20523156.453   107850164.217    20523156.307    20523161.387    84038929.720    20523161.703    84038926.719    20523160.746    80537299.827  
G27  21159159.227   111192138.821    21159159.232    21159163.941    86643254.481    21159164.207    86643263.486    21159164.016    83033122.978  
G14  24375270.023   128093036.610    24375270.185    24375273.559    99812664.436    24375273.344    99812727.437    24375277.016    95653834.354  
G21  21906218.422   115118072.434    21906217.842    21906220.109    89702334.438                                                                  
G10  21092376.359   110841336.295    21092376.464    21092381.230    86369788.511    21092380.945    86369797.506    21092379.215    82771116.729  
G23  22542163.094   118460138.557    22542163.318    22542165.730    92306415.855    22542165.988    92306439.848    22542170.258    88460344.004  
R08  20215279.148   108251923.056    20215278.281   108251908.064    20215280.961    84195990.339    20215280.602    84195949.342  
R15  21513347.891   114960824.014    21513347.688   114960909.024    21513350.637    89413973.868    21513350.297    89413985.874  
R24  19208071.828   102714960.473    19208071.340   102714470.482    19208073.703    79888843.712    19208074.426    79888865.713  
R07  22422009.148   120026839.858    22422010.137   120026804.870    22422012.844    93354197.200    22422012.359    93354074.196  
R17  21908381.750   117236230.459    21908380.715   117236177.460    21908382.867    91183709.676    21908382.703    91183708.673  
R01  21223520.695   113451883.529    21223519.422   113451998.529    21223525.555    88240384.212    21223525.012    88240374.199  
R14  23231428.414   123836597.011    23231427.617   123836707.062    23231433.055    96317349.785    23231434.512    96317334.803  
R23  20402643.312   109140412.317    20402642.574   109140420.343                                                                  
E07  26381411.719   138635260.007    26381415.441   106227031.258    26381415.938   103526344.533    26381416.086   104876689.998  
E31  25539194.969   134209382.506    25539197.477   102835771.578    25539198.609   100221309.337    25539198.668   101528540.561  
E03  28114169.414   147740947.530    28114172.258   113204109.717    28114171.918   110326042.425    28114171.406   111765077.670  
E26  23495177.344   123468009.426    23495176.566    94605368.682    23495177.750    92200150.523    23495178.035    93402761.707  
E01  27143262.062   142638790.735    27143264.020   109294658.830    27143264.734   106515982.023    27143264.805   107905323.032  
E08  23850151.633   125333411.921    23850152.219    96034703.743    23850152.746    93593148.558    23850152.371    94813927.251  
E14  18725024.203    98400676.839    18725024.551    75397924.730    18725025.207    73481031.966    18725025.777    74439480.958  
E24  27179085.891   142827061.335    27179085.871   109438919.757    27179087.078   106656568.789    27179087.195   108047746.381  
E13  26195726.992   137659485.357    26195727.887   105479362.376    26195729.117   102797687.549    26195729.430   104138523.570  
E33  24896259.000   130830726.470    24896259.664   100246928.519    24896260.078    97698281.404    24896260.449    98972608.569  
C26  25266213.648   131567803.657                                    25266204.102   106909592.578  
C20  26473766.156   137855840.444                                    26473749.828   112019105.580  
C13  40434356.023   210552312.365    40434355.488   162812409.616    40434347.312   171090977.908  
C06  39641434.234   206423364.327    39641428.211   159619609.935    39641421.711   167735836.967  
C16  39660837.289   206524392.652    39660834.738   159697784.295    39660826.086   167818049.485  
C27  24337979.383   126734259.648                                    24337970.113   102981938.916  
C05  40190533.203   209282619.287    40190527.344   161830593.935    40190522.863   170059249.743  
C29  23198919.938   120802872.923                                    23198909.809    98162191.426  
C30  21543861.906   112184561.788                                    21543854.824    91159129.693  
C09  40755661.625   212225427.707    40755657.414   164106149.923    40755650.293   172450498.039  
> 2022 01 01 00 19 00.0000000  0 39                     
G30  25268004.234   132784318.830    25268003.984    25268010.055   103468267.185    25268009.586   103468300.175    25268009.465    99157099.516  
G15  24818691.930   130423114.268    24818692.273    24818693.898   101628400.980    24818694.867   101628389.025                                  
G16  25497356.156   133989500.298    25497355.760    25497360.012   104407417.489                                                                  
G32  24532812.047   128920797.144    24532812.277    24532817.605   100457787.456    24532817.492   100457783.445    24532816.691    96272043.325  
G01  23791432.484   125024912.207    23791432.917    23791439.129    97421989.113    23791438.480    97422002.129    23791437.543    93362734.603  
G08  20523742.008   107853240.085    20523741.861    20523746.434    84041326.500    20523746.719    84041323.499    20523746.129    80539596.742  
G27  21172810.742   111263874.918    21172810.748    21172814.941    86699152.725    21172814.957    86699161.730    21172814.859    83086692.120  
G14  24359433.422   128009817.549    24359433.584    24359438.215    99747818.434    24359437.887    99747881.430    24359440.488    95591690.290  
G21  21894399.781   115055965.050    21894399.201    21894401.008    89653939.076                                                                  
G10  21095574.297   110858142.685    21095574.401    21095579.219    86382884.396    21095578.742    86382893.399    21095577.152    82783666.952  
G23  22557902.422   118542847.455    22557902.646    22557905.074    92370864.345    22557904.992    92370888.374    22557908.477    88522107.150  
R08  20215054.320   108250719.081    20215053.336   108250704.095    20215056.133    84195053.925    20215056.129    84195012.927  
R15  21520504.477   114999064.999    21520504.000   114999150.002    21520506.809    89443716.852    21520506.590    89443728.856  
R24  19204882.531   102697910.515    19204882.742   102697420.523    19204885.309    79875582.625    19204885.828    79875604.634  
R07  22441413.031   120130709.126    22441413.688   120130674.116    22441416.500    93434984.443    22441416.492    93434861.433  
R17  21887984.703   117127082.242    21887983.605   117127029.244    21887986.477    91098816.608    21887986.328    91098815.612  
R01  21203300.703   113343794.655    21203299.379   113343909.655    21203305.137    88156315.114    21203304.891    88156305.092  
R14  23254518.203   123959676.629    23254517.258   123959786.611    23254522.332    96413078.258    23254522.117    96413063.289  
R23  20417423.312   109219474.433    20417422.965   109219482.452                                                                  
E07  26366702.398   138557958.814    26366705.535   106167800.503    26366705.715   103468619.645    26366706.129   104818212.179  
E31  25544534.641   134237441.960    25544537.105   102857271.666    25544538.008   100242262.821    25544538.270   101549767.352  
E03  28127497.805   147810989.533    28127499.176   113257778.205    28127499.977   110378346.422    28127500.246   111818063.919  
E26  23497474.156   123480080.006    23497473.645    94614617.578    23497474.742    92209164.271    23497474.984    93411893.027  
E01  27161013.586   142732073.523    27161014.992   109366135.202    27161016.070   106585641.201    27161015.996   107975890.803  
E08  23849692.398   125330999.781    23849693.152    96032855.471    23849693.809    93591347.291    23849693.348    94812102.483  
E14  18746849.656    98515371.573    18746850.051    75485807.687    18746850.652    73566680.612    18746851.461    74526246.754  
E24  27169608.906   142777259.585    27169608.629   109400759.973    27169610.637   106619379.191    27169610.109   108010071.686  
E13  26210727.633   137738312.983    26210729.117   105539762.722    26210729.414   102856552.302    26210729.895   104198156.122  
E33  24884594.516   130769428.190    24884594.973   100199959.730    24884595.676    97652506.723    24884595.828    98926236.829  
C26  25263442.883   131553375.293                                    25263433.250   106897868.384  
C20  26452799.891   137746661.672                                    26452783.379   111930388.919  
C13  40441244.367   210588185.394    40441244.488   162840148.913    40441236.293   171120127.681  
C06  39631183.711   206369987.845    39631177.355   159578335.875    39631171.754   167692464.247  
C16  39651764.633   206477150.415    39651762.348   159661253.616    39651753.879   167779661.314  
C27  24355448.289   126825226.499                                    24355439.504   103055856.908  
C05  40190555.375   209282733.988    40190549.191   161830682.617    40190545.020   170059342.937  
C29  23184872.039   120729721.973                                    23184862.254    98102750.285  
C30  21547702.289   112204559.002                                    21547695.082    91175379.069  
C09  40744396.156   212166767.136    40744392.859   164060789.844    40744385.363   172402831.554  
> 2022 01 01 00 19 30.0000000  0 39                     
G30  25280503.055   132850001.784    25280502.805    25280508.672   103519448.717    25280509.195   103519481.732    25280508.793    99206148.496  
G15  24835404.352   130510937.738    24835404.695    24835407.930   101696834.815    24835407.324   101696822.811                                  
G16  25519948.680   134108214.226    25519948.284    25519950.496   104499921.860                                                                  
G32  24513523.336   128819428.722    24513523.566    24513527.941   100378799.083    24513528.102   100378795.056    24513526.844    96196346.130  
G01  23770168.562   124913171.032    23770168.995    23770175.207    97334918.099    23770175.957    97334931.118    23770173.816    93279291.568  
G08  20524432.422   107856869.545    20524432.276    20524437.113    84044154.643    20524437.406    84044151.642    20524436.742    80542307.054  
G27  21186544.578   111336048.511    21186544.584    21186549.262    86755391.879    21186549.391    86755400.875    21186549.094    83140587.976  
G14  24343671.664   127926986.301    24343671.826    24343675.262    99683274.697    24343675.707    99683337.684    24343678.527    95529835.802  
G21  21882637.148   114994153.437    21882636.568    21882638.836    89605774.181                                                                  
G10  21098878.719   110875506.519    21098878.823    21098883.492    86396414.653    21098882.953    86396423.656    21098881.152    82796633.447  
G23  22573711.266   118625928.698    22573711.490    22573714.898    92435602.962    22573714.844    92435626.966    22573718.715    88584148.315  
R08  20214986.391   108250358.231    20214986.078   108250343.247    20214988.852    84194773.265    20214988.805    84194732.267  
R15  21527809.328   115038101.813    21527809.094   115038186.809    21527811.855    89474078.812    21527811.336    89474090.810  
R24  19201799.992   102681423.052    19201799.910   102680933.061    19201802.059    79862759.040    19201802.285    79862781.035  
R07  22460907.562   120235063.623    22460908.594   120235028.651    22460911.820    93516149.002    22460911.258    93516026.017  
R17  21867622.406   117018125.448    21867621.941   117018072.472    21867625.492    91014072.465    21867625.613    91014071.471  
R01  21183175.281   113236213.391    21183174.254   113236328.397    21183179.781    88072640.827    21183178.344    88072630.827  
R14  23277656.070   124083009.859    23277654.453   124083119.805    23277659.070    96509004.018    23277661.984    96508989.073  
R23  20432282.484   109298955.363    20432281.484   109298963.360                                                                  
E07  26352040.297   138480913.360    26352043.891   106108765.713    26352044.672   103411085.741    26352044.852   104759927.834  
E31  25549958.984   134265945.831    25549961.125   102879112.299    25549962.121   100263548.174    25549962.395   101571330.344  
E03  28140879.297   147881311.104    28140881.863   113311660.901    28140881.371   110430859.213    28140881.953   111871261.675  
E26  23499826.281   123492441.067    23499825.953    94624089.029    23499826.957    92218394.926    23499827.230    93421244.079  
E01  27178790.453   142825492.155    27178792.086   109437715.695    27178793.277   106655401.839    27178793.098   108046561.376  
E08  23849321.062   125329048.145    23849321.699    96031360.072    23849322.055    93589889.900    23849322.000    94810626.094  
E14  18768912.562    98631311.866    18768912.910    75574645.044    18768913.281    73653259.389    18768914.188    74613954.820  
E24  27160205.555   142727842.507    27160205.340   109362894.978    27160206.387   106582476.850    27160206.449   107972688.010  
E13  26225748.609   137817249.618    26225749.594   105600246.624    26225750.172   102915498.459    26225750.996   104257871.144  
E33  24872966.844   130708324.548    24872967.117   100153140.053    24872968.148    97606877.392    24872968.133    98880012.329  
C26  25260769.539   131539459.456                                    25260760.809   106886560.596  
C20  26431839.703   137637518.746                                    26431825.070   111841701.350  
C13  40448132.961   210624052.665    40448132.234   162867883.763    40448124.395   171149272.775  
C06  39620956.234   206316721.049    39620948.332   159537146.636    39620941.801   167649180.643  
C16  39642717.672   206430037.918    39642715.383   159624823.242    39642707.043   167741378.548  
C27  24372949.711   126916360.167                                    24372940.586   103129910.466  
C05  40190577.711   209282852.744    40190571.961   161830774.444    40190567.852   170059439.430  
C29  23170871.320   120656817.123                                    23170861.418    98043509.122  
C30  21551620.602   112224962.051                                    21551613.125    91191958.218  
C09  40733144.117   212108172.286    40733140.617   164015480.621    40733132.605   172355218.484  
> 2022 01 01 00 20 00.0000000  0 39                     
G30  25293073.359   132916058.652    25293073.109    25293079.562   103570921.610    25293079.730   103570954.612    25293078.707    99255476.670  
G15  24852192.305   130599154.312    24852192.648    24852194.891   101765574.966    24852194.285   101765563.000                                  
G16  25542534.320   134226903.831    25542533.924    25542536.863   104592407.273                                                                  
G32  24494260.125   128718204.445    24494260.355    24494264.992   100299923.059    24494265.445   100299919.047    24494264.383    96120756.652  
G01  23748931.164   124801564.372    23748931.597    23748937.473    97247951.895    23748936.402    97247964.933    23748935.715    93195948.964  
G08  20525228.805   107861053.124    20525228.658    20525233.344    84047414.575    20525233.863    84047411.582    20525232.770    80545431.159  
G27  21200361.695   111408658.214    21200361.701    21200366.660    86811970.867    21200366.234    86811979.871    21200366.133    83194809.504  
G14  24327982.969   127844545.758    24327983.130    24327987.590    99619035.302    24327987.133    99619098.314    24327991.090    95468273.080  
G21  21870931.359   114932638.281    21870930.779    21870933.195    89557840.310                                                                  
G10  21102288.578   110893427.133    21102288.682    21102293.555    86410378.764    21102293.367    86410387.774    21102291.125    82810015.718  
G23  22589592.133   118709380.023    22589592.357    22589595.535    92500629.966    22589594.883    92500653.949    22589599.047    88646465.859  
R08  20215077.055   108250841.047    20215076.156   108250826.056    20215078.852    84195148.784    20215078.555    84195107.780  
R15  21535263.555   115077932.573    21535263.422   115078017.576    21535265.504    89505058.293    21535265.621    89505070.291  
R24  19198821.906   102665498.813    19198821.895   102665008.819    19198824.223    79850373.514    19198824.812    79850395.520  
R07  22480493.047   120339899.509    22480493.285   120339864.512    22480496.402    93597687.969    22480495.832    93597564.962  
R17  21847298.039   116909362.602    21847297.199   116909309.611    21847300.465    90929479.148    21847300.340    90929478.136  
R01  21163145.414   113129143.786    21163144.602   113129258.801    21163150.184    87989364.501    21163149.648    87989354.495  
R14  23300838.859   124206592.215    23300838.121   124206702.214    23300843.121    96605123.593    23300842.953    96605108.566  
R23  20447218.969   109378853.730    20447217.637   109378861.748                                                                  
E07  26337428.883   138404125.760    26337431.773   106049928.493    26337432.504   103353744.384    26337432.641   104701838.540  
E31  25555467.602   134294893.623    25555469.555   102901293.075    25555470.895   100285165.027    25555471.016   101593229.159  
E03  28154314.344   147951910.688    28154316.820   113365756.609    28154316.152   110483579.621    28154316.453   111924669.717  
E26  23502234.094   123505092.654    23502233.410    94633783.109    23502234.621    92227842.543    23502234.754    93430814.924  
E01  27196592.680   142919044.962    27196594.766   109509398.997    27196595.398   106725262.656    27196595.691   108117333.435  
E08  23849037.367   125327557.264    23849037.820    96030217.709    23849038.504    93588776.580    23849038.312    94809498.248  
E14  18791210.875    98748490.342    18791211.520    75664431.116    18791211.562    73740762.754    18791212.539    74702599.547  
E24  27150875.211   142678811.694    27150874.996   109325325.895    27150876.070   106545862.919    27150876.180   107935596.504  
E13  26240790.406   137896294.835    26240791.199   105660813.725    26240791.992   102974525.714    26240792.859   104317668.327  
E33  24861376.516   130647416.365    24861377.043   100106470.154    24861377.621    97561394.007    24861377.660    98833935.686  
C26  25258196.125   131526056.881                                    25258186.859   106875669.904  
C20  26410888.297   137528413.847                                    26410872.652   111753044.640  
C13  40455019.922   210659914.441    40455019.199   162895614.347    40455011.301   171178413.398  
C06  39610747.234   206263564.835    39610740.051   159496042.851    39610734.012   167605986.824  
C16  39633694.500   206383055.716    39633692.418   159588493.607    39633684.461   167703201.657  
C27  24390482.570   127007659.851                                    24390474.449   103204098.904  
C05  40190601.180   209282975.740    40190595.551   161830869.543    40190591.617   170059539.368  
C29  23156917.945   120584159.945                                    23156908.703    97984469.216  
C30  21555616.734   112245771.056                                    21555609.223    91208867.240  
C09  40721904.930   212049643.907    40721900.977   163970222.795    40721892.527   172307659.386  
> 2022 01 01 00 20 30.0000000  0 39                     
G30  25305714.477   132982486.881    25305714.226    25305720.297   103622683.907    25305720.285   103622716.927    25305719.859    99305082.214  
G15  24869052.742   130687760.897    24869053.086    24869056.062   101834619.070    24869055.344   101834607.089                                  
G16  25565114.266   134345566.178    25565113.870    25565116.953   104684871.493                                                                  
G32  24475025.688   128617127.306    24475025.918    24475031.363   100221161.636    24475031.352   100221157.622    24475029.578    96045276.972  
G01  23727719.250   124690093.763    23727719.682    23727725.277    97161091.707    23727725.008    97161104.715    23727723.547    93112707.951  
G08  20526130.164   107865790.769    20526130.018    20526134.730    84051106.247    20526135.266    84051103.247    20526134.305    80548969.006  
G27  21214261.445   111481702.401    21214261.451    21214266.309    86868888.410    21214266.496    86868897.407    21214265.914    83249355.481  
G14  24312370.367   127762498.367    24312370.529    24312374.223    99555102.306    24312374.750    99555165.300    24312377.184    95407003.961  
G21  21859282.055   114871420.901    21859281.475    21859282.992    89510138.436                                                                  
G10  21105804.625   110911903.637    21105804.729    21105809.523    86424776.045    21105809.277    86424785.048    21105806.805    82823813.116  
G23  22605542.641   118793198.982    22605542.865    22605545.766    92565943.440    22605545.160    92565967.447    22605548.656    88709057.933  
R08  20215324.656   108252166.588    20215323.758   108252151.605    20215326.602    84196179.759    20215326.102    84196138.761  
R15  21542864.453   115118555.044    21542865.207   115118640.039    21542867.555    89536653.548    21542867.504    89536665.547  
R24  19195949.875   102650139.052    19195949.898   102649649.053    19195951.945    79838427.037    19195951.613    79838449.033  
R07  22500166.812   120445212.743    22500167.082   120445177.763    22500169.031    93679598.256    22500169.746    93679475.268  
R17  21827009.539   116800795.563    21827008.906   116800742.563    21827012.090    90845038.119    21827012.156    90845037.120  
R01  21143212.047   113022589.761    21143211.355   113022704.774    21143217.176    87906489.181    21143216.406    87906479.181  
R14  23324068.141   124330419.658    23324067.957   124330529.657    23324072.664    96701433.736    23324074.465    96701418.729  
R23  20462231.867   109459167.962    20462231.168   109459175.966                                                                  
E07  26322865.664   138327597.738    26322868.719   105991290.185    26322869.648   103296596.892    26322869.816   104643945.644  
E31  25561060.539   134324284.590    25561062.777   102923813.426    25561063.918   100307112.830    25561063.984   101615463.233  
E03  28167801.719   148022786.583    28167802.738   113420064.043    28167803.461   110536506.308    28167803.922   111978286.777  
E26  23504696.805   123518034.616    23504696.125    94643699.670    23504697.387    92237506.987    23504697.523    93440605.436  
E01  27214420.352   143012729.991    27214422.434   109581183.600    27214423.215   106795222.247    27214423.395   108188205.525  
E08  23848841.375   125326527.122    23848841.820    96029428.376    23848842.500    93588007.316    23848842.258    94808718.952  
E14  18813743.406    98866899.374    18813744.148    75755160.073    18813744.047    73829185.048    18813745.047    74792175.166  
E24  27141618.375   142630168.429    27141618.555   109288053.796    27141619.805   106509538.423    27141619.621   107898798.214  
E13  26255852.602   137975448.038    26255854.555   105721463.546    26255854.348   103033633.591    26255855.242   104377547.172  
E33  24849823.438   130586704.278    24849823.988   100059950.504    24849824.805    97516057.062    24849824.547    98788007.385  
C26  25255721.062   131513167.908                                    25255711.867   106865196.564  
C20  26389943.219   137419348.904                                    26389925.965   111664420.434  
C13  40461905.586   210695770.844    40461905.566   162923340.790    40461897.469   171207549.651  
C06  39600558.094   206210519.362    39600553.020   159455024.765    39600546.516   167562883.080  
C16  39624696.414   206336204.256    39624695.133   159552265.102    39624686.637   167665131.014  
C27  24408047.570   127099124.474                                    24408039.129   103278421.396  
C05  40190625.992   209283102.943    40190620.266   161830967.899    40190616.082   170059642.725  
C29  23143012.680   120511751.863                                    23143003.855    97925631.725  
C30  21559690.789   112266985.926                                    21559683.297    91226106.053  
C09  40710677.422   211991182.433    40710673.602   163925016.699    40710665.316   172260154.647  
> 2022 01 01 00 21 00.0000000  0 39                     
G30  25318425.773   133049283.844    25318425.523    25318431.469   103674733.487    25318431.574   103674766.508    25318430.824    99354963.093  
G15  24885987.555   130776754.910    24885987.898    24885990.910   101903965.045    24885991.590   101903953.046                                  
G16  25587689.109   134464199.234    25587688.713    25587692.793   104777312.771                                                                  
G32  24455819.750   128516200.119    24455819.980    24455825.461   100142517.137    24455825.387   100142513.099    24455824.191    95969909.277  
G01  23706533.414   124578760.759    23706533.847    23706539.105    97074338.732    23706538.961    97074351.717    23706537.668    93029569.682  
G08  20527137.078   107871082.826    20527136.932    20527141.672    84055229.931    20527142.312    84055226.922    20527141.504    80552920.875  
G27  21228243.953   111555179.434    21228243.959    21228248.777    86926143.228    21228248.602    86926152.232    21228248.016    83304224.680  
G14  24296833.594   127680846.862    24296833.755    24296836.918    99491477.730    24296836.727    99491540.750    24296840.289    95346030.389  
G21  21847689.078   114810501.748    21847688.498    21847691.219    89462668.976                                                                  
G10  21109426.133   110930935.150    21109426.237    21109431.070    86439605.791    21109430.453    86439614.793    21109428.273    82838024.960  
G23  22621562.391   118877383.205    22621562.615    22621565.238    92631541.540    22621565.242    92631565.526    22621569.230    88771922.775  
R08  20215729.773   108254335.266    20215728.648   108254320.275    20215731.492    84197866.505    20215731.305    84197825.507  
R15  21550613.742   115159967.230    21550614.609   115160052.233    21550617.512    89568863.025    21550616.363    89568875.030  
R24  19193183.547   102635344.111    19193183.273   102634854.127    19193185.320    79826919.856    19193185.434    79826941.851  
R07  22519929.328   120550999.333    22519929.676   120550964.346    22519930.777    93761876.639    22519930.867    93761753.659  
R17  21806758.758   116692426.330    21806758.195   116692373.339    21806760.469    90760750.941    21806760.375    90760749.937  
R01  21123376.336   112916555.346    21123375.473   112916670.352    21123380.934    87824017.999    21123380.309    87824008.008  
R14  23347343.398   124454487.833    23347342.215   124454597.819    23347348.074    96797931.123    23347349.926    96797916.104  
R23  20477323.680   109539896.760    20477322.758   109539904.771                                                                  
E07  26308352.273   138251331.046    26308356.020   105932852.059    26308356.434   103239644.488    26308356.758   104586250.376  
E31  25566737.531   134354118.016    25566739.988   102946672.804    25566740.836   100329391.023    25566741.090   101638032.018  
E03  28181340.578   148093937.328    28181342.801   113474582.154    28181342.070   110589638.394    28181343.570   112032111.881  
E26  23507214.820   123531266.815    23507214.238    94653838.631    23507215.383    92247388.179    23507215.535    93450615.510  
E01  27232272.680   143106545.381    27232274.887   109653068.078    27232275.930   106865279.136    27232275.914   108259176.215  
E08  23848733.164   125325957.671    23848733.383    96028992.059    23848733.707    93587582.086    23848733.898    94808288.175  
E14  18836508.672    98986531.373    18836509.527    75846826.142    18836509.066    73918520.622    18836510.215    74882675.984  
E24  27132435.539   142581914.083    27132435.793   109251079.684    27132437.180   106473504.329    27132437.082   107862294.104  
E13  26270935.672   138054708.602    26270936.953   105782195.622    26270936.605   103092821.647    26270937.996   104437507.238  
E33  24838307.711   130526188.934    24838308.195   100013581.597    24838308.836    97470867.037    24838308.816    98742227.924  
C26  25253344.352   131500792.898                                    25253335.121   106855140.857  
C20  26369006.008   137310325.842                                    26368989.102   111575830.295  
C13  40468790.391   210731621.514    40468790.047   162951062.792    40468782.164   171236681.253  
C06  39590396.672   206157585.294    39590387.883   159414092.806    39590381.320   167519869.806  
C16  39615724.852   206289483.890    39615723.117   159516137.976    39615714.168   167627166.901  
C27  24425643.898   127190752.932                                    24425635.246   103352876.996  
C05  40190650.898   209283234.356    40190645.539   161831069.518    40190641.348   170059749.513  
C29  23129156.031   120439594.290                                    23129146.098    97866997.789  
C30  21563842.750   112288606.553                                    21563835.398    91243674.585  
C09  40699463.703   211932788.482    40699459.500   163879862.810    40699451.297   172212704.771  
> 2022 01 01 00 21 30.0000000  0 39                     
G30  25331206.359   133116446.922    25331206.109    25331212.129   103727068.438    25331212.031   103727101.441    25331211.180    99405117.425  
G15  24902995.953   130866133.041    24902996.297    24902997.945   101973610.304    24903001.027   101973598.340                                  
G16  25610258.570   134582800.381    25610258.174    25610261.793   104869729.204                                                                  
G32  24436643.047   128415425.556    24436643.277    24436648.348   100063991.543    24436648.879   100063987.522    24436647.500    95894655.600  
G01  23685373.539   124467566.770    23685373.972    23685379.949    96987694.078    23685379.641    96987707.081    23685378.074    92946535.249  
G08  20528249.578   107876929.355    20528249.432    20528254.230    84059785.660    20528254.668    84059782.653    20528254.258    80557286.787  
G27  21242308.445   111629087.475    21242308.451    21242313.074    86983733.899    21242313.113    86983742.896    21242312.277    83359415.739  
G14  24281370.492   127599593.509    24281370.654    24281374.441    99428163.450    24281374.734    99428226.454    24281378.461    95285354.235  
G21  21836153.805   114749881.455    21836153.225    21836154.926    89415432.396                                                                  
G10  21113153.484   110950520.612    21113153.589    21113158.219    86454867.190    21113157.773    86454876.185    21113155.152    82852650.455  
G23  22637651.281   118961930.083    22637651.506    22637653.988    92697422.211    22637653.969    92697446.219    22637656.883    88835058.430  
R08  20216291.148   108257345.715    20216290.863   108257330.724    20216293.594    84200207.972    20216293.664    84200166.959  
R15  21558511.578   115202166.910    21558511.297   115202251.918    21558514.684    89601684.999    21558514.312    89601696.998  
R24  19190522.469   102621115.321    19190522.574   102620625.330    19190524.246    79815853.014    19190524.609    79815875.017  
R07  22539778.641   120657255.430    22539776.457   120657220.443    22539780.734    93844520.287    22539781.664    93844397.267  
R17  21786544.727   116584256.788    21786544.211   116584203.797    21786546.539    90676619.060    21786546.859    90676618.065  
R01  21103638.391   112811044.078    21103637.402   112811159.093    21103642.789    87741953.723    21103641.957    87741943.738  
R14  23370660.906   124578792.114    23370661.996   124578902.102    23370666.645    96894612.198    23370665.473    96894597.184  
R23  20492492.406   109621038.380    20492491.391   109621046.406                                                                  
E07  26293889.898   138175327.330    26293892.656   105874615.507    26293893.367   103182888.534    26293893.648   104528754.120  
E31  25572498.836   134384392.909    25572500.926   102969870.460    25572501.914   100351998.907    25572502.227   101660934.790  
E03  28194932.508   148165360.861    28194935.262   113529309.217    28194934.160   110642974.099    28194934.848   112086143.260  
E26  23509787.742   123544788.889    23509787.355    94664199.692    23509788.445    92257485.828    23509788.711    93460844.873  
E01  27250149.758   143200489.047    27250151.762   109725050.864    27250152.586   106935431.856    27250152.844   108330243.964  
E08  23848712.312   125325848.765    23848712.934    96028908.613    23848713.012    93587500.774    23848713.172    94808205.794  
E14  18859504.852    99107378.331    18859506.059    75939423.133    18859505.406    74008763.466    18859506.559    74974095.907  
E24  27123327.859   142534049.790    27123327.758   109214404.433    27123328.805   106437761.525    27123328.648   107826085.086  
E13  26286038.602   138134075.684    26286040.094   105843009.359    26286040.359   103152089.247    26286041.066   104497547.909  
E33  24826829.273   130465870.781    24826830.223    99967363.800    24826830.449    97425824.262    24826830.711    98696597.634  
C26  25251066.719   131488932.073                                    25251057.621   106845502.960  
C20  26348077.297   137201346.522                                    26348063.180   111487275.681  
C13  40475674.117   210767466.537    40475673.363   162978780.423    40475665.730   171265808.265  
C06  39580249.602   206104762.880    39580244.230   159373247.187    39580237.516   167476947.275  
C16  39606778.273   206242894.929    39606776.090   159480112.433    39606767.879   167589309.558  
C27  24443271.414   127282544.073                                    24443262.352   103427464.802  
C05  40190676.852   209283369.865    40190671.344   161831174.293    40190667.172   170059859.623  
C29  23115347.586   120367688.510                                    23115337.590    97808568.456  
C30  21568072.422   112310632.640                                    21568065.281    91261572.584  
C09  40688262.102   211874462.176    40688258.035   163834761.232    40688250.418   172165309.882  
> 2022 01 01 00 22 00.0000000  0 39                     
G30  25344056.516   133183973.237    25344056.265    25344061.906   103779686.399    25344061.777   103779719.404    25344060.938    99455542.976  
G15  24920076.320   130955892.088    24920076.664    24920079.094   102043552.407    24920078.125   102043540.3811                                 
G16  25632820.727   134701367.463    25632820.331    25632824.027   104962119.163                                                                  
G32  24417495.828   128314806.369    24417496.058    24417501.199    99985586.954    24417501.773    99985582.958    24417500.090    95819517.913  
G01  23664240.805   124356513.280    23664241.237    23664247.398    96901158.912    23664246.180    96901171.946    23664244.820    92863605.739  
G08  20529467.484   107883330.305    20529467.338    20529472.152    84064773.401    20529472.859    84064770.400    20529472.320    80562066.709  
G27  21256454.234   111703424.805    21256454.240    21256459.047    87041659.068    21256458.969    87041668.072    21256458.078    83414927.359  
G14  24265985.297   127518740.829    24265985.459    24265988.688    99365161.313    24265988.617    99365224.326    24265992.562    95224977.228  
G21  21824675.422   114689560.357    21824674.842    21824676.828    89368428.935                                                                  
G10  21116985.438   110970658.924    21116985.542    21116990.328    86470559.383    21116990.102    86470568.385    21116987.500    82867688.816  
G23  22653808.172   119046837.087    22653808.396    22653811.258    92763583.512    22653811.406    92763607.526    22653814.539    88898463.009  
R08  20217011.117   108261198.094    20217010.629   108261183.102    20217013.137    84203204.259    20217013.078    84203163.248  
R15  21566555.031   115245151.606    21566555.352   115245236.608    21566558.305    89635117.538    21566558.246    89635129.551  
R24  19187967.656   102607452.534    19187967.152   102606962.549    19187969.316    79805226.398    19187969.070    79805248.403  
R07  22559713.523   120763976.763    22559713.102   120763941.771    22559717.793    93927525.815    22559717.332    93927402.813  
R17  21766368.625   116476289.203    21766367.770   116476236.213    21766370.488    90592644.303    21766369.754    90592643.300  
R01  21083998.047   112706059.539    21083997.602   112706174.539    21084003.113    87660299.108    21084002.605    87660289.101  
R14  23394027.000   124703328.009    23394024.688   124703438.026    23394029.023    96991473.365    23394029.582    96991458.360  
R23  20507737.719   109702591.316    20507736.363   109702599.321                                                                  
E07  26279476.867   138099588.209    26279479.867   105816581.664    26279480.707   103126330.128    26279480.930   104471457.998  
E31  25578343.898   134415108.418    25578346.031   102993405.708    25578347.113   100374935.803    25578347.203   101684170.863  
E03  28208575.648   148237055.453    28208577.848   113584244.010    28208578.199   110696512.245    28208577.758   112140379.730  
E26  23512416.227   123558600.605    23512415.762    94674782.699    23512416.793    92267799.778    23512416.988    93471293.348  
E01  27268050.945   143294558.978    27268052.406   109797130.384    27268053.449   107005678.833    27268053.805   108401407.211  
E08  23848779.234   125326200.215    23848779.504    96029177.895    23848780.098    93587763.218    23848780.043    94808471.663  
E14  18882731.102    99229432.417    18882732.188    76032945.064    18882731.680    74099907.725    18882732.637    75066429.001  
E24  27114294.469   142486576.810    27114294.293   109178029.010    27114294.887   106402310.904    27114294.730   107790172.065  
E13  26301162.062   138213548.618    26301163.535   105903904.168    26301163.516   103211435.896    26301164.289   104557668.628  
E33  24815389.023   130405750.282    24815389.219    99921297.445    24815390.219    97380929.089    24815390.199    98651116.871  
C26  25248887.625   131477585.636                                    25248878.359   106836283.071  
C20  26327157.414   137092412.759                                    26327143.996   111398758.029  
C13  40482556.648   210803305.527    40482555.785   163006493.390    40482548.348   171294930.367  
C06  39570128.555   206052052.401    39570120.820   159332488.096    39570115.031   167434115.709  
C16  39597857.070   206196437.559    39597854.445   159444188.639    39597846.035   167551559.138  
C27  24460929.875   127374496.661                                    24460921.363   103502183.787  
C05  40190703.953   209283509.374    40190698.188   161831282.176    40190693.984   170059972.979  
C29  23101587.297   120296035.769                                    23101577.602    97750344.736  
C30  21572380.367   112333063.926                                    21572372.984    91279799.837  
C09  40677074.492   211816203.938    40677069.867   163789712.277    40677062.496   172117970.322  
> 2022 01 01 00 22 30.0000000  0 39                     
G30  25356974.641   133251860.688    25356974.390    25356980.148   103832585.712    25356980.137   103832618.711    25356979.797    99506238.158  
G15  24937229.336   131046030.243    24937229.680                                    24937232.094   102113777.927                                  
G16  25655375.953   134819897.929    25655375.557    25655379.848   105054480.528                                                                  
G32  24398378.273   128214345.892    24398378.504    24398384.176    99907306.100    24398384.176    99907302.105    24398382.754    95744498.731  
G01  23643134.680   124245602.120    23643135.112    23643141.617    96814734.684    23643141.324    96814747.695    23643138.945    92780782.499  
G08  20530790.922   107890286.355    20530790.776    20530795.867    84070193.708    20530796.648    84070190.707    20530795.891    80567261.159  
G27  21270681.789   111778190.113    21270681.795    21270686.566    87099917.732    21270686.379    87099926.736    21270685.383    83470758.573  
G14  24250674.773   127438291.777    24250674.935    24250679.840    99302473.780    24250679.656    99302536.780    24250683.477    95164901.641  
G21  21813253.727   114629539.793    21813253.147    21813255.070    89321659.660                                                                  
G10  21120922.523   110991349.556    21120922.628    21120927.805    86486681.953    21120927.152    86486690.956    21120924.988    82883139.613  
G23  22670033.461   119132102.175    22670033.685    22670036.242    92830023.836    22670036.855    92830047.842    22670040.824    88962134.977  
R08  20217887.852   108265892.172    20217886.949   108265877.180    20217889.598    84206855.213    20217889.832    84206814.208  
R15  21574746.641   115288919.588    21574746.016   115289004.591    21574748.707    89669159.300    21574748.574    89669171.305  
R24  19185518.531   102594357.752    19185517.980   102593867.765    19185520.605    79795041.566    19185520.570    79795063.569  
R07  22579736.070   120871159.176    22579736.094   120871124.197    22579739.047    94010889.935    22579739.719    94010766.928  
R17  21746229.273   116368525.630    21746229.223   116368472.647    21746232.375    90508828.202    21746232.035    90508827.213  
R01  21064458.266   112601606.123    21064457.406   112601721.129    21064463.012    87579057.573    21064462.457    87579047.573  
R14  23417427.391   124828091.591    23417429.812   124828201.561    23417434.535    97088511.646    23417437.055    97088496.649  
R23  20523059.695   109784554.334    20523058.910   109784562.345                                                                  
E07  26265114.656   138024115.829    26265118.055   105758752.202    26265118.668   103069970.911    26265118.996   104414363.663  
E31  25584272.547   134446264.103    25584274.891   103017278.238    25584275.531   100398201.404    25584275.906   101707739.930  
E03  28222270.164   148309019.649    28222271.543   113639385.337    28222272.062   110750251.652    28222272.430   112194820.096  
E26  23515099.562   123572702.167    23515099.184    94685587.797    23515100.164    92278330.161    23515100.418    93481961.080  
E01  27285974.961   143388753.635    27285977.148   109869305.480    27285978.629   107076018.963    27285978.438   108472664.835  
E08  23848933.664   125327012.324    23848934.000    96029800.168    23848934.715    93588369.658    23848934.551    94809086.016  
E14  18906185.320    99352686.181    18906186.824    76127386.243    18906186.391    74191947.865    18906186.984    75159669.652  
E24  27105335.469   142439496.791    27105335.258   109141954.714    27105334.969   106367153.746    27105335.711   107754556.323  
E13  26316305.148   138293127.125    26316306.500   105964879.889    26316306.492   103270861.384    26316307.516   104617869.235  
E33  24803986.367   130345828.544    24803986.707    99875383.391    24803987.281    97336182.334    24803987.457    98605786.466  
C26  25246808.180   131466754.233                                    25246797.832   106827481.682  
C20  26306247.062   136983526.816                                    26306231.594   111310279.286  
C13  40489437.469   210839139.117    40489437.496   163034202.204    40489430.344   171324048.096  
C06  39560026.953   205999454.740    39560020.348   159291816.247    39560014.359   167391375.806  
C16  39588960.828   206150112.532    39588958.492   159408367.214    39588949.871   167513916.281  
C27  24478619.430   127466610.026                                    24478610.520   103577033.430  
C05  40190731.656   209283653.181    40190725.566   161831393.371    40190721.594   170060089.835  
C29  23087875.922   120224637.864                                    23087866.312    97692328.106  
C30  21576765.906   112355900.716                                    21576758.430    91298356.600  
C09  40665900.367   211758014.602    40665895.254   163744716.582    40665887.871   172070686.734  
> 2022 01 01 00 23 00.0000000  0 39                     
G30  25369961.953   133320106.430    25369961.703    25369966.469   103885764.250    25369966.789   103885797.246    25369966.176    99557200.912  
G15  24954453.711   131136543.932    24954454.055                                    24954455.984   102184308.008                                  
G16  25677924.148   134938388.974    25677923.753    25677927.969   105146811.179                                                                  
G32  24379292.039   128114046.854    24379292.269    24379297.578    99829151.014    24379298.094    99829147.024    24379297.070    95669600.137  
G01  23622055.875   124134834.607    23622056.307    23622063.289    96728422.377    23622062.742    96728435.377    23622060.297    92698066.542  
G08  20532220.484   107897797.247    20532220.338    20532225.227    84076046.355    20532225.738    84076043.354    20532224.938    80572869.945  
G27  21284989.797   111853381.493    21284989.803    21284994.883    87158508.399    21284994.895    87158517.388    21284993.871    83526907.964  
G14  24235445.047   127358248.571    24235445.209    24235447.895    99240102.413    24235447.879    99240165.426    24235452.074    95105129.151  
G21  21801889.344   114569820.037    21801888.764    21801890.922    89275124.802                                                                  
G10  21124964.609   111012591.245    21124964.714    21124969.949    86503233.914    21124969.344    86503242.931    21124967.203    82899001.914  
G23  22686326.453   119217722.584    22686326.677    22686330.082    92896741.041    22686329.500    92896765.025    22686332.781    89026072.309  
R08  20218920.938   108271426.772    20218920.285   108271411.788    20218923.145    84211159.902    20218922.508    84211118.903  
R15  21583082.781   115333468.436    21583082.918   115333553.431    21583085.449    89703808.396    21583085.402    89703820.417  
R24  19183175.406   102581830.920    19183175.543   102581340.935    19183177.855    79785298.469    19183178.238    79785320.470  
R07  22599842.195   120978799.013    22599843.137   120978764.041    22599847.270    94094609.775    22599847.691    94094486.784  
R17  21726130.859   116260967.984    21726129.867   116260914.990    21726132.312    90425172.259    21726132.523    90425171.249  
R01  21045018.195   112497687.414    21045017.395   112497802.414    21045023.082    87498231.931    21045021.984    87498221.932  
R14  23440881.508   124953078.105    23440877.254   124953188.131    23440881.875    97185723.369    23440883.070    97185708.425  
R23  20538458.531   109866925.476    20538457.391   109866933.488                                                                  
E07  26250803.922   137948911.656    26250807.469   105701128.270    26250807.910   103013811.993    26250808.074   104357472.238  
E31  25590284.906   134477858.884    25590286.930   103041487.230    25590287.914   100421794.934    25590288.168   101731641.190  
E03  28236015.016   148381251.616    28236017.484   113694731.938    28236016.426   110804191.088    28236017.914   112249463.107  
E26  23517838.188   123587093.121    23517837.891    94696614.625    23517838.676    92289076.659    23517838.930    93492847.743  
E01  27303923.016   143483070.828    27303925.578   109941574.479    27303926.703   107146450.618    27303926.422   108544015.158  
E08  23849175.789   125328284.775    23849176.102    96030775.163    23849176.746    93589319.864    23849176.691    94810048.616  
E14  18929866.820    99477131.416    18929868.164    76222740.312    18929867.707    74284877.670    18929868.086    75253811.591  
E24  27096451.008   142392810.710    27096451.555   109106182.261    27096451.184   106332290.754    27096451.715   107719238.612  
E13  26331468.258   138372810.290    26331469.395   106025935.786    26331470.406   103330365.020    26331470.680   104678149.009  
E33  24792621.656   130286105.913    24792622.039    99829621.884    24792622.402    97291584.250    24792622.652    98560606.671  
C26  25244827.453   131456437.915                                    25244816.336   106819098.844  
C20  26285346.328   136874690.425                                    26285330.785   111221840.814  
C13  40496317.273   210874966.641    40496317.734   163061906.308    40496310.461   171353160.883  
C06  39549947.539   205946969.962    39549941.043   159251231.689    39549934.855   167348727.609  
C16  39580090.312   206103920.064    39580087.445   159372648.276    39580078.484   167476381.117  
C27  24496339.422   127558882.865                                    24496330.762   103652012.648  
C05  40190760.273   209283800.995    40190754.266   161831507.663    40190750.062   170060209.941  
C29  23074214.125   120153495.963                                    23074204.090    97634519.486  
C30  21581229.242   112379142.555                                    21581221.629    91317242.495  
C09  40654739.227   211699894.492    40654734.555   163699774.458    40654726.520   172023459.413  
> 2022 01 01 00 23 30.0000000  0 39                     
G30  25383015.758   133388707.861    25383015.508    25383021.254   103939219.895    25383021.691   103939252.902    25383020.820    99608429.238  
G15  24971748.859   131227430.371    24971749.203                                                                                                  
G16  25700464.648   135056838.837    25700464.253    25700468.695   105239109.759                                                                  
G32  24360236.227   128013911.939    24360236.457    24360242.555    99751123.866    24360242.957    99751119.857    24360241.785    95594824.130  
G01  23601005.664   124024212.427    23601006.097    23601012.461    96642223.288    23601012.086    96642236.300    23601009.719    92615459.093  
G08  20533755.664   107905863.011    20533755.518    20533760.254    84082331.360    20533760.641    84082328.366    20533759.766    80578893.080  
G27  21299378.898   111928997.337    21299378.904    21299384.250    87217429.812    21299383.852    87217438.815    21299382.988    83583374.318  
G14  24220290.641   127278613.808    24220290.802    24220294.148    99178049.389    24220293.934    99178112.390    24220297.285    95045661.624  
G21  21790582.336   114510402.223    21790581.756    21790584.395    89228825.203                                                                  
G10  21129111.625   111034383.111    21129111.729    21129116.930    86520214.594    21129116.539    86520223.604    21129114.168    82915275.070  
G23  22702686.781   119303696.020    22702687.006    22702689.867    92963733.325    22702690.023    92963757.332    22702694.012    89090273.235  
R08  20220111.703   108277801.995    20220110.754   108277787.005    20220113.785    84216118.406    20220113.734    84216077.409  
R15  21591564.891   115378795.833    21591565.305   115378880.830    21591567.906    89739063.040    21591567.781    89739075.045  
R24  19180940.516   102569873.514    19180939.625   102569383.530    19180941.859    79775998.260    19180941.680    79776020.269  
R07  22620037.602   121086892.289    22620037.539   121086857.289    22620041.125    94178682.306    22620041.270    94178559.296  
R17  21706070.109   116153618.482    21706069.109   116153565.482    21706071.613    90341678.209    21706071.398    90341677.205  
R01  21025678.555   112394307.071    21025677.773   112394422.093    21025683.648    87417825.043    21025681.840    87417815.066  
R14  23464364.508   125078283.286    23464364.664   125078393.215    23464370.559    97283105.091    23464370.258    97283090.026  
R23  20553933.062   109949703.428    20553932.117   109949711.439                                                                  
E07  26236544.398   137873977.515    26236547.613   105643711.217    26236548.426   102957854.702    26236548.578   104300785.058  
E31  25596380.531   134509892.045    25596382.770   103066032.126    25596384.031   100445715.790    25596383.922   101755874.063  
E03  28249811.109   148453749.707    28249814.148   113750282.330    28249813.551   110858329.253    28249813.512   112304307.401  
E26  23520631.641   123601773.420    23520631.520    94707863.164    23520632.305    92300039.202    23520632.484    93503953.290  
E01  27321894.391   143577508.785    27321896.227   110013935.962    27321897.805   107216972.410    27321897.453   108615456.800  
E08  23849505.609   125330017.526    23849505.867    96032102.850    23849506.594    93590613.803    23849506.426    94811359.434  
E14  18953773.109    99602760.332    18953774.434    76319001.364    18953774.480    74378691.422    18953774.426    75348848.995  
E24  27087642.180   142346519.950    27087643.129   109070712.734    27087642.047   106297722.985    27087643.020   107684219.957  
E13  26346651.578   138452597.605    26346652.938   106087071.490    26346653.016   103389946.426    26346653.727   104738507.557  
E33  24781294.648   130226583.044    24781294.980    99784013.451    24781295.832    97247135.354    24781295.840    98515578.005  
C26  25242944.883   131446637.032                                    25242935.219   106811134.838  
C20  26264455.422   136765905.631                                    26264441.078   111133444.272  
C13  40503197.227   210910788.170    40503196.148   163089605.749    40503189.297   171382268.785  
C06  39539890.031   205894598.721    39539884.293   159210734.947    39539877.422   167306171.691  
C16  39571244.438   206057860.555    39571241.918   159337032.128    39571233.484   167438953.992  
C27  24514089.836   127651314.104                                    24514081.426   103727120.582  
C05  40190789.125   209283953.038    40190783.156   161831625.222    40190779.105   170060333.487  
C29  23060601.617   120082611.551                                    23060591.805    97576920.098  
C30  21585770.461   112402789.386                                    21585762.773    91336457.487  
C09  40643590.859   211641844.136    40643586.738   163654886.257    40643578.480   171976288.756  
> 2022 01 01 00 24 00.0000000  0 39                     
G30  25396138.523   133457662.660    25396138.273    25396142.871   103992950.913    25396143.207   103992983.910    25396142.555    99659921.464  
G15  24989112.516   131318687.177    24989112.859                                                                                                  
G16  25722996.797   135175244.971    25722996.401                                                                                                  
G32  24341213.547   127913944.631    24341213.777    24341219.785    99673227.264    24341219.832    99673223.261    24341218.785    95520173.223  
G01  23579982.641   123913737.422    23579983.073    23579989.578    96556138.880    23579989.348    96556151.877    23579987.512    92532961.535  
G08  20535395.930   107914484.660    20535395.783    20535400.781    84089049.522    20535401.270    84089046.522    20535400.543    80585331.323  
G27  21313848.695   112005036.185    21313848.701    21313854.027    87276680.841    21313854.055    87276689.838    21313852.539    83640156.545  
G14  24205215.258   127199390.413    24205215.419    24205218.590    99116316.874    24205218.727    99116379.863    24205222.012    94986501.277  
G21  21779332.766   114451287.383    21779332.186    21779334.828    89182761.695                                                                  
G10  21133363.359   111056724.435    21133363.464    21133368.375    86537623.420    21133367.801    86537632.415    21133365.789    82931958.529  
G23  22719114.375   119390020.297    22719114.599    22719116.406    93030998.998    22719116.918    93031022.982    22719120.797    89154736.162  
R08  20221458.609   108285017.344    20221458.223   108285002.353    20221461.125    84221730.353    20221461.086    84221689.348  
R15  21600192.805   115424899.726    21600193.148   115424984.722    21600195.875    89774921.622    21600195.848    89774933.628  
R24  19178809.953   102558486.574    19178810.055   102557996.597    19178812.582    79767141.752    19178812.602    79767163.757  
R07  22640313.688   121195435.399    22640313.984   121195400.406    22640316.602    94263104.710    22640316.695    94262981.701  
R17  21686047.438   116046479.464    21686047.332   116046426.458    21686050.215    90258347.874    21686049.152    90258346.863  
R01  21006441.391   112291469.471    21006439.840   112291584.493    21006445.406    87337840.264    21006444.922    87337830.242  
R14  23487896.594   125203703.017    23487893.613   125203813.005    23487898.910    97380653.730    23487901.402    97380638.714  
R23  20569483.016   110032887.060    20569482.270   110032895.064                                                                  
E07  26222336.836   137799315.431    26222339.934   105586502.631    26222340.398   102902100.567    26222340.836   104244303.707  
E31  25602559.281   134542363.011    25602561.848   103090912.476    25602562.688   100469963.593    25602562.941   101780438.139  
E03  28263657.422   148526512.356    28263659.207   113806035.499    28263660.020   110912664.908    28263659.957   112359351.810  
E26  23523480.047   123616743.130    23523480.332    94719333.452    23523480.930    92311217.879    23523481.129    93515277.774  
E01  27339887.664   143672065.814    27339890.305   110086388.727    27339891.836   107287583.117    27339891.211   108686988.525  
E08  23849922.828   125332210.768    23849922.707    96033783.382    23849923.887    93592251.610    23849923.805    94813018.602  
E14  18977903.383    99729565.291    18977904.508    76416163.549    18977904.762    74473383.376    18977904.602    75444776.065  
E24  27078908.656   142300626.117    27078909.324   109035547.344    27078908.988   106263451.592    27078909.957   107649501.572  
E13  26361854.016   138532488.682    26361855.074   106148286.726    26361855.379   103449605.328    26361856.480   104798944.632  
E33  24770005.930   130167260.878    24770006.156    99738558.813    24770006.746    97202836.332    24770007.195    98470701.175  
C26  25241160.734   131437352.101                                    25241152.328   106803590.045  
C20  26243575.320   136657174.708                                    26243560.887   111045091.475  
C13  40510075.445   210946604.153    40510074.465   163117300.953    40510067.121   171411372.212  
C06  39529855.609   205842341.721    39529848.223   159170326.500    39529842.316   167263708.595  
C16  39562424.500   206011934.670    39562422.668   159301519.338    39562414.277   167401635.456  
C27  24531870.414   127743902.997                                    24531861.578   103802356.613  
C05  40190819.617   209284109.535    40190813.539   161831746.243    40190809.223   170060460.649  
C29  23047038.523   120011986.339                                    23047028.477    97519531.324  
C30  21590389.273   112426841.327                                    21590381.762    91356001.663  
C09  40632455.906   211583864.273    40632452.273   163610052.572    40632443.520   171929175.370  
> 2022 01 01 00 24 30.0000000  0 39                     
G30  25409326.070   133526967.809    25409325.820    25409331.438   104046954.906    25409331.746   104046987.915    25409330.664    99711675.285  
G15  25006549.266   131410310.775    25006549.609                                                                                                  
G16  25745520.070   135293604.869    25745519.674                                                                                                  
G32  24322223.141   127814147.098    24322223.371    24322228.730    99595462.982    24322228.949    99595458.988    24322228.016    95445649.124  
G01  23558988.695   123803410.644    23558989.128    23558994.973    96470169.980    23558994.586    96470183.017    23558992.793    92450574.706  
G08  20537142.711   107923661.258    20537142.565    20537146.844    84096200.123    20537147.910    84096197.115    20537146.930    80592183.987  
G27  21328398.422   112081495.906    21328398.428    21328403.797    87336259.814    21328403.383    87336268.818    21328402.328    83697253.064  
G14  24190217.055   127120580.372    24190217.216    24190221.328    99054906.417    24190221.516    99054969.418    24190225.301    94927649.621  
G21  21768140.883   114392475.179    21768140.303    21768143.824    89136934.004                                                                  
G10  21137718.969   111079613.717    21137719.073    21137724.113    86555459.228    21137723.547    86555468.230    21137721.875    82949051.171  
G23  22735607.305   119476692.521    22735607.529    22735610.848    93098535.788    22735610.270    93098559.786    22735613.410    89219458.927  
R08  20222963.062   108293071.810    20222962.297   108293056.826    20222964.941    84227994.944    20222964.766    84227953.947  
R15  21608965.500   115471777.156    21608965.652   115471862.159    21608968.566    89811381.864    21608967.422    89811393.871  
R24  19176788.023   102547669.666    19176787.410   102547179.688    19176789.762    79758728.597    19176789.383    79758750.600  
R07  22660676.242   121304423.309    22660676.070   121304388.319    22660676.605    94347873.061    22660676.066    94347750.053  
R17  21666066.273   115939552.598    21666065.555   115939499.607    21666068.121    90175182.530    21666067.457    90175181.534  
R01  20987304.211   112189177.472    20987303.953   112189292.494    20987309.648    87258279.830    20987309.719    87258269.831  
R14  23511462.438   125329332.466    23511460.863   125329442.510    23511466.785    97478365.527    23511465.875    97478350.540  
R23  20585108.578   110116474.275    20585107.734   110116482.295                                                                  
E07  26208181.000   137724926.705    26208183.918   105529503.509    26208184.961   102846550.573    26208185.141   104188029.143  
E31  25608821.469   134575270.490    25608823.992   103116127.300    25608824.977   100494537.364    25608825.027   101805332.436  
E03  28277553.258   148599537.720    28277556.312   113861990.064    28277555.977   110967196.880    28277556.574   112414595.069  
E26  23526383.703   123632001.632    23526384.012    94731025.032    23526384.602    92322612.214    23526384.730    93526820.724  
E01  27357902.953   143766739.644    27357906.465   110158930.938    27357907.648   107358281.031    27357907.133   108758608.594  
E08  23850427.562   125334863.928    23850427.824    96035816.328    23850428.820    93594232.868    23850428.645    94815025.702  
E14  19002255.773    99857537.820    19002256.949    76514220.398    19002257.016    74568947.259    19002256.945    75541586.430  
E24  27070250.328   142255129.987    27070251.762   109000686.692    27070251.945   106229477.229    27070252.375   107615084.068  
E13  26377076.625   138612482.479    26377078.176   106209580.651    26377078.359   103509340.931    26377078.801   104859459.406  
E33  24758755.680   130108139.585    24758755.836    99693258.083    24758756.473    97158687.318    24758756.828    98425976.306  
C26  25239475.914   131428582.917                                    25239467.668   106796464.362  
C20  26222704.664   136548499.086                                    26222689.031   110956783.636  
C13  40516952.391   210982414.036    40516951.723   163144991.434    40516944.219   171440470.681  
C06  39519841.938   205790198.879    39519835.051   159130006.368    39519828.773   167221338.283  
C16  39553630.688   205966142.349    39553628.746   159266109.807    39553619.996   167364425.451  
C27  24549681.008   127836648.034                                    24549673.121   103877719.528  
C05  40190850.008   209284269.918    40190844.316   161831870.260    40190840.145   170060590.971  
C29  23033525.727   119941621.241                                    23033515.484    97462353.932  
C30  21595086.008   112451297.774                                    21595078.477    91375874.522  
C09  40621336.078   211525954.920    40621330.473   163565273.403    40621322.164   171882119.269  
> 2022 01 01 00 25 00.0000000  0 39                     
G30  25422579.688   133596620.790    25422579.437    25422585.812   104101229.969    25422585.422   104101262.950    25422585.125    99763688.872  
G15  25024052.805   131502298.308    25024053.148                                                                                                  
G16  25768035.211   135411916.075    25768034.815                                                                                                  
G32  24303265.227   127714522.373    24303265.457    24303270.809    99517833.373    24303270.250    99517829.378    24303269.387    95371254.084  
G01  23538022.336   123693233.797    23538022.768    23538029.145    96384317.921    23538028.594    96384330.952    23538026.867    92368299.801  
G08  20538994.312   107933393.067    20538994.166    20538998.844    84103783.356    20538999.445    84103780.355    20538998.930    80599451.263  
G27  21343027.820   112158374.920    21343027.826    21343033.363    87396165.532    21343033.094    87396174.529    21343031.664    83754662.697  
G14  24175299.484   127042186.378    24175299.646    24175303.672    98993820.251    24175303.414    98993883.270    24175306.766    94869108.700  
G21  21757007.695   114333966.840    21757007.115    21757009.664    89091343.099                                                                  
G10  21142178.977   111103050.008    21142179.081    21142183.965    86573721.270    21142183.379    86573730.279    21142181.867    82966552.307  
G23  22752166.102   119563710.323    22752166.326    22752168.746    93166341.883    22752169.246    93166365.892    22752173.375    89284439.757  
R08  20224624.242   108301964.746    20224623.277   108301949.741    20224625.371    84234911.671    20224625.168    84234870.659  
R15  21617882.391   115519425.955    21617882.262   115519510.958    21617884.918    89848442.040    21617885.281    89848454.061  
R24  19174871.625   102537423.979    19174871.180   102536933.988    19174873.613    79750759.730    19174873.715    79750781.727  
R07  22681117.914   121413852.610    22681118.086   121413817.610    22681120.770    94432984.724    22681119.398    94432861.714  
R17  21646124.703   115832839.892    21646123.395   115832786.893    21646126.043    90092183.783    21646125.953    90092182.772  
R01  20968272.625   112087435.362    20968270.852   112087550.369    20968276.504    87179147.087    20968275.477    87179137.096  
R14  23535068.531   125455167.474    23535066.777   125455277.462    23535073.117    97576237.128    23535073.102    97576222.137  
R23  20600808.727   110200463.810    20600808.367   110200471.813                                                                  
E07  26194077.836   137650813.104    26194081.211   105472715.171    26194081.332   102791206.025    26194081.762   104131962.701  
E31  25615166.391   134608613.722    25615169.145   103141676.006    25615170.055   100519436.518    25615170.047   101830556.363  
E03  28291499.789   148672823.839    28291502.434   113918144.278    28291501.309   111021923.483    28291502.047   112470035.482  
E26  23529342.180   123647548.828    23529342.727    94742937.809    23529343.082    92334222.126    23529343.242    93538582.071  
E01  27375941.281   143861528.358    27375944.203   110231561.242    27375945.328   107429064.783    27375944.938   108830315.623  
E08  23851020.406   125337976.963    23851019.680    96038201.630    23851021.262    93596557.534    23851021.020    94817380.690  
E14  19026828.781    99986669.872    19026829.816    76613165.692    19026830.332    74665376.981    19026830.000    75639273.939  
E24  27061668.984   142210032.930    27061669.621   108966131.831    27061670.191   106195800.896    27061670.684   107580968.465  
E13  26392318.023   138692578.425    26392319.645   106270952.847    26392320.109   103569152.832    26392320.555   104920051.443  
E33  24747543.570   130049219.911    24747543.449    99648111.823    24747544.516    97114688.851    24747544.750    98381403.947  
C26  25237891.711   131420329.711                                    25237882.902   106789757.955  
C20  26201846.148   136439880.789                                    26201830.383   110868522.420  
C13  40523828.977   211018217.799    40523827.324   163172677.151    40523819.996   171469564.161  
C06  39509849.797   205738170.709    39509843.070   159089774.886    39509838.027   167179061.130  
C16  39544862.828   205920484.023    39544860.980   159230803.903    39544852.129   167327324.327  
C27  24567522.117   127929548.217                                    24567512.727   103953208.525  
C05  40190881.344   209284434.387    40190875.574   161831997.430    40190871.574   170060724.617  
C29  23020063.047   119871517.784                                    23020053.023    97405389.132  
C30  21599859.812   112476158.630                                    21599852.738    91396075.994  
C09  40610228.094   211468116.596    40610223.445   163520549.162    40610215.336   171835120.900  
> 2022 01 01 00 25 30.0000000  0 39                     
G30  25435900.391   133666619.100    25435900.140    25435906.117   104155774.109    25435906.145   104155807.139    25435905.734    99815960.364  
G15  25041628.352   131594647.388    25041628.695                                                                                                  
G16  25790537.070   135530175.933    25790536.674                                                                                                  
G32  24284340.484   127615073.639    24284340.715    24284346.605    99440340.860    24284346.242    99440336.856    24284344.980    95296990.480  
G01  23517085.453   123583208.665    23517085.886    23517091.590    96298584.063    23517091.105    96298597.064    23517089.520    92286138.180  
G08  20540952.617   107943680.430    20540952.471    20540956.734    84111799.477    20540957.297    84111796.476    20540956.512    80607133.384  
G27  21357737.266   112235671.681    21357737.271    21357742.547    87456396.752    21357742.469    87456405.756    21357740.762    83812384.288  
G14  24160460.375   126964210.992    24160460.537    24160464.750    98933060.276    24160464.602    98933123.273    24160469.172    94810880.410  
G21  21745931.352   114275763.591    21745930.772    21745934.168    89045989.908                                                                  
G10  21146743.055   111127032.576    21146743.159    21146747.691    86592408.979    21146747.227    86592417.989    21146745.676    82984461.359  
G23  22768790.703   119651071.616    22768790.927    22768793.344    93234415.599    22768793.102    93234439.587    22768796.812    89349677.073  
R08  20226441.242   108311695.543    20226440.414   108311680.559    20226442.695    84242480.068    20226443.043    84242439.069  
R15  21626942.859   115567843.930    21626942.734   115567928.926    21626945.699    89886100.453    21626945.066    89886112.452  
R24  19173062.016   102527750.724    19173061.883   102527260.743    19173064.688    79743236.089    19173064.941    79743258.100  
R07  22701640.984   121523719.209    22701640.809   121523684.231    22701644.207    94518436.523    22701643.973    94518313.522  
R17  21626222.781   115726343.912    21626221.992   115726290.911    21626224.840    90009353.571    21626224.391    90009352.567  
R01  20949342.758   111986246.891    20949341.793   111986361.898    20949347.340    87100444.946    20949345.918    87100434.962  
R14  23558714.844   125581203.727    23558711.980   125581313.797    23558717.090    97674265.361    23558717.785    97674250.315  
R23  20616585.523   110284854.075    20616584.434   110284862.093                                                                  
E07  26180027.320   137576976.623    26180029.719   105416139.181    26180030.859   102736068.391    26180031.109   104076105.896  
E31  25621594.242   134642392.043    25621597.289   103167558.075    25621597.562   100544660.589    25621597.793   101856109.435  
E03  28305494.562   148746369.411    28305496.402   113974497.335    28305497.789   111076843.865    28305497.305   112525672.204  
E26  23532355.695   123663384.762    23532356.203    94755071.838    23532356.469    92346047.661    23532356.746    93550561.854  
E01  27394000.883   143956430.293    27394003.246   110304278.270    27394004.555   107499933.090    27394004.207   108902108.283  
E08  23851700.047   125341549.931    23851699.605    96040939.368    23851700.980    93599225.660    23851700.910    94820083.618  
E14  19051620.914   100116953.641    19051621.746    76712993.458    19051622.582    74762666.748    19051622.223    75737832.702  
E24  27053163.766   142165336.319    27053163.215   108931883.778    27053164.531   106162423.561    27053165.133   107547155.775  
E13  26407579.234   138772776.155    26407580.637   106332403.043    26407581.449   103629040.717    26407581.727   104980720.482  
E33  24736369.602   129990502.653    24736370.605    99603120.677    24736370.809    97070841.554    24736371.207    98336984.722  
C26  25236405.852   131412592.972                                    25236397.402   106783471.204  
C20  26180998.703   136331322.063                                    26180983.938   110780309.578  
C13  40530703.117   211054015.688    40530701.781   163200358.350    40530694.250   171498652.887  
C06  39499880.031   205686257.976    39499874.266   159049632.680    39499868.184   167136877.786  
C16  39536121.305   205874960.345    39536118.469   159195602.092    39536109.457   167290332.597  
C27  24585391.883   128022602.665                                    24585383.590   104028822.867  
C05  40190913.789   209284603.183    40190908.051   161832127.960    40190904.105   170060861.781  
C29  23006651.266   119801677.611                                    23006640.785    97348638.267  
C30  21604712.133   112501423.880                                    21604704.473    91416606.078  
C09  40599134.695   211410349.996    40599129.629   163475880.381    40599121.793   171788180.827  
> 2022 01 01 00 26 00.0000000  0 39                     
G30  25449286.188   133736960.167    25449285.937    25449290.809   104210585.327    25449291.371   104210618.330    25449290.281    99868487.777  
G15  25059269.922   131687354.746    25059270.266                                                                                                  
G16  25813030.469   135648382.735    25813030.073                                                                                                  
G32  24265450.172   127515803.680    24265450.402    24265455.781    99362987.661    24265456.246    99362983.667    24265454.598    95222860.296  
G01  23496177.375   123473336.725    23496177.807    23496183.371    96212969.559    23496182.996    96212982.581    23496181.227    92204090.983  
G08  20543015.094   107954523.358    20543014.947    20543020.062    84120248.512    20543020.320    84120245.518    20543019.656    80615230.378  
G27  21372525.414   112313384.448    21372525.420    21372530.645    87516952.129    21372530.738    87516961.124    21372529.039    83870416.518  
G14  24145703.812   126886656.725    24145703.974    24145706.855    98872628.390    24145706.707    98872691.395    24145710.254    94752966.523  
G21  21734914.055   114217865.722    21734913.475    21734916.695    89000874.716                                                                  
G10  21151410.133   111151560.136    21151410.237    21151415.199    86611521.370    21151414.668    86611530.379    21151413.199    83002777.403  
G23  22785479.578   119738773.719    22785479.802    22785483.113    93302754.884    22785482.543    93302778.878    22785485.617    89415168.895  
R08  20228414.367   108322263.228    20228413.672   108322248.229    20228415.930    84250699.380    20228415.848    84250658.375  
R15  21636146.852   115617028.712    21636147.332   115617113.707    21636149.945    89924355.296    21636149.062    89924367.294  
R24  19171359.953   102518650.210    19171360.148   102518160.219    19171362.898    79736157.915    19171362.492    79736179.910  
R07  22722245.680   121634019.078    22722245.492   121633984.120    22722246.535    94604225.314    22722249.203    94604102.331  
R17  21606362.422   115620066.541    21606361.922   115620013.549    21606364.133    89926693.409    21606363.598    89926692.392  
R01  20930516.766   111885615.798    20930516.273   111885730.804    20930522.160    87022176.333    20930521.301    87022166.342  
R14  23582395.555   125707436.928    23582393.102   125707546.920    23582397.965    97772446.622    23582401.176    97772431.653  
R23  20632436.398   110369643.761    20632435.953   110369651.765                                                                  
E07  26166029.609   137503418.879    26166032.430   105359776.777    26166033.113   102681138.928    26166033.566   104020459.961  
E31  25628104.648   134676604.523    25628107.164   103193772.831    25628107.848   100570208.854    25628108.164   101881990.948  
E03  28319539.578   148820172.404    28319541.898   114031047.648    28319541.949   111131956.371    28319542.066   112581503.615  
E26  23535424.352   123679509.218    23535424.594    94767426.940    23535424.844    92358088.648    23535425.152    93562759.899  
E01  27412080.914   144051443.519    27412083.609   110377080.577    27412084.793   107570884.466    27412084.656   108973985.131  
E08  23852467.523   125345582.656    23852467.164    96044029.362    23852468.629    93602237.104    23852468.301    94823134.342  
E14  19076630.906   100248380.978    19076631.297    76813697.475    19076632.535    74860810.491    19076632.117    75837256.590  
E24  27044734.828   142121041.434    27044734.992   108897943.552    27044736.051   106129346.220    27044735.977   107513646.990  
E13  26422859.516   138853074.965    26422860.902   106393930.691    26422861.387   103689004.103    26422862.074   105041466.006  
E33  24725235.172   129931988.443    24725235.332    99558285.131    24725235.965    97027145.880    24725236.383    98292719.109  
C26  25235019.430   131405372.975                                    25235010.871   106777604.407  
C20  26160163.422   136222824.797                                    26160147.887   110692146.670  
C13  40537576.375   211089807.628    40537574.961   163228034.925    40537567.387   171527736.740  
C06  39489934.500   205634460.913    39489926.664   159009579.906    39489920.875   167094788.428  
C16  39527403.562   205829571.600    39527401.707   159160504.640    39527392.938   167253450.546  
C27  24603291.320   128115810.269                                    24603282.930   104104561.665  
C05  40190947.469   209284776.188    40190941.152   161832261.741    40190937.305   170061002.359  
C29  22993290.289   119732102.089                                    22993279.008    97292102.459  
C30  21609641.547   112527093.360                                    21609634.016    91437464.640  
C09  40588055.305   211352655.575    40588050.363   163431267.372    40588042.352   171741299.378  
> 2022 01 01 00 26 30.0000000  0 38                     
G30  25462735.695   133807641.144    25462735.445    25462740.895   104265661.389    25462741.527   104265694.373    25462741.391    99921269.015  
G16  25835517.133   135766534.002    25835516.737                                                                                                  
G32  24246594.359   127416715.198    24246594.590    24246599.520    99285775.865    24246600.137    99285771.864    24246598.621    95148865.674  
G01  23475299.094   123363619.401    23475299.526    23475305.156    96127475.573    23475305.367    96127488.611    23475302.699    92122159.225  
G08  20545184.242   107965921.639    20545184.096    20545189.086    84129130.285    20545189.520    84129127.284    20545188.492    80623742.067  
G27  21387392.328   112391511.305    21387392.334    21387397.766    87577830.184    21387397.777    87577839.173    21387395.996    83928757.982  
G14  24131026.539   126809525.898    24131026.701    24131028.902    98812526.475    24131029.535    98812589.482    24131032.348    94695368.820  
G21  21723954.859   114160273.686    21723954.279    21723957.145    88955997.796                                                                  
G10  21156180.961   111176631.517    21156181.065    21156186.129    86631057.506    21156185.438    86631066.509    21156184.293    83021499.528  
G23  22802233.266   119826814.063    22802233.490    22802235.910    93371357.724    22802235.754    93371381.736    22802240.312    89480913.296  
R08  20230543.977   108333667.662    20230543.270   108333652.664    20230545.602    84259569.498    20230545.285    84259528.493  
R15  21645494.227   115666977.280    21645494.266   115667062.290    21645497.238    89963204.176    21645496.414    89963216.182  
R24  19169765.758   102510122.754    19169765.434   102509632.759    19169768.035    79729525.444    19169768.801    79729547.447  
R07  22742931.242   121744748.347    22742929.141   121744713.331    22742933.340    94690348.020    22742932.598    94690225.015  
R17  21586542.961   115514009.767    21586542.398   115513956.776    21586545.117    89844204.809    21586545.785    89844203.821  
R01  20911796.992   111785545.494    20911796.215   111785660.516    20911801.727    86944343.897    20911802.270    86944333.906  
R14  23606110.375   125833862.447    23606110.414   125833972.435    23606114.973    97870777.567    23606112.820    97870762.547  
R23  20648361.414   110454830.926    20648360.570   110454838.945                                                                  
E07  26152085.297   137430141.472    26152088.117   105303629.149    26152088.918   102626418.800    26152089.277   103965026.078  
E31  25634697.430   134711250.072    25634699.895   103220319.416    25634700.840   100596080.536    25634701.012   101908200.080  
E03  28333632.648   148894231.211    28333635.359   114087793.982    28333633.848   111187259.998    28333634.898   112637528.605  
E26  23538547.562   123695921.805    23538547.812    94780002.824    23538548.176    92370344.800    23538548.344    93575175.916  
E01  27430182.344   144146565.907    27430184.500   110449966.529    27430186.422   107641917.377    27430186.027   109045944.566  
E08  23853322.148   125350074.738    23853321.906    96047471.361    23853323.574    93605591.595    23853323.098    94826532.582  
E14  19101856.703   100380943.562    19101856.945    76915271.373    19101858.465    74959801.989    19101857.996    75937539.290  
E24  27036382.508   142077149.255    27036382.062   108864311.883    27036383.086   106096569.616    27036383.512   107480442.850  
E13  26438159.117   138933474.084    26438160.832   106455535.197    26438161.375   103749042.403    26438161.527   105102287.408  
E33  24714138.812   129873677.717    24714138.699    99513605.465    24714140.074    96983602.151    24714140.176    98248607.412  
C26  25233732.469   131398669.511                                    25233723.816   106772157.330  
C20  26139339.398   136114390.789                                    26139323.566   110604035.183  
C13  40544448.523   211125593.358    40544447.746   163255706.747    40544439.754   171556815.577  
C06  39480007.805   205582779.862    39480002.414   158969616.844    39479995.734   167052793.333  
C16  39518713.859   205784317.972    39518711.199   159125511.666    39518702.445   167216678.256  
C27  24621220.250   128209169.822                                    24621211.734   104180423.934  
C05  40190981.062   209284953.220    40190975.688   161832398.627    40190971.328   170061146.209  
C29  22979979.633   119662792.458                                    22979969.113    97235782.703  
C30  21614648.609   112553166.647                                    21614641.172    91458651.304  
C09  40576989.797   211295033.711    40576984.664   163386710.498    40576976.668   171694476.923  
> 2022 01 01 00 27 00.0000000  0 38                     
G30  25476250.430   133878659.142    25476250.180    25476254.898   104321000.044    25476255.949   104321033.073    25476255.742    99974301.938  
G16  25857990.672   135884626.834    25857990.276                                                                                                  
G32  24227772.406   127317810.980    24227772.637    24227778.637    99208707.657    24227779.676    99208703.644    24227777.621    95075008.673  
G01  23454450.414   123254058.128    23454450.847    23454456.340    96042103.179    23454456.125    96042116.184    23454453.988    92040344.001  
G08  20547458.953   107977875.202    20547458.807    20547463.699    84138444.745    20547464.328    84138441.744    20547463.262    80632668.424  
G27  21402337.586   112470050.311    21402337.592    21402343.156    87639029.383    21402342.934    87639038.372    21402341.520    83987407.212  
G14  24116430.219   126732820.845    24116430.380    24116432.008    98752756.286    24116432.270    98752819.294    24116436.988    94638089.070  
G21  21713053.578   114102988.176    21713052.998    21713056.434    88911359.735                                                                  
G10  21161055.055   111202245.446    21161055.159    21161060.191    86651016.412    21161059.754    86651025.415    21161058.516    83040626.807  
G23  22819050.602   119915190.072    22819050.826    22819053.586    93440222.166    22819053.125    93440246.165    22819056.441    89546908.375  
R08  20232829.523   108345907.116    20232829.445   108345892.125    20232831.082    84269089.080    20232831.289    84269048.069  
R15  21654984.609   115717686.891    21654984.371   115717771.894    21654987.039    90002644.961    21654987.234    90002656.974  
R24  19168278.336   102502169.538    19168278.156   102501679.552    19168280.695    79723339.608    19168280.676    79723361.611  
R07  22763694.883   121855902.600    22763691.996   121855867.573    22763697.855    94776801.353    22763698.461    94776678.314  
R17  21566765.664   115408175.611    21566763.973   115408122.613    21566767.527    89761889.361    21566766.910    89761888.365  
R01  20893182.656   111686039.607    20893181.305   111686154.622    20893186.980    86866950.414    20893186.750    86866940.437  
R14  23629863.703   125960476.199    23629862.605   125960586.206    23629867.211    97969254.917    23629869.719    97969239.922  
R23  20664360.531   110540413.997    20664359.379   110540422.015                                                                  
E07  26138194.820   137357145.907    26138197.160   105247697.480    26138198.832   102571909.131    26138198.664   103909805.415  
E31  25641372.773   134746327.637    25641375.051   103247197.028    25641375.742   100622274.816    25641376.027   101934736.028  
E03  28347773.555   148968543.935    28347775.855   114144734.847    28347776.844   111242753.244    28347776.070   112693745.644  
E26  23541725.617   123712622.224    23541725.965    94792799.243    23541726.129    92382815.892    23541726.348    93587809.671  
E01  27448304.562   144241795.408    27448306.207   110522934.584    27448307.711   107713030.268    27448307.730   109117985.029  
E08  23854264.430   125355025.881    23854264.301    96051265.080    23854265.531    93609288.867    23854265.258    94830278.077  
E14  19127296.789   100514633.025    19127297.020    77017708.722    19127298.715    75059634.992    19127298.309    76038674.464  
E24  27028106.219   142033660.873    27028106.832   108830989.611    27028107.918   106064094.521    27028107.914   107447544.163  
E13  26453477.758   139013972.714    26453479.180   106517215.948    26453479.512   103809154.996    26453480.008   105163184.074  
E33  24703081.336   129815570.930    24703081.938    99469082.086    24703082.086    96940210.722    24703082.805    98204650.007  
C26  25232544.023   131392482.548                                    25232536.438   106767129.929  
C20  26118528.320   136006021.774                                    26118511.949   110515976.512  
C13  40551319.680   211161372.726    40551319.598   163283373.609    40551310.895   171585889.234  
C06  39470107.328   205531215.089    39470100.508   158929743.730    39470094.230   167010892.762  
C16  39510048.766   205739199.692    39510047.031   159090623.375    39510038.969   167180015.977  
C27  24639177.836   128302680.005                                    24639169.352   104256408.597  
C05  40191016.195   209285134.155    40191010.320   161832538.542    40191006.094   170061293.235  
C29  22966720.734   119593749.948                                    22966710.387    97179680.015  
C30  21619733.227   112579643.369                                    21619725.781    91480165.812  
C09  40565938.125   211237484.662    40565933.555   163342209.950    40565924.945   171647713.604  
> 2022 01 01 00 27 30.0000000  0 38                     
G30  25489828.812   133950011.805    25489828.562    25489833.488   104376599.465    25489834.156   104376632.487    25489833.277   100027584.714  
G16  25880451.469   136002658.962    25880451.073                                                                                                  
G32  24208987.594   127219094.105    24208987.824    24208993.422    99131785.435    24208993.453    99131781.415    24208992.059    95001291.518  
G01  23433631.062   123144654.683    23433631.495    23433637.316    95956853.749    23433637.328    95956866.763    23433635.812    91958646.622  
G08  20549839.094   107990384.095    20549838.947    20549843.891    84148191.931    20549844.516    84148188.923    20549843.621    80642009.476  
G27  21417361.430   112548999.979    21417361.435    21417366.824    87700548.595    21417366.750    87700557.591    21417365.047    84046363.130  
G14  24101914.828   126656544.305    24101914.990    24101917.957    98693320.002    24101917.906    98693383.019    24101921.754    94581129.292  
G21  21702210.875   114046010.180    21702210.295    21702213.648    88866961.304                                                                  
G10  21166032.125   111228401.049    21166032.229    21166037.348    86671397.404    21166036.914    86671406.407    21166035.867    83060158.587  
G23  22835931.812   120003899.506    22835932.037    22835933.852    93509346.411    22835933.871    93509370.402    22835938.238    89613152.425  
R08  20235271.609   108358981.228    20235271.215   108358966.237    20235272.535    84279257.838    20235272.715    84279216.833  
R15  21664616.109   115769155.527    21664615.785   115769240.522    21664618.477    90042676.122    21664618.379    90042688.129  
R24  19166899.023   102494791.064    19166898.594   102494301.072    19166900.969    79717600.795    19166900.734    79717622.792  
R07  22784535.961   121967477.837    22784535.066   121967442.837    22784539.031    94863582.155    22784541.277    94863459.131  
R17  21547030.641   115302566.577    21547029.285   115302513.578    21547032.215    89679749.008    21547031.570    89679748.006  
R01  20874674.781   111587102.012    20874673.402   111587217.027    20874678.938    86789998.998    20874677.156    86789988.999  
R14  23653649.852   126087273.631    23653649.152   126087383.698    23653654.160    98067875.142    23653655.863    98067860.178  
R23  20680432.789   110626391.479    20680431.117   110626399.491                                                                  
E07  26124358.344   137284434.130    26124360.844   105191983.294    26124362.066   102517611.392    26124362.098   103854799.452  
E31  25648129.992   134781836.532    25648131.898   103274405.127    25648133.164   100648791.189    25648133.137   101961598.268  
E03  28361962.531   149043108.956    28361965.645   114201869.083    28361965.602   111298434.929    28361965.270   112750153.608  
E26  23544958.461   123729610.480    23544958.773    94805816.217    23544958.980    92395501.926    23544959.109    93600661.172  
E01  27466445.492   144337130.375    27466448.164   110595983.402    27466448.590   107784221.922    27466449.430   109190105.268  
E08  23855293.875   125360436.071    23855293.918    96055410.551    23855295.098    93613328.946    23855294.805    94834370.854  
E14  19152950.055   100649441.327    19152950.137    77121003.371    19152951.930    75160303.494    19152951.586    76140656.042  
E24  27019907.914   141990577.753    27019908.156   108797977.893    27019909.191   106031922.071    27019909.469   107414952.087  
E13  26468814.656   139094570.479    26468816.602   106578972.678    26468816.883   103869341.619    26468817.262   105224155.748  
E33  24692063.141   129757668.962    24692063.168    99424715.645    24692064.273    96896972.240    24692064.441    98160847.548  
C26  25231455.852   131386812.465                                    25231447.395   106762522.532  
C20  26097730.023   135897720.021                                    26097713.957   110427972.507  
C13  40558190.180   211197145.866    40558188.684   163311035.690    40558180.500   171614957.836  
C06  39460228.000   205479767.227    39460219.664   158889960.969    39460214.125   166969087.165  
C16  39501410.805   205694217.404    39501408.348   159055840.205    39501400.180   167143464.193  
C27  24657163.906   128396340.039                                    24657155.785   104332515.049  
C05  40191051.188   209285319.207    40191045.680   161832681.635    40191041.629   170061443.6051 
C29  22953513.297   119524976.225                                    22953503.301    97123795.724  
C30  21624895.203   112606523.562                                    21624887.770    91502008.170  
C09  40554900.062   211180009.072    40554895.832   163297766.195    40554886.730   171601009.982  
> 2022 01 01 00 28 00.0000000  0 37                     
G30  25503470.328   134021696.361    25503470.078    25503475.066   104432457.618    25503474.367   104432490.643    25503474.559   100081115.433  
G32  24190238.586   127120567.532    24190238.816    24190244.332    99055011.485    24190244.723    99055007.471    24190243.172    94927716.522  
G01  23412842.617   123035410.716    23412843.050    23412848.797    95871728.597    23412849.230    95871741.606    23412847.637    91877068.354  
G08  20552325.359   108003448.209    20552325.213    20552329.852    84158371.761    20552330.586    84158368.774    20552329.691    80651765.154  
G27  21432463.062   112628358.626    21432463.068    21432468.059    87762386.485    21432468.094    87762395.482    21432466.578    84105624.444  
G14  24087481.617   126580698.694    24087481.779    24087484.359    98634219.547    24087484.445    98634282.567    24087489.656    94524491.373  
G21  21691426.953   113989340.180    21691426.373    21691429.879    88822802.858                                                                  
G10  21171112.016   111255097.238    21171112.120    21171117.391    86692199.632    21171116.742    86692208.627    21171115.898    83080094.064  
G23  22852875.648   120092940.013    22852875.873    22852878.016    93578728.634    22852877.617    93578752.633    22852881.781    89679643.733  
R08  20237868.406   108372889.034    20237868.168   108372874.051    20237869.852    84290075.024    20237869.418    84290034.020  
R15  21674388.227   115821380.287    21674388.672   115821465.298    21674391.691    90083295.397    21674391.312    90083307.395  
R24  19165626.578   102487987.862    19165626.387   102487497.878    19165628.680    79712309.416    19165628.805    79712331.425  
R07  22805458.398   122079470.247    22805457.652   122079435.268    22805462.211    94950687.273    22805461.910    94950564.268  
R17  21527336.672   115197184.562    21527336.359   115197131.564    21527338.887    89597785.209    21527338.637    89597784.213  
R01  20856273.172   111488736.571    20856272.383   111488851.586    20856277.293    86713492.569    20856277.062    86713482.576  
R14  23677472.125   126214250.798    23677470.480   126214360.775    23677474.621    98166635.008    23677476.156    98166620.002  
R23  20696578.234   110712761.890    20696576.793   110712769.902                                                                  
E07  26110576.320   137212007.921    26110578.383   105136487.868    26110579.527   102463526.890    26110579.785   103800009.487  
E31  25654968.961   134817775.841    25654971.051   103301943.050    25654971.918   100675628.983    25654972.180   101988786.129  
E03  28376199.273   149117924.882    28376200.871   114259195.627    28376202.410   111354303.993    28376202.305   112806751.413  
E26  23548245.898   123746886.440    23548246.195    94819053.639    23548246.566    92408402.801    23548246.625    93613730.325  
E01  27484607.188   144432568.899    27484609.488   110669111.588    27484610.074   107855490.937    27484610.742   109262303.868  
E08  23856410.930   125366305.179    23856410.449    96059907.674    23856411.918    93617711.725    23856411.703    94838810.802  
E14  19178814.461   100785360.309    19178814.660    77225149.054    19178816.270    75261801.404    19178816.168    76243477.833  
E24  27011787.453   141947901.110    27011787.332   108765277.591    27011787.969   106000053.153    27011788.402   107382667.484  
E13  26484170.961   139175266.771    26484172.219   106640804.867    26484173.148   103929601.814    26484173.289   105285201.945  
E33  24681083.625   129699972.477    24681083.969    99380506.647    24681085.176    96853887.203    24681085.086    98117200.534  
C26  25230465.664   131381659.462                                    25230457.203   106758335.289  
C20  26076945.211   135789487.499                                    26076929.488   110340024.760  
C13  40565058.234   211232912.953    40565057.746   163338693.054    40565048.668   171644021.546  
C06  39450370.477   205428436.707    39450361.113   158850268.959    39450356.168   166927376.920  
C16  39492798.523   205649371.451    39492795.973   159021162.467    39492787.691   167107023.185  
C27  24675179.305   128490148.838                                    24675171.215   104408742.378  
C05  40191088.062   209285508.459    40191081.793   161832827.979    40191077.945   170061597.386  
C29  22940358.109   119456472.753                                    22940347.562    97068131.058  
C30  21630134.719   112633807.077                                    21630127.309    91524178.255  
C09  40543876.305   211122607.450    40543872.340   163253379.646    40543863.453   171554366.467  
> 2022 01 01 00 28 30.0000000  0 37                     
G30  25517174.031   134093710.848    25517173.781                                    25517179.730   104488605.771    25517178.691   100134892.434  
G32  24171527.648   127022234.637    24171527.879    24171531.398    98978388.475    24171532.094    98978384.465    24171531.473    94854286.124  
G01  23392084.953   122926328.291    23392085.386    23392091.699    95786729.314    23392091.652    95786742.315    23392089.867    91795610.730  
G08  20554916.875   108017068.721    20554916.729    20554921.797    84168985.147    20554922.305    84168982.154    20554921.488    80661936.324  
G27  21447641.766   112708124.944    21447641.771    21447647.195    87824542.056    21447647.211    87824551.045    21447645.613    84165190.205  
G14  24073131.547   126505287.030    24073131.709    24073134.688    98575457.208    24073134.922    98575520.213    24073139.141    94468177.484  
G21  21680701.602   113932979.816    21680701.022    21680704.691    88778885.711                                                                  
G10  21176294.648   111282333.381    21176294.753    21176300.129    86713422.603    21176299.402    86713431.605    21176298.664    83100432.732  
G23  22869882.062   120182309.639    22869882.287    22869884.629    93648367.311    22869884.797    93648391.310    22869887.707    89746380.780  
R08  20240622.117   108387630.481    20240620.848   108387615.489    20240622.719    84301540.589    20240622.543    84301499.585  
R15  21684303.703   115874359.339    21684303.070   115874444.336    21684305.844    90124501.309    21684305.707    90124513.314  
R24  19164462.852   102481761.508    19164462.020   102481271.516    19164464.328    79707466.693    19164464.422    79707488.689  
R07  22826458.164   122191876.456    22826458.461   122191841.489    22826462.730    95038114.310    22826462.172    95037991.300  
R17  21507686.758   115092032.371    21507685.512   115091979.388    21507688.922    89516000.181    21507688.977    89515999.191  
R01  20837979.750   111390947.370    20837978.598   111391062.384    20837983.723    86637434.337    20837983.504    86637424.346  
R14  23701323.516   126341403.514    23701323.551   126341513.547    23701328.203    98265531.541    23701329.961    98265516.528  
R23  20712797.672   110799524.381    20712796.602   110799532.385                                                                  
E07  26096848.711   137139869.458    26096851.383   105081212.964    26096851.898   102409657.283    26096852.289   103745437.231  
E31  25661889.906   134854145.120    25661892.453   103329810.427    25661892.961   100702787.875    25661893.051   102016299.254  
E03  28390483.867   149192990.181    28390485.242   114316713.291    28390487.008   111410359.359    28390486.652   112863537.933  
E26  23551588.227   123764450.396    23551588.531    94832511.733    23551588.820    92421518.740    23551588.930    93627017.343  
E01  27502787.961   144528109.598    27502790.145   110742318.049    27502790.633   107926836.226    27502791.441   109334579.743  
E08  23857614.984   125372633.447    23857614.766    96064756.605    23857616.082    93622437.375    23857615.961    94843598.095  
E14  19204889.281   100922382.141    19204889.188    77330139.785    19204890.578    75364122.869    19204890.621    76347133.934  
E24  27003743.945   141905632.601    27003744.172   108732890.064    27003744.672   105968489.018    27003745.051   107350691.646  
E13  26499545.703   139256061.504    26499547.266   106702712.506    26499547.504   103989935.528    26499548.074   105346322.628  
E33  24670143.797   129642482.614    24670144.035    99336455.975    24670144.980    96810956.466    24670145.113    98073709.829  
C26  25229575.023   131377024.111                                    25229566.703   106754568.676  
C20  26056174.180   135681326.715                                    26056158.352   110252135.280  
C13  40571925.344   211268674.208    40571924.844   163366345.922    40571916.891   171673080.503  
C06  39440536.312   205377224.546    39440526.883   158810668.464    39440521.137   166885762.839  
C16  39484211.586   205604662.745    39484210.355   158986590.873    39484201.652   167070693.703  
C27  24693222.570   128584105.817                                    24693214.430   104485090.111  
C05  40191125.039   209285702.359    40191119.168   161832977.917    40191115.262   170061754.948  
C29  22927254.820   119388241.468                                    22927244.543    97012687.547  
C30  21635451.609   112661494.125                                    21635444.324    91546676.242  
C09  40532867.336   211065280.762    40532863.293   163209051.036    40532854.410   171507783.849  
> 2022 01 01 00 29 00.0000000  0 37                     
G30  25530937.789   134166051.598    25530937.539                                    25530944.996   104544975.193    25530945.055   100188913.146  
G32  24152852.000   126924097.380    24152852.230    24152857.145    98901917.921    24152857.715    98901913.923    24152856.590    94781001.866  
G01  23371357.727   122817408.095    23371358.159    23371364.609    95701856.461    23371364.691    95701869.466    23371362.988    91714274.249  
G08  20557614.641   108031244.151    20557614.494    20557619.477    84180030.926    20557619.855    84180027.924    20557618.895    80672521.857  
G27  21462897.859   112788296.267    21462897.865    21462903.211    87887013.183    21462903.602    87887022.181    21462901.828    84225058.368  
G14  24058864.445   126430310.833    24058864.607    24058867.336    98517034.256    24058867.336    98517097.253    24058871.094    94412188.804  
G21  21670036.000   113876928.586    21670035.420    21670038.277    88735209.423                                                                  
G10  21181579.992   111310107.428    21181580.097    21181585.121    86735064.711    21181584.770    86735073.707    21181583.656    83121173.081  
G23  22886949.555   120272005.035    22886949.779    22886952.809    93718259.806    22886952.477    93718283.827    22886956.930    89813361.115  
R08  20243529.453   108403203.040    20243529.051   108403188.057    20243530.723    84313652.579    20243530.836    84313611.587  
R15  21694357.984   115928088.891    21694358.137   115928173.885    21694360.453    90166290.947    21694360.887    90166302.952  
R24  19163406.141   102476111.921    19163405.586   102475621.945    19163407.879    79703072.570    19163407.402    79703094.573  
R07  22847532.578   122304691.708    22847533.277   122304656.713    22847535.832    95125859.561    22847536.449    95125736.551  
R17  21488080.156   114987111.290    21488079.105   114987058.300    21488081.789    89434394.895    21488081.871    89434393.899  
R01  20819793.961   111293737.157    20819793.176   111293852.164    20819798.098    86561826.426    20819796.512    86561816.426  
R14  23725209.945   126468726.805    23725209.664   126468836.805    23725213.836    98364560.645    23725214.457    98364545.643  
R23  20729089.727   110886676.190    20729089.613   110886684.209                                                                  
E07  26083176.070   137068019.532    26083178.551   105026159.141    26083179.754   102356003.124    26083179.688   103691083.237  
E31  25668892.422   134890942.585    25668894.680   103358005.873    25668894.980   100730266.480    25668895.379   102044136.285  
E03  28404815.133   149268302.036    28404816.535   114374419.768    28404818.293   111466598.679    28404818.387   112920510.807  
E26  23554985.305   123782301.319    23554985.816    94846189.712    23554985.652    92434848.977    23554985.852    93640521.442  
E01  27520987.469   144623749.641    27520989.988   110815600.632    27520990.383   107998255.677    27520991.184   109406930.764  
E08  23858906.031   125379419.792    23858906.324    96069956.521    23858907.637    93627505.091    23858907.324    94848731.914  
E14  19231171.648   101060497.646    19231171.809    77435968.544    19231173.102    75467261.055    19231173.195    76451617.405  
E24  26995778.141   141863772.635    26995777.727   108700815.521    26995779.215   105937229.917    26995779.348   107319024.826  
E13  26514938.836   139336953.171    26514940.250   106764694.427    26514940.453   104050341.620    26514941.301   105407516.629  
E33  24659242.984   129585199.138    24659242.879    99292563.451    24659244.418    96768179.857    24659244.391    98030375.258  
C26  25228784.586   131372905.608                                    25228775.977   106751222.067  
C20  26035416.695   135573238.712                                    26035401.195   110164304.955  
C13  40578791.070   211304428.954    40578792.117   163393993.787    40578783.000   171702134.161  
C06  39430720.945   205326130.208    39430715.277   158771159.133    39430709.191   166844244.531  
C16  39475652.805   205560090.748    39475650.984   158952125.004    39475642.941   167034475.318  
C27  24711294.711   128678209.041                                    24711286.246   104561556.673  
C05  40191162.992   209285900.001    40191157.273   161833130.743    40191153.168   170061915.541  
C29  22914204.086   119320282.869                                    22914193.645    96957465.613  
C30  21640846.125   112689583.613                                    21640838.688    91569501.249  
C09  40521873.266   211008028.669    40521868.562   163164780.115    40521860.219   171461261.851  
